{"meta": {"code": 200, "requestId": "563e787c498e675659629d9f"}, "response": {"confident": true, "geocode": {"parents": [], "what": "", "where": "paris", "feature": {"highlightedName": "<b>Paris</b>, France", "displayName": "Paris, France", "name": "Paris", "longId": "72057594040916443", "cc": "FR", "id": "geonameid:2988507", "geometry": {"center": {"lat": 48.85341, "lng": 2.3488}, "bounds": {"sw": {"lat": 48.670322030624696, "lng": 2.1084049608796893}, "ne": {"lat": 49.03356694704047, "lng": 2.6042489194755207}}}, "matchedName": "Paris, France", "woeType": 7, "slug": "paris"}}, "venues": [{"stats": {"tipCount": 606, "checkinsCount": 78340, "usersCount": 65864}, "name": "Cath\u00e9drale Notre-Dame de Paris", "referralId": "v-1446934653", "venueChains": [], "storeId": "", "hereNow": {"count": 5, "groups": [{"count": 5, "items": [], "type": "others", "name": "Other people here"}], "summary": "5 people are here"}, "specials": {"count": 0, "items": []}, "location": {"city": "Paris", "cc": "FR", "country": "France", "postalCode": "75004", "state": "\u00cele-de-France", "formattedAddress": ["6 place du parvis Notre-Dame (Place Jean-Paul II)", "75004 Paris", "France"], "crossStreet": "Place Jean-Paul II", "address": "6 place du parvis Notre-Dame", "lat": 48.85303971813958, "lng": 2.3497116565704346}, "venuePage": {"id": "140065734"}, "verified": true, "id": "4adcda09f964a520e83321e3", "categories": [{"pluralName": "Churches", "primary": true, "name": "Church", "shortName": "Church", "id": "4bf58dd8d48988d132941735", "icon": {"prefix": "https://ss3.4sqi.net/img/categories_v2/building/religious_church_", "suffix": ".png"}}]}, {"stats": {"tipCount": 1450, "checkinsCount": 120472, "usersCount": 98547}, "name": "Mus\u00e9e du Louvre", "referralId": "v-1446934653", "venueChains": [{"id": "5568f21aa7c8a9cf8ec44485"}], "storeId": "", "hereNow": {"count": 3, "groups": [{"count": 3, "items": [], "type": "others", "name": "Other people here"}], "summary": "3 people are here"}, "specials": {"count": 0, "items": []}, "location": {"city": "Paris", "neighborhood": "Le Louvre", "cc": "FR", "country": "France", "postalCode": "75001", "state": "\u00cele-de-France", "formattedAddress": ["99 rue de Rivoli (Rue du Louvre)", "75001 Paris", "France"], "crossStreet": "Rue du Louvre", "address": "99 rue de Rivoli", "lat": 48.860649275706926, "lng": 2.3370838165283203}, "verified": true, "id": "4adcda10f964a520af3521e3", "categories": [{"pluralName": "Art Museums", "primary": true, "name": "Art Museum", "shortName": "Art Museum", "id": "4bf58dd8d48988d18f941735", "icon": {"prefix": "https://ss3.4sqi.net/img/categories_v2/arts_entertainment/museum_art_", "suffix": ".png"}}]}, {"stats": {"tipCount": 156, "checkinsCount": 6931, "usersCount": 5875}, "name": "Shakespeare & Company", "referralId": "v-1446934653", "venueChains": [], "hereNow": {"count": 1, "groups": [{"count": 1, "items": [], "type": "others", "name": "Other people here"}], "summary": "One other person is here"}, "specials": {"count": 0, "items": []}, "allowMenuUrlEdit": true, "location": {"city": "Paris", "cc": "FR", "country": "France", "postalCode": "75005", "state": "\u00cele-de-France", "formattedAddress": ["37 rue de la B\u00fbcherie", "75005 Paris", "France"], "address": "37 rue de la B\u00fbcherie", "lat": 48.85258084884126, "lng": 2.3471474647521973}, "verified": false, "id": "4adcda21f964a520f23921e3", "categories": [{"pluralName": "Bookstores", "primary": true, "name": "Bookstore", "shortName": "Bookstore", "id": "4bf58dd8d48988d114951735", "icon": {"prefix": "https://ss3.4sqi.net/img/categories_v2/shops/bookstore_", "suffix": ".png"}}]}, {"stats": {"tipCount": 37, "checkinsCount": 2731, "usersCount": 2404}, "name": "La Conciergerie", "referralId": "v-1446934653", "venueChains": [{"id": "556a23f2a7c8957d73d2f266"}], "hereNow": {"count": 0, "groups": [], "summary": "Nobody here"}, "specials": {"count": 0, "items": []}, "location": {"city": "Paris", "cc": "FR", "country": "France", "postalCode": "75001", "state": "\u00cele-de-France", "formattedAddress": ["2 boulevard du Palais (Quai de l'Horloge)", "75001 Paris", "France"], "crossStreet": "Quai de l'Horloge", "address": "2 boulevard du Palais", "lat": 48.85611, "lng": 2.34492}, "verified": true, "id": "4adcda0af964a520643421e3", "categories": [{"pluralName": "Historic Sites", "primary": true, "name": "Historic Site", "shortName": "Historic Site", "id": "4deefb944765f83613cdba6e", "icon": {"prefix": "https://ss3.4sqi.net/img/categories_v2/arts_entertainment/historicsite_", "suffix": ".png"}}]}, {"stats": {"tipCount": 0, "checkinsCount": 4, "usersCount": 4}, "name": "Mont Saint Michel", "referralId": "v-1446934653", "venueChains": [], "hereNow": {"count": 0, "groups": [], "summary": "Nobody here"}, "specials": {"count": 0, "items": []}, "location": {"cc": "FR", "country": "France", "state": "France", "formattedAddress": ["Mont-St-Michel", "France"], "address": "Mont-St-Michel", "lat": 48.870403, "lng": 2.363883}, "verified": false, "id": "562d448f498ed5b22fbbe763", "categories": [{"pluralName": "Historic Sites", "primary": true, "name": "Historic Site", "shortName": "Historic Site", "id": "4deefb944765f83613cdba6e", "icon": {"prefix": "https://ss3.4sqi.net/img/categories_v2/arts_entertainment/historicsite_", "suffix": ".png"}}]}, {"stats": {"tipCount": 392, "checkinsCount": 66968, "usersCount": 51053}, "name": "Arc de Triomphe", "referralId": "v-1446934653", "venueChains": [{"id": "556a23f2a7c8957d73d2f266"}], "storeId": "", "hereNow": {"count": 3, "groups": [{"count": 3, "items": [], "type": "others", "name": "Other people here"}], "summary": "3 people are here"}, "specials": {"count": 0, "items": []}, "location": {"city": "Paris", "cc": "FR", "country": "France", "postalCode": "75008", "state": "\u00cele-de-France", "formattedAddress": ["Place Charles de Gaulle", "75008 Paris", "France"], "address": "Place Charles de Gaulle", "lat": 48.873797, "lng": 2.294952}, "verified": true, "id": "4adcda09f964a520de3321e3", "categories": [{"pluralName": "Monuments / Landmarks", "primary": true, "name": "Monument / Landmark", "shortName": "Landmark", "id": "4bf58dd8d48988d12d941735", "icon": {"prefix": "https://ss3.4sqi.net/img/categories_v2/building/government_monument_", "suffix": ".png"}}]}, {"stats": {"tipCount": 137, "checkinsCount": 16987, "usersCount": 12568}, "name": "Op\u00e9ra Garnier", "referralId": "v-1446934653", "venueChains": [{"id": "5568eda0a7c8a9cf8ec3b73d"}], "hereNow": {"count": 3, "groups": [{"count": 3, "items": [], "type": "others", "name": "Other people here"}], "summary": "3 people are here"}, "specials": {"count": 0, "items": []}, "location": {"city": "Paris", "cc": "FR", "country": "France", "postalCode": "75009", "state": "\u00cele-de-France", "formattedAddress": ["8 rue Scribe (Rue Auber)", "75009 Paris", "France"], "crossStreet": "Rue Auber", "address": "8 rue Scribe", "lat": 48.87199793183453, "lng": 2.3317086696624756}, "verified": true, "id": "4b54148df964a520b0b127e3", "categories": [{"pluralName": "Opera Houses", "primary": true, "name": "Opera House", "shortName": "Opera House", "id": "4bf58dd8d48988d136941735", "icon": {"prefix": "https://ss3.4sqi.net/img/categories_v2/arts_entertainment/performingarts_operahouse_", "suffix": ".png"}}]}, {"stats": {"tipCount": 93, "checkinsCount": 12325, "usersCount": 9048}, "name": "Panth\u00e9on", "referralId": "v-1446934653", "venueChains": [{"id": "556a23f2a7c8957d73d2f266"}], "hereNow": {"count": 0, "groups": [], "summary": "Nobody here"}, "specials": {"count": 0, "items": []}, "location": {"city": "Paris", "cc": "FR", "country": "France", "postalCode": "75005", "state": "\u00cele-de-France", "formattedAddress": ["Place du Panth\u00e9on", "75005 Paris", "France"], "address": "Place du Panth\u00e9on", "lat": 48.84628332528443, "lng": 2.3460638523101807}, "verified": true, "id": "4adcda09f964a520ea3321e3", "categories": [{"pluralName": "Monuments / Landmarks", "primary": true, "name": "Monument / Landmark", "shortName": "Landmark", "id": "4bf58dd8d48988d12d941735", "icon": {"prefix": "https://ss3.4sqi.net/img/categories_v2/building/government_monument_", "suffix": ".png"}}]}, {"stats": {"tipCount": 12, "checkinsCount": 1866, "usersCount": 1101}, "name": "Basilique Saint-Denis", "referralId": "v-1446934653", "venueChains": [{"id": "556a23f2a7c8957d73d2f266"}], "hereNow": {"count": 1, "groups": [{"count": 1, "items": [], "type": "others", "name": "Other people here"}], "summary": "One other person is here"}, "specials": {"count": 0, "items": []}, "location": {"city": "Saint-Denis", "cc": "FR", "country": "France", "postalCode": "93200", "state": "\u00cele-de-France", "formattedAddress": ["Place de la L\u00e9gion d'Honneur", "93200 Saint-Denis", "France"], "address": "Place de la L\u00e9gion d'Honneur", "lat": 48.9354831154371, "lng": 2.3597216606140132}, "verified": true, "id": "4adcda09f964a520f83321e3", "categories": [{"pluralName": "Churches", "primary": true, "name": "Church", "shortName": "Church", "id": "4bf58dd8d48988d132941735", "icon": {"prefix": "https://ss3.4sqi.net/img/categories_v2/building/religious_church_", "suffix": ".png"}}]}, {"stats": {"tipCount": 8, "checkinsCount": 2626, "usersCount": 895}, "name": "Porte Saint-Martin", "referralId": "v-1446934653", "venueChains": [], "hereNow": {"count": 1, "groups": [{"count": 1, "items": [], "type": "others", "name": "Other people here"}], "summary": "One other person is here"}, "specials": {"count": 0, "items": []}, "location": {"city": "Paris", "cc": "FR", "country": "France", "postalCode": "75010", "state": "\u00cele-de-France", "formattedAddress": ["Porte Saint-Martin (Boulevard Saint-Martin)", "75010 Paris", "France"], "crossStreet": "Boulevard Saint-Martin", "address": "Porte Saint-Martin", "lat": 48.86911866573677, "lng": 2.355623245239258}, "verified": true, "id": "4c985cc007916dcbd69feb1b", "categories": [{"pluralName": "Historic Sites", "primary": true, "name": "Historic Site", "shortName": "Historic Site", "id": "4deefb944765f83613cdba6e", "icon": {"prefix": "https://ss3.4sqi.net/img/categories_v2/arts_entertainment/historicsite_", "suffix": ".png"}}]}, {"stats": {"tipCount": 70, "checkinsCount": 27000, "usersCount": 15874}, "name": "Grand Palais", "referralId": "v-1446934653", "venueChains": [{"id": "556e543cbd6a82902e285f7e"}], "storeId": "", "hereNow": {"count": 0, "groups": [], "summary": "Nobody here"}, "specials": {"count": 0, "items": []}, "location": {"city": "Paris", "cc": "FR", "country": "France", "postalCode": "75008", "state": "\u00cele-de-France", "formattedAddress": ["3 avenue du G\u00e9n\u00e9ral Eisenhower (Avenue des Champs-\u00c9lys\u00e9es)", "75008 Paris", "France"], "crossStreet": "Avenue des Champs-\u00c9lys\u00e9es", "address": "3 avenue du G\u00e9n\u00e9ral Eisenhower", "lat": 48.86613336932697, "lng": 2.312525510787964}, "verified": true, "id": "4c25f508a852c9281ab1e56c", "categories": [{"pluralName": "Historic Sites", "primary": true, "name": "Historic Site", "shortName": "Historic Site", "id": "4deefb944765f83613cdba6e", "icon": {"prefix": "https://ss3.4sqi.net/img/categories_v2/arts_entertainment/historicsite_", "suffix": ".png"}}]}, {"stats": {"tipCount": 9, "checkinsCount": 1488, "usersCount": 1408}, "name": "Grand Trianon", "referralId": "v-1446934653", "venueChains": [{"id": "5569f7fba7c8896abe7cf096"}], "hereNow": {"count": 0, "groups": [], "summary": "Nobody here"}, "specials": {"count": 0, "items": []}, "location": {"city": "Versailles", "cc": "FR", "country": "France", "postalCode": "78000", "state": "\u00cele-de-France", "formattedAddress": ["Parc du Ch\u00e2teau de Versailles (Avenue du Trianon)", "78000 Versailles", "France"], "crossStreet": "Avenue du Trianon", "address": "Parc du Ch\u00e2teau de Versailles", "lat": 48.81458600892607, "lng": 2.104675769805908}, "verified": true, "id": "4be58f71cf200f474d57133c", "categories": [{"pluralName": "Historic Sites", "primary": true, "name": "Historic Site", "shortName": "Historic Site", "id": "4deefb944765f83613cdba6e", "icon": {"prefix": "https://ss3.4sqi.net/img/categories_v2/arts_entertainment/historicsite_", "suffix": ".png"}}]}, {"stats": {"tipCount": 11, "checkinsCount": 1162, "usersCount": 695}, "name": "Passage Jouffroy", "referralId": "v-1446934653", "venueChains": [], "hereNow": {"count": 0, "groups": [], "summary": "Nobody here"}, "specials": {"count": 0, "items": []}, "location": {"city": "Paris", "cc": "FR", "country": "France", "postalCode": "75009", "state": "\u00cele-de-France", "formattedAddress": ["12 boulevard Montmartre", "75009 Paris", "France"], "address": "12 boulevard Montmartre", "lat": 48.872578, "lng": 2.342177}, "verified": true, "id": "4adcda21f964a520e23921e3", "categories": [{"pluralName": "Historic Sites", "primary": true, "name": "Historic Site", "shortName": "Historic Site", "id": "4deefb944765f83613cdba6e", "icon": {"prefix": "https://ss3.4sqi.net/img/categories_v2/arts_entertainment/historicsite_", "suffix": ".png"}}]}, {"stats": {"tipCount": 20, "checkinsCount": 4098, "usersCount": 2693}, "name": "Palais Royal", "referralId": "v-1446934653", "venueChains": [{"id": "556a23f2a7c8957d73d2f266"}], "hereNow": {"count": 0, "groups": [], "summary": "Nobody here"}, "specials": {"count": 0, "items": []}, "location": {"city": "Paris", "cc": "FR", "country": "France", "postalCode": "75001", "state": "\u00cele-de-France", "formattedAddress": ["Place du Palais Royal", "75001 Paris", "France"], "address": "Place du Palais Royal", "lat": 48.86357137721767, "lng": 2.337019443511963}, "verified": true, "id": "4adcda09f964a520ed3321e3", "categories": [{"pluralName": "Historic Sites", "primary": true, "name": "Historic Site", "shortName": "Historic Site", "id": "4deefb944765f83613cdba6e", "icon": {"prefix": "https://ss3.4sqi.net/img/categories_v2/arts_entertainment/historicsite_", "suffix": ".png"}}]}, {"stats": {"tipCount": 8, "checkinsCount": 2039, "usersCount": 581}, "name": "Passage du Grand Cerf", "referralId": "v-1446934653", "venueChains": [], "hereNow": {"count": 0, "groups": [], "summary": "Nobody here"}, "specials": {"count": 0, "items": []}, "location": {"city": "Paris", "cc": "FR", "country": "France", "postalCode": "75002", "state": "\u00cele-de-France", "formattedAddress": ["Passage du Grand Cerf", "75002 Paris", "France"], "address": "Passage du Grand Cerf", "lat": 48.86476, "lng": 2.349486}, "verified": true, "id": "4c457e8d8c1f20a195ce3d99", "categories": [{"pluralName": "Historic Sites", "primary": true, "name": "Historic Site", "shortName": "Historic Site", "id": "4deefb944765f83613cdba6e", "icon": {"prefix": "https://ss3.4sqi.net/img/categories_v2/arts_entertainment/historicsite_", "suffix": ".png"}}]}, {"stats": {"tipCount": 9, "checkinsCount": 1024, "usersCount": 949}, "name": "Galerie des Glaces", "referralId": "v-1446934653", "venueChains": [{"id": "5569f7fba7c8896abe7cf096"}], "hereNow": {"count": 0, "groups": [], "summary": "Nobody here"}, "specials": {"count": 0, "items": []}, "location": {"city": "Versailles", "cc": "FR", "country": "France", "postalCode": "78000", "state": "\u00cele-de-France", "formattedAddress": ["Ch\u00e2teau de Versailles", "78000 Versailles", "France"], "address": "Ch\u00e2teau de Versailles", "lat": 48.80481427800808, "lng": 2.1204257011413574}, "verified": true, "id": "4c5437941b46c9b6616937ce", "categories": [{"pluralName": "Historic Sites", "primary": true, "name": "Historic Site", "shortName": "Historic Site", "id": "4deefb944765f83613cdba6e", "icon": {"prefix": "https://ss3.4sqi.net/img/categories_v2/arts_entertainment/historicsite_", "suffix": ".png"}}]}, {"stats": {"tipCount": 15, "checkinsCount": 1964, "usersCount": 1306}, "name": "Galerie Vivienne", "referralId": "v-1446934653", "venueChains": [], "hereNow": {"count": 0, "groups": [], "summary": "Nobody here"}, "specials": {"count": 0, "items": []}, "location": {"city": "Paris", "cc": "FR", "country": "France", "postalCode": "75002", "state": "\u00cele-de-France", "formattedAddress": ["Galerie Vivienne", "75002 Paris", "France"], "address": "Galerie Vivienne", "lat": 48.866630931096665, "lng": 2.3397096991539}, "verified": true, "id": "4b095936f964a5200a1623e3", "categories": [{"pluralName": "Historic Sites", "primary": true, "name": "Historic Site", "shortName": "Historic Site", "id": "4deefb944765f83613cdba6e", "icon": {"prefix": "https://ss3.4sqi.net/img/categories_v2/arts_entertainment/historicsite_", "suffix": ".png"}}]}, {"stats": {"tipCount": 6, "checkinsCount": 3934, "usersCount": 2053}, "name": "\u00c9cole Militaire", "referralId": "v-1446934653", "venueChains": [], "hereNow": {"count": 0, "groups": [], "summary": "Nobody here"}, "specials": {"count": 0, "items": []}, "location": {"city": "Paris", "cc": "FR", "country": "France", "postalCode": "75007", "state": "\u00cele-de-France", "formattedAddress": ["Avenue de La Motte-Picquet", "75007 Paris", "France"], "address": "Avenue de La Motte-Picquet", "lat": 48.851500724507346, "lng": 2.3050689697265625}, "verified": true, "id": "4c2f103c66e40f476345c18b", "categories": [{"pluralName": "Military Bases", "primary": true, "name": "Military Base", "shortName": "Military Base", "id": "4e52adeebd41615f56317744", "icon": {"prefix": "https://ss3.4sqi.net/img/categories_v2/building/militarybase_", "suffix": ".png"}}]}, {"stats": {"tipCount": 136, "checkinsCount": 11282, "usersCount": 7960}, "name": "Cimeti\u00e8re du P\u00e8re Lachaise", "referralId": "v-1446934653", "venueChains": [], "hereNow": {"count": 0, "groups": [], "summary": "Nobody here"}, "specials": {"count": 0, "items": []}, "location": {"city": "Paris", "cc": "FR", "country": "France", "postalCode": "75020", "state": "\u00cele-de-France", "formattedAddress": ["16 rue du Repos", "75020 Paris", "France"], "address": "16 rue du Repos", "lat": 48.86132687965671, "lng": 2.3942041397094727}, "verified": true, "id": "4adcda09f964a520e73321e3", "categories": [{"pluralName": "Cemeteries", "primary": true, "name": "Cemetery", "shortName": "Cemetery", "id": "4bf58dd8d48988d15c941735", "icon": {"prefix": "https://ss3.4sqi.net/img/categories_v2/parks_outdoors/cemetery_", "suffix": ".png"}}]}, {"stats": {"tipCount": 17, "checkinsCount": 1238, "usersCount": 1104}, "name": "Maison de Victor Hugo", "referralId": "v-1446934653", "venueChains": [], "hereNow": {"count": 0, "groups": [], "summary": "Nobody here"}, "specials": {"count": 0, "items": []}, "location": {"city": "Paris", "cc": "FR", "country": "France", "postalCode": "75004", "state": "\u00cele-de-France", "formattedAddress": ["6 place des Vosges (H\u00f4tel de Rohan-Gu\u00e9m\u00e9n\u00e9e)", "75004 Paris", "France"], "crossStreet": "H\u00f4tel de Rohan-Gu\u00e9m\u00e9n\u00e9e", "address": "6 place des Vosges", "lat": 48.854832797838974, "lng": 2.366030216217041}, "verified": true, "id": "4adcda0ef964a5204e3521e3", "categories": [{"pluralName": "Historic Sites", "primary": true, "name": "Historic Site", "shortName": "Historic Site", "id": "4deefb944765f83613cdba6e", "icon": {"prefix": "https://ss3.4sqi.net/img/categories_v2/arts_entertainment/historicsite_", "suffix": ".png"}}]}, {"stats": {"tipCount": 9, "checkinsCount": 545, "usersCount": 404}, "name": "Villa Savoye", "referralId": "v-1446934653", "venueChains": [], "hereNow": {"count": 0, "groups": [], "summary": "Nobody here"}, "specials": {"count": 0, "items": []}, "location": {"city": "Poissy", "cc": "FR", "country": "France", "postalCode": "78300", "state": "\u00cele-de-France", "formattedAddress": ["82 Rue de Villiers", "78300 Poissy", "France"], "address": "82 Rue de Villiers", "lat": 48.92431111612402, "lng": 2.0283815988451135}, "verified": false, "id": "4adcda0af964a5206c3421e3", "categories": [{"pluralName": "Historic Sites", "primary": true, "name": "Historic Site", "shortName": "Historic Site", "id": "4deefb944765f83613cdba6e", "icon": {"prefix": "https://ss3.4sqi.net/img/categories_v2/arts_entertainment/historicsite_", "suffix": ".png"}}]}, {"stats": {"tipCount": 16, "checkinsCount": 4619, "usersCount": 2781}, "name": "Tour Saint-Jacques", "referralId": "v-1446934653", "venueChains": [], "hereNow": {"count": 0, "groups": [], "summary": "Nobody here"}, "specials": {"count": 0, "items": []}, "location": {"city": "Paris", "cc": "FR", "country": "France", "postalCode": "75004", "state": "\u00cele-de-France", "formattedAddress": ["88 rue de Rivoli", "75004 Paris", "France"], "address": "88 rue de Rivoli", "lat": 48.858030532545826, "lng": 2.348874807357788}, "verified": true, "id": "4b5c7d1ff964a5205f3229e3", "categories": [{"pluralName": "Historic Sites", "primary": true, "name": "Historic Site", "shortName": "Historic Site", "id": "4deefb944765f83613cdba6e", "icon": {"prefix": "https://ss3.4sqi.net/img/categories_v2/arts_entertainment/historicsite_", "suffix": ".png"}}]}, {"stats": {"tipCount": 8, "checkinsCount": 1392, "usersCount": 1267}, "name": "Petit Trianon", "referralId": "v-1446934653", "venueChains": [{"id": "5569f7fba7c8896abe7cf096"}], "hereNow": {"count": 0, "groups": [], "summary": "Nobody here"}, "specials": {"count": 0, "items": []}, "location": {"city": "Versailles", "cc": "FR", "country": "France", "postalCode": "78000", "state": "\u00cele-de-France", "formattedAddress": ["Parc du Ch\u00e2teau de Versailles (All\u00e9e des Deux Trianons)", "78000 Versailles", "France"], "crossStreet": "All\u00e9e des Deux Trianons", "address": "Parc du Ch\u00e2teau de Versailles", "lat": 48.81488857667206, "lng": 2.1099732024627214}, "verified": true, "id": "4bc08f79461576b014487a32", "categories": [{"pluralName": "Historic Sites", "primary": true, "name": "Historic Site", "shortName": "Historic Site", "id": "4deefb944765f83613cdba6e", "icon": {"prefix": "https://ss3.4sqi.net/img/categories_v2/arts_entertainment/historicsite_", "suffix": ".png"}}]}, {"stats": {"tipCount": 4, "checkinsCount": 1654, "usersCount": 190}, "name": "Le Centorial", "referralId": "v-1446934653", "venueChains": [], "hereNow": {"count": 0, "groups": [], "summary": "Nobody here"}, "specials": {"count": 0, "items": []}, "location": {"city": "Paris", "cc": "FR", "country": "France", "postalCode": "75002", "state": "\u00cele-de-France", "formattedAddress": ["16-18 rue du Quatre Septembre", "75002 Paris", "France"], "address": "16-18 rue du Quatre Septembre", "lat": 48.87011290021138, "lng": 2.3362264135020387}, "verified": false, "id": "4c89151ded0aa14358b1aef3", "categories": [{"pluralName": "Buildings", "primary": true, "name": "Building", "shortName": "Building", "id": "4bf58dd8d48988d130941735", "icon": {"prefix": "https://ss3.4sqi.net/img/categories_v2/building/default_", "suffix": ".png"}}]}, {"stats": {"tipCount": 33, "checkinsCount": 4101, "usersCount": 3675}, "name": "Tombeau de Napol\u00e9on", "referralId": "v-1446934653", "venueChains": [{"id": "556a4162a7c8957d73d5e4a8"}], "hereNow": {"count": 0, "groups": [], "summary": "Nobody here"}, "specials": {"count": 0, "items": []}, "location": {"city": "Paris", "cc": "FR", "country": "France", "postalCode": "75007", "state": "\u00cele-de-France", "formattedAddress": ["H\u00f4tel des Invalides", "75007 Paris", "France"], "address": "H\u00f4tel des Invalides", "lat": 48.85495280481723, "lng": 2.3125147819519043}, "verified": true, "id": "4adcda0af964a520323421e3", "categories": [{"pluralName": "Cemeteries", "primary": true, "name": "Cemetery", "shortName": "Cemetery", "id": "4bf58dd8d48988d15c941735", "icon": {"prefix": "https://ss3.4sqi.net/img/categories_v2/parks_outdoors/cemetery_", "suffix": ".png"}}]}, {"stats": {"tipCount": 7, "checkinsCount": 1608, "usersCount": 1175}, "name": "Archives Nationales", "referralId": "v-1446934653", "venueChains": [], "hereNow": {"count": 0, "groups": [], "summary": "Nobody here"}, "specials": {"count": 0, "items": []}, "location": {"city": "Paris", "cc": "FR", "country": "France", "postalCode": "75003", "state": "\u00cele-de-France", "formattedAddress": ["60 rue des Francs-Bourgeois", "75003 Paris", "France"], "address": "60 rue des Francs-Bourgeois", "lat": 48.86015664446996, "lng": 2.357437594157601}, "verified": false, "id": "4adcda09f964a520d43321e3", "categories": [{"pluralName": "Historic Sites", "primary": true, "name": "Historic Site", "shortName": "Historic Site", "id": "4deefb944765f83613cdba6e", "icon": {"prefix": "https://ss3.4sqi.net/img/categories_v2/arts_entertainment/historicsite_", "suffix": ".png"}}]}, {"stats": {"tipCount": 30, "checkinsCount": 2531, "usersCount": 1616}, "name": "Ar\u00e8nes de Lut\u00e8ce", "referralId": "v-1446934653", "venueChains": [], "hereNow": {"count": 0, "groups": [], "summary": "Nobody here"}, "specials": {"count": 0, "items": []}, "location": {"city": "Paris", "cc": "FR", "country": "France", "postalCode": "75005", "state": "\u00cele-de-France", "formattedAddress": ["49 rue Monge (Rue de Navarre)", "75005 Paris", "France"], "crossStreet": "Rue de Navarre", "address": "49 rue Monge", "lat": 48.84509009536325, "lng": 2.3528873920440674}, "verified": true, "id": "4adcda0af964a520273421e3", "categories": [{"pluralName": "Historic Sites", "primary": true, "name": "Historic Site", "shortName": "Historic Site", "id": "4deefb944765f83613cdba6e", "icon": {"prefix": "https://ss3.4sqi.net/img/categories_v2/arts_entertainment/historicsite_", "suffix": ".png"}}]}, {"stats": {"tipCount": 69, "checkinsCount": 6506, "usersCount": 5578}, "name": "H\u00f4tel National des Invalides \u2013 Mus\u00e9e de l'Arm\u00e9e", "referralId": "v-1446934653", "venueChains": [{"id": "556a4162a7c8957d73d5e4a8"}], "hereNow": {"count": 0, "groups": [], "summary": "Nobody here"}, "specials": {"count": 0, "items": []}, "location": {"city": "Paris", "cc": "FR", "country": "France", "postalCode": "75007", "state": "\u00cele-de-France", "formattedAddress": ["Esplanade des Invalides", "75007 Paris", "France"], "address": "Esplanade des Invalides", "lat": 48.85511516674166, "lng": 2.3125791549682617}, "verified": true, "id": "4adcda09f964a520fd3321e3", "categories": [{"pluralName": "Historic Sites", "primary": true, "name": "Historic Site", "shortName": "Historic Site", "id": "4deefb944765f83613cdba6e", "icon": {"prefix": "https://ss3.4sqi.net/img/categories_v2/arts_entertainment/historicsite_", "suffix": ".png"}}]}, {"stats": {"tipCount": 1, "checkinsCount": 1422, "usersCount": 139}, "name": "Barri\u00e8re du Tr\u00f4ne", "referralId": "v-1446934653", "venueChains": [], "hereNow": {"count": 0, "groups": [], "summary": "Nobody here"}, "specials": {"count": 0, "items": []}, "location": {"city": "Paris", "cc": "FR", "country": "France", "postalCode": "75011", "state": "\u00cele-de-France", "formattedAddress": ["7 avenue du Tr\u00f4ne", "75011 Paris", "France"], "address": "7 avenue du Tr\u00f4ne", "lat": 48.848161369224556, "lng": 2.398468852043152}, "verified": true, "id": "4e5670a9a809ca773e004d03", "categories": [{"pluralName": "Historic Sites", "primary": true, "name": "Historic Site", "shortName": "Historic Site", "id": "4deefb944765f83613cdba6e", "icon": {"prefix": "https://ss3.4sqi.net/img/categories_v2/arts_entertainment/historicsite_", "suffix": ".png"}}]}, {"stats": {"tipCount": 56, "checkinsCount": 4231, "usersCount": 3551}, "name": "Petit Palais", "referralId": "v-1446934653", "venueChains": [], "hereNow": {"count": 0, "groups": [], "summary": "Nobody here"}, "specials": {"count": 0, "items": []}, "location": {"city": "Paris", "cc": "FR", "country": "France", "postalCode": "75008", "state": "\u00cele-de-France", "formattedAddress": ["1 avenue Dutuit", "75008 Paris", "France"], "address": "1 avenue Dutuit", "lat": 48.86606279278879, "lng": 2.3145318031311035}, "verified": true, "id": "4adcda0cf964a520013521e3", "categories": [{"pluralName": "Historic Sites", "primary": true, "name": "Historic Site", "shortName": "Historic Site", "id": "4deefb944765f83613cdba6e", "icon": {"prefix": "https://ss3.4sqi.net/img/categories_v2/arts_entertainment/historicsite_", "suffix": ".png"}}]}]}}