{"meta": {"code": 200, "requestId": "563e787e498ec90ea597f588"}, "response": {"confident": false, "geocode": {"parents": [], "what": "", "where": "rome", "feature": {"highlightedName": "<b>Rome</b>, Latium, Italy", "displayName": "Rome, Latium, Italy", "name": "Rome", "longId": "72057594041097006", "cc": "IT", "id": "geonameid:3169070", "geometry": {"center": {"lat": 41.89193, "lng": 12.51133}, "bounds": {"sw": {"lat": 41.79461305370221, "lng": 12.379309999999998}, "ne": {"lat": 41.98942097197372, "lng": 12.615249866611695}}}, "matchedName": "Rome, Latium, Italy", "woeType": 7, "slug": "roma"}}, "venues": [{"stats": {"tipCount": 982, "checkinsCount": 97625, "usersCount": 78896}, "name": "Colosseo", "referralId": "v-1446934654", "venueChains": [], "storeId": "", "hereNow": {"count": 5, "groups": [{"count": 5, "items": [], "type": "others", "name": "Other people here"}], "summary": "5 people are here"}, "specials": {"count": 0, "items": []}, "location": {"city": "Roma", "cc": "IT", "country": "Italia", "postalCode": "00184", "state": "Lazio", "formattedAddress": ["Piazza del Colosseo (Via dei Fori Imperiali)", "00184 Roma Lazio", "Italia"], "crossStreet": "Via dei Fori Imperiali", "address": "Piazza del Colosseo", "lat": 41.89017814755719, "lng": 12.492302656173706}, "verified": true, "id": "4adcdac6f964a520355321e3", "categories": [{"pluralName": "Historic Sites", "primary": true, "name": "Historic Site", "shortName": "Historic Site", "id": "4deefb944765f83613cdba6e", "icon": {"prefix": "https://ss3.4sqi.net/img/categories_v2/arts_entertainment/historicsite_", "suffix": ".png"}}]}, {"stats": {"tipCount": 9, "checkinsCount": 355, "usersCount": 341}, "name": "Monumento Vittorio Emanuele", "referralId": "v-1446934654", "venueChains": [], "hereNow": {"count": 0, "groups": [], "summary": "Nobody here"}, "specials": {"count": 0, "items": []}, "location": {"city": "Roma", "cc": "IT", "country": "Italia", "state": "Lazio", "formattedAddress": ["Piazza Venezia", "Roma Lazio", "Italia"], "address": "Piazza Venezia", "lat": 41.89551508826752, "lng": 12.482865692954682}, "verified": false, "id": "551aec02498e528300f8c1af", "categories": [{"pluralName": "Historic Sites", "primary": true, "name": "Historic Site", "shortName": "Historic Site", "id": "4deefb944765f83613cdba6e", "icon": {"prefix": "https://ss3.4sqi.net/img/categories_v2/arts_entertainment/historicsite_", "suffix": ".png"}}]}, {"stats": {"tipCount": 668, "checkinsCount": 62977, "usersCount": 53800}, "name": "Fontana di Trevi", "referralId": "v-1446934654", "venueChains": [], "storeId": "", "hereNow": {"count": 7, "groups": [{"count": 7, "items": [], "type": "others", "name": "Other people here"}], "summary": "7 people are here"}, "specials": {"count": 0, "items": []}, "location": {"city": "Roma", "cc": "IT", "country": "Italia", "postalCode": "00187", "state": "Lazio", "formattedAddress": ["Piazza di Trevi", "00187 Roma Lazio", "Italia"], "address": "Piazza di Trevi", "lat": 41.90094747270718, "lng": 12.483306527137756}, "verified": true, "id": "4adcdac6f964a5202b5321e3", "categories": [{"pluralName": "Monuments / Landmarks", "primary": true, "name": "Monument / Landmark", "shortName": "Landmark", "id": "4bf58dd8d48988d12d941735", "icon": {"prefix": "https://ss3.4sqi.net/img/categories_v2/building/government_monument_", "suffix": ".png"}}]}, {"stats": {"tipCount": 398, "checkinsCount": 43434, "usersCount": 34944}, "name": "Piazza Navona", "referralId": "v-1446934654", "venueChains": [], "storeId": "", "hereNow": {"count": 4, "groups": [{"count": 4, "items": [], "type": "others", "name": "Other people here"}], "summary": "4 people are here"}, "specials": {"count": 0, "items": []}, "location": {"city": "Roma", "cc": "IT", "country": "Italia", "postalCode": "00186", "state": "Lazio", "formattedAddress": ["Piazza Navona", "00186 Roma Lazio", "Italia"], "address": "Piazza Navona", "lat": 41.89895506484607, "lng": 12.473044395446777}, "verified": true, "id": "4adcdac6f964a520285321e3", "categories": [{"pluralName": "Plazas", "primary": true, "name": "Plaza", "shortName": "Plaza", "id": "4bf58dd8d48988d164941735", "icon": {"prefix": "https://ss3.4sqi.net/img/categories_v2/parks_outdoors/plaza_", "suffix": ".png"}}]}, {"stats": {"tipCount": 426, "checkinsCount": 49008, "usersCount": 41593}, "name": "Pantheon", "referralId": "v-1446934654", "venueChains": [], "storeId": "", "hereNow": {"count": 3, "groups": [{"count": 3, "items": [], "type": "others", "name": "Other people here"}], "summary": "3 people are here"}, "specials": {"count": 0, "items": []}, "location": {"city": "Roma", "cc": "IT", "country": "Italia", "postalCode": "00186", "state": "Lazio", "formattedAddress": ["Piazza della Rotonda", "00186 Roma Lazio", "Italia"], "address": "Piazza della Rotonda", "lat": 41.89859570610966, "lng": 12.476842403411865}, "verified": true, "id": "4adcdac6f964a5202f5321e3", "categories": [{"pluralName": "Historic Sites", "primary": true, "name": "Historic Site", "shortName": "Historic Site", "id": "4deefb944765f83613cdba6e", "icon": {"prefix": "https://ss3.4sqi.net/img/categories_v2/arts_entertainment/historicsite_", "suffix": ".png"}}]}, {"stats": {"tipCount": 80, "checkinsCount": 8646, "usersCount": 7538}, "name": "Palatino", "referralId": "v-1446934654", "venueChains": [], "hereNow": {"count": 0, "groups": [], "summary": "Nobody here"}, "specials": {"count": 0, "items": []}, "location": {"city": "Roma", "cc": "IT", "country": "Italia", "postalCode": "00184", "state": "Lazio", "formattedAddress": ["Via San Gregorio 30", "00184 Roma Lazio", "Italia"], "address": "Via San Gregorio 30", "lat": 41.887997707201734, "lng": 12.488193511962889}, "verified": false, "id": "4bffa730daf9c9b61579faef", "categories": [{"pluralName": "Historic Sites", "primary": true, "name": "Historic Site", "shortName": "Historic Site", "id": "4deefb944765f83613cdba6e", "icon": {"prefix": "https://ss3.4sqi.net/img/categories_v2/arts_entertainment/historicsite_", "suffix": ".png"}}]}, {"stats": {"tipCount": 284, "checkinsCount": 38342, "usersCount": 30715}, "name": "Piazza San Pietro", "referralId": "v-1446934654", "venueChains": [], "storeId": "", "hereNow": {"count": 2, "groups": [{"count": 2, "items": [], "type": "others", "name": "Other people here"}], "summary": "2 people are here"}, "specials": {"count": 0, "items": []}, "location": {"city": "Citt\u00e0 del Vaticano", "cc": "IT", "country": "Italia", "postalCode": "00120", "formattedAddress": ["Piazza San Pietro", "00120 Citt\u00e0 del Vaticano", "Italia"], "address": "Piazza San Pietro", "lat": 41.902093378528214, "lng": 12.45723009109497}, "verified": true, "id": "4adcdac7f964a520735321e3", "categories": [{"pluralName": "Plazas", "primary": true, "name": "Plaza", "shortName": "Plaza", "id": "4bf58dd8d48988d164941735", "icon": {"prefix": "https://ss3.4sqi.net/img/categories_v2/parks_outdoors/plaza_", "suffix": ".png"}}]}, {"stats": {"tipCount": 195, "checkinsCount": 26440, "usersCount": 19919}, "name": "Piazza del Popolo", "referralId": "v-1446934654", "venueChains": [], "storeId": "", "hereNow": {"count": 2, "groups": [{"count": 2, "items": [], "type": "others", "name": "Other people here"}], "summary": "2 people are here"}, "specials": {"count": 0, "items": []}, "location": {"city": "Roma", "cc": "IT", "country": "Italia", "postalCode": "00187", "state": "Lazio", "formattedAddress": ["Piazza del Popolo", "00187 Roma Lazio", "Italia"], "address": "Piazza del Popolo", "lat": 41.91074091042735, "lng": 12.476327419281006}, "verified": true, "id": "4adcdac7f964a520935321e3", "categories": [{"pluralName": "Plazas", "primary": true, "name": "Plaza", "shortName": "Plaza", "id": "4bf58dd8d48988d164941735", "icon": {"prefix": "https://ss3.4sqi.net/img/categories_v2/parks_outdoors/plaza_", "suffix": ".png"}}]}, {"stats": {"tipCount": 209, "checkinsCount": 21447, "usersCount": 19195}, "name": "Foro Romano", "referralId": "v-1446934654", "venueChains": [], "storeId": "", "hereNow": {"count": 1, "groups": [{"count": 1, "items": [], "type": "others", "name": "Other people here"}], "summary": "One other person is here"}, "specials": {"count": 0, "items": []}, "location": {"city": "Roma", "cc": "IT", "country": "Italia", "postalCode": "00186", "state": "Lazio", "formattedAddress": ["Via dei Fori Imperiali", "00186 Roma Lazio", "Italia"], "address": "Via dei Fori Imperiali", "lat": 41.89211891647655, "lng": 12.486133575439453}, "verified": true, "id": "4adcdac6f964a520335321e3", "categories": [{"pluralName": "Historic Sites", "primary": true, "name": "Historic Site", "shortName": "Historic Site", "id": "4deefb944765f83613cdba6e", "icon": {"prefix": "https://ss3.4sqi.net/img/categories_v2/arts_entertainment/historicsite_", "suffix": ".png"}}]}, {"stats": {"tipCount": 6, "checkinsCount": 2552, "usersCount": 967}, "name": "Porta Pia", "referralId": "v-1446934654", "venueChains": [], "hereNow": {"count": 1, "groups": [{"count": 1, "items": [], "type": "others", "name": "Other people here"}], "summary": "One other person is here"}, "specials": {"count": 0, "items": []}, "location": {"city": "Roma", "cc": "IT", "country": "Italia", "postalCode": "00198", "state": "Lazio", "formattedAddress": ["Piazzale Porta Pia (Corso Italia)", "00198 Roma Lazio", "Italia"], "crossStreet": "Corso Italia", "address": "Piazzale Porta Pia", "lat": 41.909206, "lng": 12.501166}, "verified": false, "id": "4adcdac6f964a520445321e3", "categories": [{"pluralName": "Monuments / Landmarks", "primary": true, "name": "Monument / Landmark", "shortName": "Landmark", "id": "4bf58dd8d48988d12d941735", "icon": {"prefix": "https://ss3.4sqi.net/img/categories_v2/building/government_monument_", "suffix": ".png"}}]}, {"stats": {"tipCount": 405, "checkinsCount": 42961, "usersCount": 37085}, "name": "Basilica di San Pietro in Vaticano", "referralId": "v-1446934654", "venueChains": [{"id": "556a23f2a7c8957d73d2f264"}], "storeId": "", "hereNow": {"count": 0, "groups": [], "summary": "Nobody here"}, "specials": {"count": 0, "items": []}, "location": {"city": "Vatican", "cc": "VA", "country": "Vatican", "postalCode": "00120", "formattedAddress": ["Piazza San Pietro", "00120 Citt\u00e0 del Vaticano", "Vatican"], "address": "Piazza San Pietro", "lat": 41.902117334528036, "lng": 12.453625202178953}, "verified": true, "id": "4adcdac6f964a520105321e3", "categories": [{"pluralName": "Churches", "primary": true, "name": "Church", "shortName": "Church", "id": "4bf58dd8d48988d132941735", "icon": {"prefix": "https://ss3.4sqi.net/img/categories_v2/building/religious_church_", "suffix": ".png"}}]}, {"stats": {"tipCount": 85, "checkinsCount": 12666, "usersCount": 10498}, "name": "Scalinata di Trinit\u00e0 dei Monti", "referralId": "v-1446934654", "venueChains": [], "hereNow": {"count": 0, "groups": [], "summary": "Nobody here"}, "specials": {"count": 0, "items": []}, "location": {"city": "Roma", "cc": "IT", "country": "Italia", "postalCode": "00187", "state": "Lazio", "formattedAddress": ["Piazza Trinit\u00e0 dei Monti 17 (Piazza di Spagna)", "00187 Roma Lazio", "Italia"], "crossStreet": "Piazza di Spagna", "address": "Piazza Trinit\u00e0 dei Monti 17", "lat": 41.90590226960147, "lng": 12.48268961906433}, "verified": false, "id": "4aabd1cff964a5203c5a20e3", "categories": [{"pluralName": "Historic Sites", "primary": true, "name": "Historic Site", "shortName": "Historic Site", "id": "4deefb944765f83613cdba6e", "icon": {"prefix": "https://ss3.4sqi.net/img/categories_v2/arts_entertainment/historicsite_", "suffix": ".png"}}]}, {"stats": {"tipCount": 66, "checkinsCount": 8934, "usersCount": 5869}, "name": "Via del Corso", "referralId": "v-1446934654", "venueChains": [], "hereNow": {"count": 0, "groups": [], "summary": "Nobody here"}, "specials": {"count": 0, "items": []}, "location": {"city": "Roma", "cc": "IT", "country": "Italia", "postalCode": "00186", "state": "Lazio", "formattedAddress": ["Via del Corso", "00186 Roma Lazio", "Italia"], "address": "Via del Corso", "lat": 41.90499198925327, "lng": 12.478752136230469}, "verified": false, "id": "4adcdac8f964a520f55321e3", "categories": [{"pluralName": "Roads", "primary": true, "name": "Road", "shortName": "Road", "id": "4bf58dd8d48988d1f9931735", "icon": {"prefix": "https://ss3.4sqi.net/img/categories_v2/travel/highway_", "suffix": ".png"}}]}, {"stats": {"tipCount": 19, "checkinsCount": 2459, "usersCount": 2069}, "name": "Arco di Tito", "referralId": "v-1446934654", "venueChains": [], "hereNow": {"count": 0, "groups": [], "summary": "Nobody here"}, "specials": {"count": 0, "items": []}, "location": {"city": "Roma", "neighborhood": "Campitelli", "cc": "IT", "country": "Italia", "postalCode": "00186", "state": "Lazio", "formattedAddress": ["Foro Romano (Via Sacra)", "00186 Roma Lazio", "Italia"], "crossStreet": "Via Sacra", "address": "Foro Romano", "lat": 41.89064936847651, "lng": 12.488536834716797}, "verified": false, "id": "4c5be145857ca593ab7fc8cb", "categories": [{"pluralName": "Monuments / Landmarks", "primary": true, "name": "Monument / Landmark", "shortName": "Landmark", "id": "4bf58dd8d48988d12d941735", "icon": {"prefix": "https://ss3.4sqi.net/img/categories_v2/building/government_monument_", "suffix": ".png"}}]}, {"stats": {"tipCount": 123, "checkinsCount": 12466, "usersCount": 10448}, "name": "Altare della Patria", "referralId": "v-1446934654", "venueChains": [], "hereNow": {"count": 0, "groups": [], "summary": "Nobody here"}, "specials": {"count": 0, "items": []}, "location": {"city": "Roma", "cc": "IT", "country": "Italia", "postalCode": "00186", "state": "Lazio", "formattedAddress": ["Piazza Venezia", "00186 Roma Lazio", "Italia"], "address": "Piazza Venezia", "lat": 41.895274065239825, "lng": 12.482753700923254}, "verified": false, "id": "4bfac70f4a67c9289bbd28cf", "categories": [{"pluralName": "Monuments / Landmarks", "primary": true, "name": "Monument / Landmark", "shortName": "Landmark", "id": "4bf58dd8d48988d12d941735", "icon": {"prefix": "https://ss3.4sqi.net/img/categories_v2/building/government_monument_", "suffix": ".png"}}]}, {"stats": {"tipCount": 42, "checkinsCount": 5524, "usersCount": 4598}, "name": "Ponte Sant'Angelo", "referralId": "v-1446934654", "venueChains": [], "storeId": "", "hereNow": {"count": 0, "groups": [], "summary": "Nobody here"}, "specials": {"count": 0, "items": []}, "location": {"city": "Roma", "cc": "IT", "country": "Italia", "postalCode": "00193", "state": "Lazio", "formattedAddress": ["Ponte Sant'Angelo", "00193 Roma Lazio", "Italia"], "address": "Ponte Sant'Angelo", "lat": 41.90176997165117, "lng": 12.466456890106201}, "verified": true, "id": "4adcdac8f964a520f05321e3", "categories": [{"pluralName": "Bridges", "primary": true, "name": "Bridge", "shortName": "Bridge", "id": "4bf58dd8d48988d1df941735", "icon": {"prefix": "https://ss3.4sqi.net/img/categories_v2/parks_outdoors/bridge_", "suffix": ".png"}}]}, {"stats": {"tipCount": 21, "checkinsCount": 1819, "usersCount": 1557}, "name": "Teatro di Marcello", "referralId": "v-1446934654", "venueChains": [], "hereNow": {"count": 0, "groups": [], "summary": "Nobody here"}, "specials": {"count": 0, "items": []}, "location": {"city": "Roma", "cc": "IT", "country": "Italia", "postalCode": "00186", "state": "Lazio", "formattedAddress": ["Piazza Monte Savello 30", "00186 Roma Lazio", "Italia"], "address": "Piazza Monte Savello 30", "lat": 41.891931, "lng": 12.479798}, "verified": false, "id": "4adcdac6f964a5203d5321e3", "categories": [{"pluralName": "Historic Sites", "primary": true, "name": "Historic Site", "shortName": "Historic Site", "id": "4deefb944765f83613cdba6e", "icon": {"prefix": "https://ss3.4sqi.net/img/categories_v2/arts_entertainment/historicsite_", "suffix": ".png"}}]}, {"stats": {"tipCount": 202, "checkinsCount": 14331, "usersCount": 13539}, "name": "Cappella Sistina", "referralId": "v-1446934654", "venueChains": [], "hereNow": {"count": 0, "groups": [], "summary": "Nobody here"}, "specials": {"count": 0, "items": []}, "location": {"city": "Vatican", "neighborhood": "Citt\u00e0 del Vaticano", "cc": "VA", "country": "Vatican", "postalCode": "00120", "formattedAddress": ["Viale Vaticano", "00120 Citt\u00e0 del Vaticano", "Vatican"], "address": "Viale Vaticano", "lat": 41.902943811017394, "lng": 12.454397678375244}, "verified": false, "id": "4bd6f610637ba593c5f7f870", "categories": [{"pluralName": "Churches", "primary": true, "name": "Church", "shortName": "Church", "id": "4bf58dd8d48988d132941735", "icon": {"prefix": "https://ss3.4sqi.net/img/categories_v2/building/religious_church_", "suffix": ".png"}}]}, {"stats": {"tipCount": 196, "checkinsCount": 17420, "usersCount": 14905}, "name": "Castel Sant'Angelo", "referralId": "v-1446934654", "venueChains": [], "storeId": "", "hereNow": {"count": 0, "groups": [], "summary": "Nobody here"}, "specials": {"count": 0, "items": []}, "location": {"city": "Roma", "cc": "IT", "country": "Italia", "postalCode": "00193", "state": "Lazio", "formattedAddress": ["Lungotevere Castello", "00193 Roma Lazio", "Italia"], "address": "Lungotevere Castello", "lat": 41.90329915269289, "lng": 12.466135025024414}, "verified": true, "id": "4adcdac6f964a520475321e3", "categories": [{"pluralName": "Castles", "primary": true, "name": "Castle", "shortName": "Castle", "id": "50aaa49e4b90af0d42d5de11", "icon": {"prefix": "https://ss3.4sqi.net/img/categories_v2/parks_outdoors/beach_", "suffix": ".png"}}]}, {"stats": {"tipCount": 11, "checkinsCount": 1105, "usersCount": 561}, "name": "Palazzo della Civilt\u00e0 e del lavoro", "referralId": "v-1446934654", "venueChains": [], "hereNow": {"count": 0, "groups": [], "summary": "Nobody here"}, "specials": {"count": 0, "items": []}, "location": {"city": "Roma", "cc": "IT", "country": "Italia", "postalCode": "00144", "state": "Lazio", "formattedAddress": ["Quadrato della Concordia", "00144 Roma Lazio", "Italia"], "address": "Quadrato della Concordia", "lat": 41.83672394525158, "lng": 12.465319633483887}, "verified": false, "id": "4d861e0850913704b1a5a45b", "categories": [{"pluralName": "Monuments / Landmarks", "primary": true, "name": "Monument / Landmark", "shortName": "Landmark", "id": "4bf58dd8d48988d12d941735", "icon": {"prefix": "https://ss3.4sqi.net/img/categories_v2/building/government_monument_", "suffix": ".png"}}]}, {"stats": {"tipCount": 26, "checkinsCount": 2230, "usersCount": 1902}, "name": "Basilica di Santa Maria in Trastevere", "referralId": "v-1446934654", "venueChains": [], "storeId": "", "hereNow": {"count": 0, "groups": [], "summary": "Nobody here"}, "specials": {"count": 0, "items": []}, "location": {"city": "Roma", "cc": "IT", "country": "Italia", "postalCode": "00153", "state": "Lazio", "formattedAddress": ["Piazza di Santa Maria in Trastevere", "00153 Roma Lazio", "Italia"], "address": "Piazza di Santa Maria in Trastevere", "lat": 41.88958219387025, "lng": 12.470424051684416}, "verified": true, "id": "4adcdac6f964a5200e5321e3", "categories": [{"pluralName": "Churches", "primary": true, "name": "Church", "shortName": "Church", "id": "4bf58dd8d48988d132941735", "icon": {"prefix": "https://ss3.4sqi.net/img/categories_v2/building/religious_church_", "suffix": ".png"}}]}, {"stats": {"tipCount": 37, "checkinsCount": 4603, "usersCount": 3944}, "name": "Arco di Costantino", "referralId": "v-1446934654", "venueChains": [], "hereNow": {"count": 0, "groups": [], "summary": "Nobody here"}, "specials": {"count": 0, "items": []}, "location": {"city": "Roma", "cc": "IT", "country": "Italia", "postalCode": "00184", "state": "Lazio", "formattedAddress": ["Via San Gregorio", "00184 Roma Lazio", "Italia"], "address": "Via San Gregorio", "lat": 41.88975484444547, "lng": 12.490618228912354}, "verified": false, "id": "4adcdac6f964a520375321e3", "categories": [{"pluralName": "Monuments / Landmarks", "primary": true, "name": "Monument / Landmark", "shortName": "Landmark", "id": "4bf58dd8d48988d12d941735", "icon": {"prefix": "https://ss3.4sqi.net/img/categories_v2/building/government_monument_", "suffix": ".png"}}]}, {"stats": {"tipCount": 16, "checkinsCount": 2259, "usersCount": 1903}, "name": "Foro di Traiano", "referralId": "v-1446934654", "venueChains": [], "hereNow": {"count": 0, "groups": [], "summary": "Nobody here"}, "specials": {"count": 0, "items": []}, "location": {"city": "Roma", "cc": "IT", "country": "Italia", "postalCode": "00187", "state": "Lazio", "formattedAddress": ["Piazza Foro Traiano", "00187 Roma Lazio", "Italia"], "address": "Piazza Foro Traiano", "lat": 41.89515374555332, "lng": 12.485060691833496}, "verified": false, "id": "4c41fd5c520fa593517ccaac", "categories": [{"pluralName": "Historic Sites", "primary": true, "name": "Historic Site", "shortName": "Historic Site", "id": "4deefb944765f83613cdba6e", "icon": {"prefix": "https://ss3.4sqi.net/img/categories_v2/arts_entertainment/historicsite_", "suffix": ".png"}}]}, {"stats": {"tipCount": 23, "checkinsCount": 1214, "usersCount": 844}, "name": "Museo delle Terme di Diocleziano", "referralId": "v-1446934654", "venueChains": [], "hereNow": {"count": 0, "groups": [], "summary": "Nobody here"}, "specials": {"count": 0, "items": []}, "location": {"city": "Roma", "cc": "IT", "country": "Italia", "postalCode": "00185", "state": "Lazio", "formattedAddress": ["Viale Enrico de Nicola, 79", "00185 Roma Lazio", "Italia"], "address": "Viale Enrico de Nicola, 79", "lat": 41.90329107004939, "lng": 12.498909687963586}, "verified": false, "id": "4adcdac9f964a5204f5421e3", "categories": [{"pluralName": "History Museums", "primary": true, "name": "History Museum", "shortName": "History Museum", "id": "4bf58dd8d48988d190941735", "icon": {"prefix": "https://ss3.4sqi.net/img/categories_v2/arts_entertainment/museum_history_", "suffix": ".png"}}]}, {"stats": {"tipCount": 58, "checkinsCount": 3843, "usersCount": 2771}, "name": "Terme di Caracalla", "referralId": "v-1446934654", "venueChains": [], "hereNow": {"count": 0, "groups": [], "summary": "Nobody here"}, "specials": {"count": 0, "items": []}, "location": {"city": "Roma", "cc": "IT", "country": "Italia", "postalCode": "00153", "state": "Lazio", "formattedAddress": ["Viale delle Terme di Caracalla, 52", "00153 Roma Lazio", "Italia"], "address": "Viale delle Terme di Caracalla, 52", "lat": 41.880453637755785, "lng": 12.492749423015855}, "verified": false, "id": "4adcdac6f964a5202e5321e3", "categories": [{"pluralName": "History Museums", "primary": true, "name": "History Museum", "shortName": "History Museum", "id": "4bf58dd8d48988d190941735", "icon": {"prefix": "https://ss3.4sqi.net/img/categories_v2/arts_entertainment/museum_history_", "suffix": ".png"}}]}, {"stats": {"tipCount": 32, "checkinsCount": 3741, "usersCount": 3345}, "name": "Piazza di Trevi", "referralId": "v-1446934654", "venueChains": [], "hereNow": {"count": 0, "groups": [], "summary": "Nobody here"}, "specials": {"count": 0, "items": []}, "location": {"city": "Roma", "cc": "IT", "country": "Italia", "postalCode": "00187", "state": "Lazio", "formattedAddress": ["Piazza di Trevi", "00187 Roma Lazio", "Italia"], "address": "Piazza di Trevi", "lat": 41.900956585935766, "lng": 12.483565645644603}, "verified": false, "id": "4ea9edb56c250fcc73f883ef", "categories": [{"pluralName": "Plazas", "primary": true, "name": "Plaza", "shortName": "Plaza", "id": "4bf58dd8d48988d164941735", "icon": {"prefix": "https://ss3.4sqi.net/img/categories_v2/parks_outdoors/plaza_", "suffix": ".png"}}]}, {"stats": {"tipCount": 40, "checkinsCount": 4685, "usersCount": 4000}, "name": "Piazza del Campidoglio", "referralId": "v-1446934654", "venueChains": [], "storeId": "", "hereNow": {"count": 0, "groups": [], "summary": "Nobody here"}, "specials": {"count": 0, "items": []}, "location": {"city": "Roma", "cc": "IT", "country": "Italia", "postalCode": "00186", "state": "Lazio", "formattedAddress": ["Piazza del Campidoglio", "00186 Roma Lazio", "Italia"], "address": "Piazza del Campidoglio", "lat": 41.89338078397464, "lng": 12.482759356498718}, "verified": true, "id": "4adcdac7f964a5209f5321e3", "categories": [{"pluralName": "Plazas", "primary": true, "name": "Plaza", "shortName": "Plaza", "id": "4bf58dd8d48988d164941735", "icon": {"prefix": "https://ss3.4sqi.net/img/categories_v2/parks_outdoors/plaza_", "suffix": ".png"}}]}, {"stats": {"tipCount": 19, "checkinsCount": 933, "usersCount": 714}, "name": "Fontana dell'Acqua Paola", "referralId": "v-1446934654", "venueChains": [], "hereNow": {"count": 0, "groups": [], "summary": "Nobody here"}, "specials": {"count": 0, "items": []}, "location": {"city": "Roma", "cc": "IT", "country": "Italia", "postalCode": "00153", "state": "Lazio", "formattedAddress": ["Via Giuseppe Garibaldi, 35", "00153 Roma Lazio", "Italia"], "address": "Via Giuseppe Garibaldi, 35", "lat": 41.888882, "lng": 12.464279}, "verified": false, "id": "4da499bc593f8eeccd497e35", "categories": [{"pluralName": "Monuments / Landmarks", "primary": true, "name": "Monument / Landmark", "shortName": "Landmark", "id": "4bf58dd8d48988d12d941735", "icon": {"prefix": "https://ss3.4sqi.net/img/categories_v2/building/government_monument_", "suffix": ".png"}}]}, {"stats": {"tipCount": 59, "checkinsCount": 9518, "usersCount": 6794}, "name": "Circo Massimo", "referralId": "v-1446934654", "venueChains": [], "hereNow": {"count": 0, "groups": [], "summary": "Nobody here"}, "specials": {"count": 0, "items": []}, "location": {"city": "Roma", "cc": "IT", "country": "Italia", "postalCode": "00153", "state": "Lazio", "formattedAddress": ["Via del Circo Massimo", "00153 Roma Lazio", "Italia"], "address": "Via del Circo Massimo", "lat": 41.88621655967098, "lng": 12.485243082046509}, "verified": false, "id": "4adcdac7f964a520705321e3", "categories": [{"pluralName": "Historic Sites", "primary": true, "name": "Historic Site", "shortName": "Historic Site", "id": "4deefb944765f83613cdba6e", "icon": {"prefix": "https://ss3.4sqi.net/img/categories_v2/arts_entertainment/historicsite_", "suffix": ".png"}}]}, {"stats": {"tipCount": 69, "checkinsCount": 7345, "usersCount": 5957}, "name": "Basilica di Santa Maria Maggiore", "referralId": "v-1446934654", "venueChains": [], "hereNow": {"count": 0, "groups": [], "summary": "Nobody here"}, "specials": {"count": 0, "items": []}, "location": {"city": "Roma", "cc": "IT", "country": "Italia", "postalCode": "00184", "state": "Lazio", "formattedAddress": ["Piazza di Santa Maria Maggiore", "00184 Roma Lazio", "Italia"], "address": "Piazza di Santa Maria Maggiore", "lat": 41.897629420367046, "lng": 12.498428821563719}, "verified": false, "id": "4c1df65ffcf8c9b6fb8bac0b", "categories": [{"pluralName": "Churches", "primary": true, "name": "Church", "shortName": "Church", "id": "4bf58dd8d48988d132941735", "icon": {"prefix": "https://ss3.4sqi.net/img/categories_v2/building/religious_church_", "suffix": ".png"}}]}]}}