{"meta": {"code": 200, "requestId": "563f0a54498e35e509e9bb50"}, "response": {"confident": false, "geocode": {"parents": [], "what": "", "where": "berlin", "feature": {"highlightedName": "<b>Berlin</b>, Germany", "displayName": "Berlin, Germany", "name": "Berlin", "longId": "72057594040878095", "cc": "DE", "id": "geonameid:2950159", "geometry": {"center": {"lat": 52.52437, "lng": 13.41053}, "bounds": {"sw": {"lat": 52.33858497674041, "lng": 13.088542091271195}, "ne": {"lat": 52.675075983544005, "lng": 13.757081929101975}}}, "matchedName": "Berlin, Germany", "woeType": 7, "slug": "berlin"}}, "venues": [{"stats": {"tipCount": 2, "checkinsCount": 23, "usersCount": 23}, "name": "Coffee Circle Pop Up", "referralId": "v-1446971988", "venueChains": [], "hereNow": {"count": 0, "groups": [], "summary": "Nobody here"}, "specials": {"count": 0, "items": []}, "allowMenuUrlEdit": true, "location": {"city": "Berlin", "cc": "DE", "country": "Deutschland", "state": "Berlin", "formattedAddress": ["Berlin", "Deutschland"], "lat": 52.503672, "lng": 13.410781}, "verified": false, "id": "5635f0cd498ef690cc3e268d", "categories": [{"pluralName": "Caf\u00e9s", "primary": true, "name": "Caf\u00e9", "shortName": "Caf\u00e9", "id": "4bf58dd8d48988d16d941735", "icon": {"prefix": "https://ss3.4sqi.net/img/categories_v2/food/cafe_", "suffix": ".png"}}]}, {"stats": {"tipCount": 161, "checkinsCount": 4583, "usersCount": 1734}, "name": "Zeit f\u00fcr Brot", "referralId": "v-1446971988", "venueChains": [], "hereNow": {"count": 1, "groups": [{"count": 1, "items": [], "type": "others", "name": "Other people here"}], "summary": "One other person is here"}, "specials": {"count": 0, "items": []}, "allowMenuUrlEdit": true, "location": {"city": "Berlin", "cc": "DE", "country": "Deutschland", "postalCode": "10119", "state": "Berlin", "formattedAddress": ["Alte Sch\u00f6nhauser Str. 4", "10119 Berlin", "Deutschland"], "address": "Alte Sch\u00f6nhauser Str. 4", "lat": 52.527858520308946, "lng": 13.40874718172153}, "verified": false, "id": "4f7d9f5be4b09d309a10e8c0", "categories": [{"pluralName": "Bakeries", "primary": true, "name": "Bakery", "shortName": "Bakery", "id": "4bf58dd8d48988d16a941735", "icon": {"prefix": "https://ss3.4sqi.net/img/categories_v2/food/bakery_", "suffix": ".png"}}]}, {"stats": {"tipCount": 323, "checkinsCount": 13073, "usersCount": 4684}, "name": "dolores*", "referralId": "v-1446971988", "venueChains": [], "hereNow": {"count": 0, "groups": [], "summary": "Nobody here"}, "specials": {"count": 0, "items": []}, "allowMenuUrlEdit": true, "location": {"city": "Berlin", "cc": "DE", "country": "Deutschland", "postalCode": "10178", "state": "Berlin", "formattedAddress": ["Rosa-Luxemburg-Str. 7", "10178 Berlin", "Deutschland"], "address": "Rosa-Luxemburg-Str. 7", "lat": 52.52376435050195, "lng": 13.409269452095032}, "verified": false, "id": "4adcda88f964a520854921e3", "categories": [{"pluralName": "Burrito Places", "primary": true, "name": "Burrito Place", "shortName": "Burritos", "id": "4bf58dd8d48988d153941735", "icon": {"prefix": "https://ss3.4sqi.net/img/categories_v2/food/burrito_", "suffix": ".png"}}]}, {"stats": {"tipCount": 126, "checkinsCount": 3536, "usersCount": 1366}, "name": "Kaschk", "referralId": "v-1446971988", "venueChains": [], "storeId": "", "hereNow": {"count": 0, "groups": [], "summary": "Nobody here"}, "specials": {"count": 0, "items": []}, "allowMenuUrlEdit": true, "location": {"city": "Berlin", "cc": "DE", "country": "Deutschland", "postalCode": "10119", "state": "Berlin", "formattedAddress": ["Linienstr. 40", "10119 Berlin", "Deutschland"], "address": "Linienstr. 40", "lat": 52.52835639708895, "lng": 13.409950733184814}, "venuePage": {"id": "98151871"}, "verified": true, "id": "5413399c498e8fde9fde0365", "categories": [{"pluralName": "Bars", "primary": true, "name": "Bar", "shortName": "Bar", "id": "4bf58dd8d48988d116941735", "icon": {"prefix": "https://ss3.4sqi.net/img/categories_v2/nightlife/pub_", "suffix": ".png"}}]}, {"stats": {"tipCount": 272, "checkinsCount": 9537, "usersCount": 3625}, "name": "The Barn", "referralId": "v-1446971988", "venueChains": [], "hereNow": {"count": 0, "groups": [], "summary": "Nobody here"}, "specials": {"count": 0, "items": []}, "allowMenuUrlEdit": true, "location": {"city": "Berlin", "cc": "DE", "country": "Deutschland", "postalCode": "10115", "state": "Berlin", "formattedAddress": ["Auguststr. 58 (Koppenplatz)", "10115 Berlin", "Deutschland"], "crossStreet": "Koppenplatz", "address": "Auguststr. 58", "lat": 52.52733523088492, "lng": 13.39797848911107}, "verified": true, "id": "4c2344c213c00f47f2b388de", "categories": [{"pluralName": "Coffee Shops", "primary": true, "name": "Coffee Shop", "shortName": "Coffee Shop", "id": "4bf58dd8d48988d1e0931735", "icon": {"prefix": "https://ss3.4sqi.net/img/categories_v2/food/coffeeshop_", "suffix": ".png"}}]}, {"stats": {"tipCount": 219, "checkinsCount": 6393, "usersCount": 2536}, "name": "Bonanza Coffee Heroes", "referralId": "v-1446971988", "venueChains": [], "hereNow": {"count": 0, "groups": [], "summary": "Nobody here"}, "specials": {"count": 0, "items": []}, "allowMenuUrlEdit": true, "location": {"city": "Berlin", "cc": "DE", "country": "Deutschland", "postalCode": "10435", "state": "Berlin", "formattedAddress": ["Oderberger Str. 35", "10435 Berlin", "Deutschland"], "address": "Oderberger Str. 35", "lat": 52.540207989818455, "lng": 13.405519723892212}, "verified": false, "id": "4af28ef8f964a520eae721e3", "categories": [{"pluralName": "Coffee Shops", "primary": true, "name": "Coffee Shop", "shortName": "Coffee Shop", "id": "4bf58dd8d48988d1e0931735", "icon": {"prefix": "https://ss3.4sqi.net/img/categories_v2/food/coffeeshop_", "suffix": ".png"}}]}, {"stats": {"tipCount": 334, "checkinsCount": 6831, "usersCount": 4774}, "name": "Mustafas Gem\u00fcse Kebap", "referralId": "v-1446971988", "venueChains": [], "hereNow": {"count": 0, "groups": [], "summary": "Nobody here"}, "specials": {"count": 0, "items": []}, "allowMenuUrlEdit": true, "location": {"city": "Berlin", "cc": "DE", "country": "Deutschland", "postalCode": "10961", "state": "Berlin", "formattedAddress": ["Mehringdamm 32-34", "10961 Berlin", "Deutschland"], "address": "Mehringdamm 32-34", "lat": 52.49381779259905, "lng": 13.388020992279053}, "verified": false, "id": "4af5697df964a52014f921e3", "categories": [{"pluralName": "Doner Restaurants", "primary": true, "name": "Doner Restaurant", "shortName": "Doner", "id": "5283c7b4e4b094cb91ec88d8", "icon": {"prefix": "https://ss3.4sqi.net/img/categories_v2/food/turkish_", "suffix": ".png"}}]}, {"stats": {"tipCount": 148, "checkinsCount": 2968, "usersCount": 1653}, "name": "westberlin", "referralId": "v-1446971988", "venueChains": [], "storeId": "", "hereNow": {"count": 0, "groups": [], "summary": "Nobody here"}, "specials": {"count": 0, "items": []}, "allowMenuUrlEdit": true, "location": {"city": "Berlin", "cc": "DE", "country": "Deutschland", "postalCode": "10969", "state": "Berlin", "formattedAddress": ["Friedrichstr. 215", "10969 Berlin", "Deutschland"], "address": "Friedrichstr. 215", "lat": 52.505730800223624, "lng": 13.39064007895999}, "venuePage": {"id": "50177224"}, "verified": true, "id": "50813986e4b0ba1a30a13d60", "categories": [{"pluralName": "Coffee Shops", "primary": true, "name": "Coffee Shop", "shortName": "Coffee Shop", "id": "4bf58dd8d48988d1e0931735", "icon": {"prefix": "https://ss3.4sqi.net/img/categories_v2/food/coffeeshop_", "suffix": ".png"}}]}, {"stats": {"tipCount": 132, "checkinsCount": 7192, "usersCount": 5080}, "name": "Hofbr\u00e4uhaus Berlin", "referralId": "v-1446971988", "venueChains": [], "hereNow": {"count": 0, "groups": [], "summary": "Nobody here"}, "specials": {"count": 0, "items": []}, "allowMenuUrlEdit": true, "location": {"city": "Berlin", "cc": "DE", "country": "Deutschland", "postalCode": "10178", "state": "Berlin", "formattedAddress": ["Karl-Liebknecht-Str. 30", "10178 Berlin", "Deutschland"], "address": "Karl-Liebknecht-Str. 30", "lat": 52.52463579923545, "lng": 13.413968682289122}, "verified": false, "id": "4ead71856da1a0e3a47abe19", "categories": [{"pluralName": "German Restaurants", "primary": true, "name": "German Restaurant", "shortName": "German", "id": "4bf58dd8d48988d10d941735", "icon": {"prefix": "https://ss3.4sqi.net/img/categories_v2/food/german_", "suffix": ".png"}}]}, {"stats": {"tipCount": 201, "checkinsCount": 13404, "usersCount": 10701}, "name": "Hard Rock Cafe Berlin", "referralId": "v-1446971988", "venueChains": [{"id": "556a337ba7c8957d73d4b6b4"}], "storeId": "", "hereNow": {"count": 0, "groups": [], "summary": "Nobody here"}, "specials": {"count": 0, "items": []}, "allowMenuUrlEdit": true, "location": {"city": "Berlin", "cc": "DE", "country": "Deutschland", "postalCode": "10719", "state": "Berlin", "formattedAddress": ["Kurf\u00fcrstendamm 224 (Meinekestr.)", "10719 Berlin", "Deutschland"], "crossStreet": "Meinekestr.", "address": "Kurf\u00fcrstendamm 224", "lat": 52.50310236292835, "lng": 13.329473733901978}, "verified": true, "id": "4bc57a696936952133238488", "categories": [{"pluralName": "American Restaurants", "primary": true, "name": "American Restaurant", "shortName": "American", "id": "4bf58dd8d48988d14e941735", "icon": {"prefix": "https://ss3.4sqi.net/img/categories_v2/food/default_", "suffix": ".png"}}]}, {"stats": {"tipCount": 84, "checkinsCount": 15252, "usersCount": 4112}, "name": "betahaus", "referralId": "v-1446971988", "venueChains": [], "hereNow": {"count": 0, "groups": [], "summary": "Nobody here"}, "specials": {"count": 0, "items": []}, "allowMenuUrlEdit": true, "location": {"city": "Berlin", "cc": "DE", "country": "Deutschland", "postalCode": "10969", "state": "Berlin", "formattedAddress": ["Prinzessinnenstr. 19 - 20", "10969 Berlin", "Deutschland"], "address": "Prinzessinnenstr. 19 - 20", "lat": 52.502677016003275, "lng": 13.41220575300252}, "venuePage": {"id": "37663621"}, "verified": true, "id": "4ade1144f964a520ce7221e3", "categories": [{"pluralName": "Coworking Spaces", "primary": true, "name": "Coworking Space", "shortName": "Coworking Space", "id": "4bf58dd8d48988d174941735", "icon": {"prefix": "https://ss3.4sqi.net/img/categories_v2/building/office_coworkingspace_", "suffix": ".png"}}]}, {"stats": {"tipCount": 243, "checkinsCount": 5426, "usersCount": 2151}, "name": "Five Elephant", "referralId": "v-1446971988", "venueChains": [], "hereNow": {"count": 0, "groups": [], "summary": "Nobody here"}, "specials": {"count": 0, "items": []}, "allowMenuUrlEdit": true, "location": {"city": "Berlin", "cc": "DE", "country": "Deutschland", "postalCode": "10999", "state": "Berlin", "formattedAddress": ["Reichenberger Str. 101 (Glogauer Str.)", "10999 Berlin", "Deutschland"], "crossStreet": "Glogauer Str.", "address": "Reichenberger Str. 101", "lat": 52.49336267117807, "lng": 13.437933189022548}, "verified": false, "id": "4db82521fa8c377d83b7e93b", "categories": [{"pluralName": "Coffee Shops", "primary": true, "name": "Coffee Shop", "shortName": "Coffee Shop", "id": "4bf58dd8d48988d1e0931735", "icon": {"prefix": "https://ss3.4sqi.net/img/categories_v2/food/coffeeshop_", "suffix": ".png"}}]}, {"stats": {"tipCount": 191, "checkinsCount": 5227, "usersCount": 2145}, "name": "The Barn - Roastery", "referralId": "v-1446971988", "venueChains": [], "hereNow": {"count": 0, "groups": [], "summary": "Nobody here"}, "specials": {"count": 0, "items": []}, "allowMenuUrlEdit": true, "location": {"city": "Berlin", "cc": "DE", "country": "Deutschland", "postalCode": "10119", "state": "Berlin", "formattedAddress": ["Sch\u00f6nhauser Allee 8", "10119 Berlin", "Deutschland"], "address": "Sch\u00f6nhauser Allee 8", "lat": 52.53005595823114, "lng": 13.410595363797551}, "verified": false, "id": "50597a1ae4b09d2516205aa9", "categories": [{"pluralName": "Coffee Shops", "primary": true, "name": "Coffee Shop", "shortName": "Coffee Shop", "id": "4bf58dd8d48988d1e0931735", "icon": {"prefix": "https://ss3.4sqi.net/img/categories_v2/food/coffeeshop_", "suffix": ".png"}}]}, {"stats": {"tipCount": 213, "checkinsCount": 7769, "usersCount": 3333}, "name": "YamYam", "referralId": "v-1446971988", "venueChains": [], "hereNow": {"count": 0, "groups": [], "summary": "Nobody here"}, "specials": {"count": 0, "items": []}, "allowMenuUrlEdit": true, "location": {"city": "Berlin", "cc": "DE", "country": "Deutschland", "postalCode": "10119", "state": "Berlin", "formattedAddress": ["Alte Sch\u00f6nhauser Str. 6", "10119 Berlin", "Deutschland"], "address": "Alte Sch\u00f6nhauser Str. 6", "lat": 52.52763188432334, "lng": 13.40808391571045}, "verified": false, "id": "4adf5ea4f964a520f57921e3", "categories": [{"pluralName": "Korean Restaurants", "primary": true, "name": "Korean Restaurant", "shortName": "Korean", "id": "4bf58dd8d48988d113941735", "icon": {"prefix": "https://ss3.4sqi.net/img/categories_v2/food/korean_", "suffix": ".png"}}]}, {"stats": {"tipCount": 154, "checkinsCount": 5865, "usersCount": 1402}, "name": "Oslo Kaffebar", "referralId": "v-1446971988", "venueChains": [], "hereNow": {"count": 0, "groups": [], "summary": "Nobody here"}, "specials": {"count": 0, "items": []}, "allowMenuUrlEdit": true, "location": {"city": "Berlin", "cc": "DE", "country": "Deutschland", "postalCode": "10115", "state": "Berlin", "formattedAddress": ["Eichendorffstr. 13 (Invalidenstr.)", "10115 Berlin", "Deutschland"], "crossStreet": "Invalidenstr.", "address": "Eichendorffstr. 13", "lat": 52.53080398695847, "lng": 13.38707685470581}, "verified": false, "id": "4fd0f671e4b0044b25a40009", "categories": [{"pluralName": "Caf\u00e9s", "primary": true, "name": "Caf\u00e9", "shortName": "Caf\u00e9", "id": "4bf58dd8d48988d16d941735", "icon": {"prefix": "https://ss3.4sqi.net/img/categories_v2/food/cafe_", "suffix": ".png"}}]}, {"stats": {"tipCount": 87, "checkinsCount": 1179, "usersCount": 621}, "name": "distrikt coffee", "referralId": "v-1446971988", "venueChains": [], "hereNow": {"count": 0, "groups": [], "summary": "Nobody here"}, "specials": {"count": 0, "items": []}, "allowMenuUrlEdit": true, "location": {"city": "Berlin", "cc": "DE", "country": "Deutschland", "postalCode": "10115", "state": "Berlin", "formattedAddress": ["Bergstrasse 68", "10115 Berlin", "Deutschland"], "address": "Bergstrasse 68", "lat": 52.531627662873845, "lng": 13.394239716308773}, "verified": false, "id": "54565343498ecdd6e47a577b", "categories": [{"pluralName": "Coffee Shops", "primary": true, "name": "Coffee Shop", "shortName": "Coffee Shop", "id": "4bf58dd8d48988d1e0931735", "icon": {"prefix": "https://ss3.4sqi.net/img/categories_v2/food/coffeeshop_", "suffix": ".png"}}]}, {"stats": {"tipCount": 182, "checkinsCount": 4937, "usersCount": 2116}, "name": "Cocolo Ramen", "referralId": "v-1446971988", "venueChains": [], "hereNow": {"count": 0, "groups": [], "summary": "Nobody here"}, "specials": {"count": 0, "items": []}, "allowMenuUrlEdit": true, "location": {"city": "Berlin", "cc": "DE", "country": "Deutschland", "postalCode": "10999", "state": "Berlin", "formattedAddress": ["Paul-Lincke-Ufer 39-40", "10999 Berlin", "Deutschland"], "address": "Paul-Lincke-Ufer 39-40", "lat": 52.495903087061606, "lng": 13.42228026085584}, "verified": false, "id": "51c333e9498e066fed760789", "categories": [{"pluralName": "Ramen Restaurants", "primary": true, "name": "Ramen Restaurant", "shortName": "Ramen", "id": "55a59bace4b013909087cb24", "icon": {"prefix": "https://ss3.4sqi.net/img/categories_v2/food/ramen_", "suffix": ".png"}}]}, {"stats": {"tipCount": 202, "checkinsCount": 7758, "usersCount": 3656}, "name": "I Due Forni", "referralId": "v-1446971988", "venueChains": [], "hereNow": {"count": 0, "groups": [], "summary": "Nobody here"}, "specials": {"count": 0, "items": []}, "allowMenuUrlEdit": true, "location": {"city": "Berlin", "cc": "DE", "country": "Deutschland", "postalCode": "10119", "state": "Berlin", "formattedAddress": ["Sch\u00f6nhauser Allee 12", "10119 Berlin", "Deutschland"], "address": "Sch\u00f6nhauser Allee 12", "lat": 52.53094591842299, "lng": 13.412266146205607}, "verified": false, "id": "4b54ad4af964a5208bc627e3", "categories": [{"pluralName": "Italian Restaurants", "primary": true, "name": "Italian Restaurant", "shortName": "Italian", "id": "4bf58dd8d48988d110941735", "icon": {"prefix": "https://ss3.4sqi.net/img/categories_v2/food/italian_", "suffix": ".png"}}]}, {"stats": {"tipCount": 200, "checkinsCount": 5563, "usersCount": 3083}, "name": "Barcomi's Deli", "referralId": "v-1446971988", "venueChains": [], "hereNow": {"count": 0, "groups": [], "summary": "Nobody here"}, "specials": {"count": 0, "items": []}, "allowMenuUrlEdit": true, "location": {"city": "Berlin", "cc": "DE", "country": "Deutschland", "postalCode": "10178", "state": "Berlin", "formattedAddress": ["Sophienstr. 21 (Sophie-Gips-H\u00f6fe, 2. Hof)", "10178 Berlin", "Deutschland"], "crossStreet": "Sophie-Gips-H\u00f6fe, 2. Hof", "address": "Sophienstr. 21", "lat": 52.52593478061035, "lng": 13.40083122253418}, "verified": false, "id": "4af818bef964a520f70a22e3", "categories": [{"pluralName": "Caf\u00e9s", "primary": true, "name": "Caf\u00e9", "shortName": "Caf\u00e9", "id": "4bf58dd8d48988d16d941735", "icon": {"prefix": "https://ss3.4sqi.net/img/categories_v2/food/cafe_", "suffix": ".png"}}]}, {"stats": {"tipCount": 103, "checkinsCount": 2876, "usersCount": 1343}, "name": "Spreegold", "referralId": "v-1446971988", "venueChains": [], "hereNow": {"count": 0, "groups": [], "summary": "Nobody here"}, "specials": {"count": 0, "items": []}, "allowMenuUrlEdit": true, "location": {"city": "Berlin", "cc": "DE", "country": "Deutschland", "postalCode": "10437", "state": "Berlin", "formattedAddress": ["Stargarder Str. 82", "10437 Berlin", "Deutschland"], "address": "Stargarder Str. 82", "lat": 52.54771674297194, "lng": 13.413731920190907}, "verified": false, "id": "51ca8368498e492b1f2435a3", "categories": [{"pluralName": "Bistros", "primary": true, "name": "Bistro", "shortName": "Bistro", "id": "52e81612bcbc57f1066b79f1", "icon": {"prefix": "https://ss3.4sqi.net/img/categories_v2/food/default_", "suffix": ".png"}}]}, {"stats": {"tipCount": 133, "checkinsCount": 1722, "usersCount": 980}, "name": "Umami", "referralId": "v-1446971988", "venueChains": [], "hereNow": {"count": 0, "groups": [], "summary": "Nobody here"}, "specials": {"count": 0, "items": []}, "allowMenuUrlEdit": true, "location": {"city": "Berlin", "cc": "DE", "country": "Deutschland", "postalCode": "10405", "state": "Berlin", "formattedAddress": ["Knaackstr. 16 (Rykestr.)", "10405 Berlin", "Deutschland"], "crossStreet": "Rykestr.", "address": "Knaackstr. 16", "lat": 52.53455896959653, "lng": 13.418980129998936}, "verified": false, "id": "53677d21498e567ae5c7e8f3", "categories": [{"pluralName": "Vietnamese Restaurants", "primary": true, "name": "Vietnamese Restaurant", "shortName": "Vietnamese", "id": "4bf58dd8d48988d14a941735", "icon": {"prefix": "https://ss3.4sqi.net/img/categories_v2/food/vietnamese_", "suffix": ".png"}}]}, {"stats": {"tipCount": 184, "checkinsCount": 4370, "usersCount": 1392}, "name": "Silo Coffee", "referralId": "v-1446971988", "venueChains": [], "storeId": "", "hereNow": {"count": 0, "groups": [], "summary": "Nobody here"}, "specials": {"count": 0, "items": []}, "allowMenuUrlEdit": true, "location": {"city": "Berlin", "cc": "DE", "country": "Deutschland", "postalCode": "10245", "state": "Berlin", "formattedAddress": ["Gabriel-Max-Str. 4", "10245 Berlin", "Deutschland"], "address": "Gabriel-Max-Str. 4", "lat": 52.51002479357223, "lng": 13.45815723493708}, "venuePage": {"id": "70980711"}, "verified": true, "id": "5211b80711d28272e0a6a49b", "categories": [{"pluralName": "Coffee Shops", "primary": true, "name": "Coffee Shop", "shortName": "Coffee Shop", "id": "4bf58dd8d48988d1e0931735", "icon": {"prefix": "https://ss3.4sqi.net/img/categories_v2/food/coffeeshop_", "suffix": ".png"}}]}, {"stats": {"tipCount": 152, "checkinsCount": 3342, "usersCount": 1330}, "name": "Tommi's Burger Joint", "referralId": "v-1446971988", "venueChains": [], "hereNow": {"count": 0, "groups": [], "summary": "Nobody here"}, "specials": {"count": 0, "items": []}, "allowMenuUrlEdit": true, "location": {"city": "Berlin", "cc": "DE", "country": "Deutschland", "postalCode": "10115", "state": "Berlin", "formattedAddress": ["Invalidenstr. 160", "10115 Berlin", "Deutschland"], "address": "Invalidenstr. 160", "lat": 52.53240953182129, "lng": 13.398127555847168}, "verified": false, "id": "528a4e3411d24e4d2d087a64", "categories": [{"pluralName": "Burger Joints", "primary": true, "name": "Burger Joint", "shortName": "Burgers", "id": "4bf58dd8d48988d16c941735", "icon": {"prefix": "https://ss3.4sqi.net/img/categories_v2/food/burger_", "suffix": ".png"}}]}, {"stats": {"tipCount": 353, "checkinsCount": 5203, "usersCount": 3068}, "name": "Shiso Burger", "referralId": "v-1446971988", "venueChains": [], "hereNow": {"count": 0, "groups": [], "summary": "Nobody here"}, "specials": {"count": 0, "items": []}, "allowMenuUrlEdit": true, "location": {"city": "Berlin", "cc": "DE", "country": "Deutschland", "postalCode": "10119", "state": "Berlin", "formattedAddress": ["Auguststr. 29c", "10119 Berlin", "Deutschland"], "address": "Auguststr. 29c", "lat": 52.52732923358377, "lng": 13.39877013018433}, "verified": false, "id": "51a9da4f498ec8aca72360f1", "categories": [{"pluralName": "Burger Joints", "primary": true, "name": "Burger Joint", "shortName": "Burgers", "id": "4bf58dd8d48988d16c941735", "icon": {"prefix": "https://ss3.4sqi.net/img/categories_v2/food/burger_", "suffix": ".png"}}]}, {"stats": {"tipCount": 383, "checkinsCount": 28147, "usersCount": 8801}, "name": "St. Oberholz", "referralId": "v-1446971988", "venueChains": [], "hereNow": {"count": 0, "groups": [], "summary": "Nobody here"}, "specials": {"count": 0, "items": []}, "allowMenuUrlEdit": true, "location": {"city": "Berlin", "cc": "DE", "country": "Deutschland", "postalCode": "10119", "state": "Berlin", "formattedAddress": ["Rosenthaler Str. 72 (Torstr.)", "10119 Berlin", "Deutschland"], "crossStreet": "Torstr.", "address": "Rosenthaler Str. 72", "lat": 52.52962477028307, "lng": 13.401576783271219}, "verified": false, "id": "4adcf782f964a520016321e3", "categories": [{"pluralName": "Caf\u00e9s", "primary": true, "name": "Caf\u00e9", "shortName": "Caf\u00e9", "id": "4bf58dd8d48988d16d941735", "icon": {"prefix": "https://ss3.4sqi.net/img/categories_v2/food/cafe_", "suffix": ".png"}}]}, {"stats": {"tipCount": 162, "checkinsCount": 3058, "usersCount": 1692}, "name": "The Bird", "referralId": "v-1446971988", "venueChains": [], "hereNow": {"count": 0, "groups": [], "summary": "Nobody here"}, "specials": {"count": 2, "items": [{"redemption": "webview", "description": "", "unlocked": true, "photo": {"suffix": "/92294768_QTx7kwkA00pxuBdFTbQZJEqIS1aaJ8Gu_etj3SXczus.jpg", "height": 2784, "width": 2643, "prefix": "https://irs1.4sqi.net/img/general/", "id": "54a8027611d2d4a011d4eaf4", "createdAt": 1420296822}, "title": "Special", "finePrint": "Only available at the Bar.", "page": {"bio": "", "firstName": "The Bird", "gender": "none", "venue": {"id": "53491b15498e25975c66a827"}, "lists": {"groups": [{"count": 2, "items": [], "type": "created"}]}, "homeCity": "Berlin", "contact": {"facebook": "1519018568323682"}, "photo": {"prefix": "https://irs2.4sqi.net/img/user/", "suffix": "/92294768-1Z4GW4K1BLW31UUW.png"}, "tips": {"count": 6}, "type": "venuePage", "id": "92294768"}, "state": "unlocked", "interaction": {"entryUrl": "https://foursquare.com/device/specials/54a80277498e5a5f95034375?venueId=53491b15498e25975c66a827"}, "provider": "foursquare", "message": "Check in for Angry Hour! 2 for 1 Beers or a Free shot with a Beer 5pm to 7pm every day.", "type": "frequency", "id": "54a80277498e5a5f95034375", "icon": "default"}, {"redemption": "webview", "description": "", "unlocked": true, "photo": {"suffix": "/92294768_JGtpBSzP7yPnc_6ZbRyWkqTWepKu-WkCqb9-N4jJTZc.jpg", "height": 960, "width": 960, "prefix": "https://irs1.4sqi.net/img/general/", "id": "55db74eb498e679e3b915f30", "createdAt": 1440445675}, "title": "Special", "page": {"bio": "", "firstName": "The Bird", "gender": "none", "venue": {"id": "53491b15498e25975c66a827"}, "lists": {"groups": [{"count": 2, "items": [], "type": "created"}]}, "homeCity": "Berlin", "contact": {"facebook": "1519018568323682"}, "photo": {"prefix": "https://irs2.4sqi.net/img/user/", "suffix": "/92294768-1Z4GW4K1BLW31UUW.png"}, "tips": {"count": 6}, "type": "venuePage", "id": "92294768"}, "state": "unlocked", "interaction": {"entryUrl": "https://foursquare.com/device/specials/55db74eb498e559eeb708941?venueId=53491b15498e25975c66a827"}, "provider": "foursquare", "message": "Check in to grab this Crack lunch special anytime from 12pm to 4pm on weekdays!", "type": "frequency", "id": "55db74eb498e559eeb708941", "icon": "default"}]}, "allowMenuUrlEdit": true, "location": {"city": "Berlin", "cc": "DE", "country": "Deutschland", "postalCode": "10967", "state": "Berlin", "formattedAddress": ["Kottbusser Damm 95 (Schinkestr.)", "10967 Berlin", "Deutschland"], "crossStreet": "Schinkestr.", "address": "Kottbusser Damm 95", "lat": 52.49408302197014, "lng": 13.421648599849668}, "venuePage": {"id": "92294768"}, "verified": true, "id": "53491b15498e25975c66a827", "categories": [{"pluralName": "Burger Joints", "primary": true, "name": "Burger Joint", "shortName": "Burgers", "id": "4bf58dd8d48988d16c941735", "icon": {"prefix": "https://ss3.4sqi.net/img/categories_v2/food/burger_", "suffix": ".png"}}]}, {"stats": {"tipCount": 397, "checkinsCount": 9149, "usersCount": 5339}, "name": "Monsieur Vuong", "referralId": "v-1446971988", "venueChains": [], "hereNow": {"count": 0, "groups": [], "summary": "Nobody here"}, "specials": {"count": 0, "items": []}, "allowMenuUrlEdit": true, "location": {"city": "Berlin", "cc": "DE", "country": "Deutschland", "postalCode": "10119", "state": "Berlin", "formattedAddress": ["Alte Sch\u00f6nhauser Str. 46", "10119 Berlin", "Deutschland"], "address": "Alte Sch\u00f6nhauser Str. 46", "lat": 52.52671806739541, "lng": 13.407890796661377}, "verified": false, "id": "4adcda88f964a520824921e3", "categories": [{"pluralName": "Vietnamese Restaurants", "primary": true, "name": "Vietnamese Restaurant", "shortName": "Vietnamese", "id": "4bf58dd8d48988d14a941735", "icon": {"prefix": "https://ss3.4sqi.net/img/categories_v2/food/vietnamese_", "suffix": ".png"}}]}, {"stats": {"tipCount": 422, "checkinsCount": 9666, "usersCount": 5593}, "name": "Burgermeister", "referralId": "v-1446971988", "venueChains": [], "hereNow": {"count": 0, "groups": [], "summary": "Nobody here"}, "specials": {"count": 0, "items": []}, "allowMenuUrlEdit": true, "location": {"city": "Berlin", "cc": "DE", "country": "Deutschland", "postalCode": "10997", "state": "Berlin", "formattedAddress": ["Oberbaumstr. 8", "10997 Berlin", "Deutschland"], "address": "Oberbaumstr. 8", "lat": 52.50101751364385, "lng": 13.44235387610027}, "verified": false, "id": "4ade123bf964a520d87221e3", "categories": [{"pluralName": "Burger Joints", "primary": true, "name": "Burger Joint", "shortName": "Burgers", "id": "4bf58dd8d48988d16c941735", "icon": {"prefix": "https://ss3.4sqi.net/img/categories_v2/food/burger_", "suffix": ".png"}}]}, {"stats": {"tipCount": 86, "checkinsCount": 1014, "usersCount": 636}, "name": "Father Carpenter Coffee Brewers", "referralId": "v-1446971989", "venueChains": [], "hereNow": {"count": 0, "groups": [], "summary": "Nobody here"}, "specials": {"count": 0, "items": []}, "allowMenuUrlEdit": true, "location": {"city": "Berlin", "cc": "DE", "country": "Deutschland", "postalCode": "10178", "state": "Berlin", "formattedAddress": ["M\u00fcnzstr. 21 (1. Hof)", "10178 Berlin", "Deutschland"], "crossStreet": "1. Hof", "address": "M\u00fcnzstr. 21", "lat": 52.52464503533578, "lng": 13.406656842312538}, "verified": false, "id": "54bd1e28498eec46cfc17c24", "categories": [{"pluralName": "Caf\u00e9s", "primary": true, "name": "Caf\u00e9", "shortName": "Caf\u00e9", "id": "4bf58dd8d48988d16d941735", "icon": {"prefix": "https://ss3.4sqi.net/img/categories_v2/food/cafe_", "suffix": ".png"}}]}, {"stats": {"tipCount": 239, "checkinsCount": 10868, "usersCount": 5035}, "name": "Markthalle Neun", "referralId": "v-1446971989", "venueChains": [], "hereNow": {"count": 0, "groups": [], "summary": "Nobody here"}, "specials": {"count": 0, "items": []}, "allowMenuUrlEdit": true, "location": {"city": "Berlin", "cc": "DE", "country": "Deutschland", "postalCode": "10997", "state": "Berlin", "formattedAddress": ["Eisenbahnstr. 42 / 43", "10997 Berlin", "Deutschland"], "address": "Eisenbahnstr. 42 / 43", "lat": 52.50202476100858, "lng": 13.431494235992432}, "verified": false, "id": "4ca85d4ef47ea1434a587421", "categories": [{"pluralName": "Food Courts", "primary": true, "name": "Food Court", "shortName": "Food Court", "id": "4bf58dd8d48988d120951735", "icon": {"prefix": "https://ss3.4sqi.net/img/categories_v2/shops/food_foodcourt_", "suffix": ".png"}}]}]}}