{"meta": {"code": 200, "requestId": "563f0a58498e23fcf0f530ff"}, "response": {"confident": false, "geocode": {"parents": [], "what": "", "where": "hamburg", "feature": {"highlightedName": "<b>Hamburg</b>, Germany", "displayName": "Hamburg, Germany", "name": "Hamburg", "longId": "72057594040839234", "cc": "DE", "id": "geonameid:2911298", "geometry": {"center": {"lat": 53.57532, "lng": 10.01534}, "bounds": {"sw": {"lat": 53.39622721654364, "lng": 9.696484518198359}, "ne": {"lat": 53.739755762060675, "lng": 10.405310521147769}}}, "matchedName": "Hamburg, Germany", "woeType": 7, "slug": "hamburg-germany"}}, "venues": [{"stats": {"tipCount": 0, "checkinsCount": 3, "usersCount": 3}, "name": "Il Grappolo", "referralId": "v-1446971992", "venueChains": [], "hereNow": {"count": 0, "groups": [], "summary": "Nobody here"}, "specials": {"count": 0, "items": []}, "allowMenuUrlEdit": true, "location": {"city": "Ammersbek", "cc": "DE", "country": "Deutschland", "postalCode": "22949", "state": "Schleswig-Holstein", "formattedAddress": ["Weg zu den Tannen 5", "22949 Ammersbek", "Deutschland"], "address": "Weg zu den Tannen 5", "lat": 53.71379180384646, "lng": 10.211386344226195}, "verified": false, "id": "56360420498e8f8d6c5ba5f0", "categories": [{"pluralName": "Italian Restaurants", "primary": true, "name": "Italian Restaurant", "shortName": "Italian", "id": "4bf58dd8d48988d110941735", "icon": {"prefix": "https://ss3.4sqi.net/img/categories_v2/food/italian_", "suffix": ".png"}}]}, {"stats": {"tipCount": 14, "checkinsCount": 411, "usersCount": 183}, "name": "Xe\u00f4m", "referralId": "v-1446971992", "venueChains": [], "hereNow": {"count": 0, "groups": [], "summary": "Nobody here"}, "specials": {"count": 0, "items": []}, "allowMenuUrlEdit": true, "location": {"city": "Hamburg", "cc": "DE", "country": "Deutschland", "postalCode": "20357", "state": "Hamburg", "formattedAddress": ["20357 Hamburg", "Deutschland"], "lat": 53.55929183157849, "lng": 9.975426759058395}, "verified": false, "id": "55489c08498e7174761881c5", "categories": [{"pluralName": "Vietnamese Restaurants", "primary": true, "name": "Vietnamese Restaurant", "shortName": "Vietnamese", "id": "4bf58dd8d48988d14a941735", "icon": {"prefix": "https://ss3.4sqi.net/img/categories_v2/food/vietnamese_", "suffix": ".png"}}]}, {"stats": {"tipCount": 8, "checkinsCount": 132, "usersCount": 86}, "name": "Entenwerder1", "referralId": "v-1446971992", "venueChains": [], "hereNow": {"count": 0, "groups": [], "summary": "Nobody here"}, "specials": {"count": 0, "items": []}, "allowMenuUrlEdit": true, "location": {"city": "Hamburg", "cc": "DE", "country": "Deutschland", "postalCode": "20539", "state": "Hamburg", "formattedAddress": ["Entenwerder 1", "20539 Hamburg", "Deutschland"], "address": "Entenwerder 1", "lat": 53.52940978626955, "lng": 10.037973999354682}, "verified": false, "id": "5593de51498e84c1c5eea1df", "categories": [{"pluralName": "Beer Gardens", "primary": true, "name": "Beer Garden", "shortName": "Beer Garden", "id": "4bf58dd8d48988d117941735", "icon": {"prefix": "https://ss3.4sqi.net/img/categories_v2/nightlife/beergarden_", "suffix": ".png"}}]}, {"stats": {"tipCount": 1, "checkinsCount": 3, "usersCount": 3}, "name": "Caf\u00e9 Schwesterherz", "referralId": "v-1446971992", "venueChains": [], "hereNow": {"count": 0, "groups": [], "summary": "Nobody here"}, "specials": {"count": 0, "items": []}, "allowMenuUrlEdit": true, "location": {"city": "Hamburg", "cc": "DE", "country": "Deutschland", "state": "Hamburg", "formattedAddress": ["Alsterdorfer Str. 572", "Hamburg", "Deutschland"], "address": "Alsterdorfer Str. 572", "lat": 53.61976985469713, "lng": 10.033181002095615}, "verified": false, "id": "5636290b498ee35b2ff081ae", "categories": [{"pluralName": "Caf\u00e9s", "primary": true, "name": "Caf\u00e9", "shortName": "Caf\u00e9", "id": "4bf58dd8d48988d16d941735", "icon": {"prefix": "https://ss3.4sqi.net/img/categories_v2/food/cafe_", "suffix": ".png"}}]}, {"stats": {"tipCount": 7, "checkinsCount": 3609, "usersCount": 505}, "name": "Atlantic Haus", "referralId": "v-1446971992", "venueChains": [], "hereNow": {"count": 0, "groups": [], "summary": "Nobody here"}, "specials": {"count": 0, "items": []}, "allowMenuUrlEdit": true, "location": {"city": "Hamburg", "cc": "DE", "country": "Deutschland", "postalCode": "20359", "state": "Hamburg", "formattedAddress": ["Zirkusweg 1", "20359 Hamburg", "Deutschland"], "address": "Zirkusweg 1", "lat": 53.547541539027414, "lng": 9.967045990525524}, "verified": false, "id": "4b8eab3ef964a520cc2f33e3", "categories": [{"pluralName": "Offices", "primary": true, "name": "Office", "shortName": "Office", "id": "4bf58dd8d48988d124941735", "icon": {"prefix": "https://ss3.4sqi.net/img/categories_v2/building/default_", "suffix": ".png"}}]}, {"stats": {"tipCount": 12, "checkinsCount": 2597, "usersCount": 709}, "name": "Rindermarkthalle St. Pauli", "referralId": "v-1446971992", "venueChains": [], "hereNow": {"count": 0, "groups": [], "summary": "Nobody here"}, "specials": {"count": 0, "items": []}, "allowMenuUrlEdit": true, "location": {"city": "Hamburg", "cc": "DE", "country": "Deutschland", "postalCode": "20359", "state": "Hamburg", "formattedAddress": ["Neuer Kamp 31", "20359 Hamburg", "Deutschland"], "address": "Neuer Kamp 31", "lat": 53.556734612075886, "lng": 9.966968557597253}, "verified": false, "id": "52020564498e2c41106bfff8", "categories": [{"pluralName": "Malls", "primary": true, "name": "Mall", "shortName": "Mall", "id": "4bf58dd8d48988d1fd941735", "icon": {"prefix": "https://ss3.4sqi.net/img/categories_v2/shops/mall_", "suffix": ".png"}}]}, {"stats": {"tipCount": 96, "checkinsCount": 7147, "usersCount": 1683}, "name": "Elbgold", "referralId": "v-1446971992", "venueChains": [], "hereNow": {"count": 0, "groups": [], "summary": "Nobody here"}, "specials": {"count": 0, "items": []}, "allowMenuUrlEdit": true, "location": {"city": "Hamburg", "cc": "DE", "country": "Deutschland", "postalCode": "20357", "state": "Hamburg", "formattedAddress": ["Lagerstr. 34c", "20357 Hamburg", "Deutschland"], "address": "Lagerstr. 34c", "lat": 53.56312969484438, "lng": 9.967169549743746}, "verified": false, "id": "4c61ce87edb29c741faf20a7", "categories": [{"pluralName": "Caf\u00e9s", "primary": true, "name": "Caf\u00e9", "shortName": "Caf\u00e9", "id": "4bf58dd8d48988d16d941735", "icon": {"prefix": "https://ss3.4sqi.net/img/categories_v2/food/cafe_", "suffix": ".png"}}]}, {"stats": {"tipCount": 133, "checkinsCount": 4358, "usersCount": 2409}, "name": "Caf\u00e9 Paris", "referralId": "v-1446971992", "venueChains": [], "hereNow": {"count": 0, "groups": [], "summary": "Nobody here"}, "specials": {"count": 0, "items": []}, "allowMenuUrlEdit": true, "location": {"city": "Hamburg", "cc": "DE", "country": "Deutschland", "postalCode": "20095", "state": "Hamburg", "formattedAddress": ["Rathausstr. 4", "20095 Hamburg", "Deutschland"], "address": "Rathausstr. 4", "lat": 53.55013806974978, "lng": 9.994351736464395}, "verified": false, "id": "4b011362f964a520ab4122e3", "categories": [{"pluralName": "Caf\u00e9s", "primary": true, "name": "Caf\u00e9", "shortName": "Caf\u00e9", "id": "4bf58dd8d48988d16d941735", "icon": {"prefix": "https://ss3.4sqi.net/img/categories_v2/food/cafe_", "suffix": ".png"}}]}, {"stats": {"tipCount": 42, "checkinsCount": 694, "usersCount": 411}, "name": "Burgerlich", "referralId": "v-1446971992", "venueChains": [], "hereNow": {"count": 0, "groups": [], "summary": "Nobody here"}, "specials": {"count": 0, "items": []}, "allowMenuUrlEdit": true, "location": {"city": "Hamburg", "cc": "DE", "country": "Deutschland", "postalCode": "20095", "state": "Hamburg", "formattedAddress": ["Speersort 1", "20095 Hamburg", "Deutschland"], "address": "Speersort 1", "lat": 53.54988158435927, "lng": 9.999527630936509}, "verified": false, "id": "546b4182498e6dfd9515399c", "categories": [{"pluralName": "Burger Joints", "primary": true, "name": "Burger Joint", "shortName": "Burgers", "id": "4bf58dd8d48988d16c941735", "icon": {"prefix": "https://ss3.4sqi.net/img/categories_v2/food/burger_", "suffix": ".png"}}]}, {"stats": {"tipCount": 102, "checkinsCount": 5011, "usersCount": 2370}, "name": "Altes M\u00e4dchen", "referralId": "v-1446971992", "venueChains": [], "hereNow": {"count": 0, "groups": [], "summary": "Nobody here"}, "specials": {"count": 0, "items": []}, "allowMenuUrlEdit": true, "location": {"city": "Hamburg", "cc": "DE", "country": "Deutschland", "postalCode": "20357", "state": "Hamburg", "formattedAddress": ["Lagerstr. 28 B", "20357 Hamburg", "Deutschland"], "address": "Lagerstr. 28 B", "lat": 53.56323890290703, "lng": 9.968021161257015}, "verified": false, "id": "51307ea1e4b082687220f036", "categories": [{"pluralName": "Gastropubs", "primary": true, "name": "Gastropub", "shortName": "Gastropub", "id": "4bf58dd8d48988d155941735", "icon": {"prefix": "https://ss3.4sqi.net/img/categories_v2/food/gastropub_", "suffix": ".png"}}]}, {"stats": {"tipCount": 131, "checkinsCount": 7137, "usersCount": 4786}, "name": "ALEX", "referralId": "v-1446971992", "venueChains": [], "hereNow": {"count": 0, "groups": [], "summary": "Nobody here"}, "specials": {"count": 0, "items": []}, "allowMenuUrlEdit": true, "location": {"city": "Hamburg", "cc": "DE", "country": "Deutschland", "postalCode": "20354", "state": "Hamburg", "formattedAddress": ["Jungfernstieg 54 (Alsterpavillon)", "20354 Hamburg", "Deutschland"], "crossStreet": "Alsterpavillon", "address": "Jungfernstieg 54", "lat": 53.55408917338559, "lng": 9.992097883429425}, "verified": false, "id": "4b058859f964a520d7bf22e3", "categories": [{"pluralName": "Caf\u00e9s", "primary": true, "name": "Caf\u00e9", "shortName": "Caf\u00e9", "id": "4bf58dd8d48988d16d941735", "icon": {"prefix": "https://ss3.4sqi.net/img/categories_v2/food/cafe_", "suffix": ".png"}}]}, {"stats": {"tipCount": 43, "checkinsCount": 3855, "usersCount": 701}, "name": "Elbgold", "referralId": "v-1446971992", "venueChains": [], "hereNow": {"count": 0, "groups": [], "summary": "Nobody here"}, "specials": {"count": 0, "items": []}, "allowMenuUrlEdit": true, "location": {"city": "Hamburg", "cc": "DE", "country": "Deutschland", "postalCode": "22303", "state": "Hamburg", "formattedAddress": ["M\u00fchlenkamp 6", "22303 Hamburg", "Deutschland"], "address": "M\u00fchlenkamp 6", "lat": 53.5801709873375, "lng": 10.012741602746678}, "verified": false, "id": "4b62f093f964a520cd592ae3", "categories": [{"pluralName": "Caf\u00e9s", "primary": true, "name": "Caf\u00e9", "shortName": "Caf\u00e9", "id": "4bf58dd8d48988d16d941735", "icon": {"prefix": "https://ss3.4sqi.net/img/categories_v2/food/cafe_", "suffix": ".png"}}]}, {"stats": {"tipCount": 71, "checkinsCount": 4502, "usersCount": 3581}, "name": "Hard Rock Cafe Hamburg", "referralId": "v-1446971992", "venueChains": [], "hereNow": {"count": 0, "groups": [], "summary": "Nobody here"}, "specials": {"count": 0, "items": []}, "allowMenuUrlEdit": true, "location": {"city": "Hamburg", "cc": "DE", "country": "Deutschland", "postalCode": "20359", "state": "Hamburg", "formattedAddress": ["Bei den Sankt-Pauli-Landungsbr\u00fccken 5", "20359 Hamburg", "Deutschland"], "address": "Bei den Sankt-Pauli-Landungsbr\u00fccken 5", "lat": 53.54567537985146, "lng": 9.967871904373169}, "verified": false, "id": "4db42ee9fc607e0aa232d42c", "categories": [{"pluralName": "American Restaurants", "primary": true, "name": "American Restaurant", "shortName": "American", "id": "4bf58dd8d48988d14e941735", "icon": {"prefix": "https://ss3.4sqi.net/img/categories_v2/food/default_", "suffix": ".png"}}]}, {"stats": {"tipCount": 44, "checkinsCount": 1386, "usersCount": 305}, "name": "less political", "referralId": "v-1446971992", "venueChains": [], "hereNow": {"count": 0, "groups": [], "summary": "Nobody here"}, "specials": {"count": 0, "items": []}, "allowMenuUrlEdit": true, "location": {"city": "Hamburg", "cc": "DE", "country": "Deutschland", "postalCode": "20357", "state": "Hamburg", "formattedAddress": ["Sternstr. 68", "20357 Hamburg", "Deutschland"], "address": "Sternstr. 68", "lat": 53.55963406217104, "lng": 9.966970682144165}, "verified": false, "id": "50ae4f74f136df30293d9438", "categories": [{"pluralName": "Coffee Shops", "primary": true, "name": "Coffee Shop", "shortName": "Coffee Shop", "id": "4bf58dd8d48988d1e0931735", "icon": {"prefix": "https://ss3.4sqi.net/img/categories_v2/food/coffeeshop_", "suffix": ".png"}}]}, {"stats": {"tipCount": 52, "checkinsCount": 1298, "usersCount": 902}, "name": "Hans im Gl\u00fcck", "referralId": "v-1446971992", "venueChains": [], "hereNow": {"count": 0, "groups": [], "summary": "Nobody here"}, "specials": {"count": 0, "items": []}, "allowMenuUrlEdit": true, "location": {"city": "Hamburg", "cc": "DE", "country": "Deutschland", "postalCode": "20357", "state": "Hamburg", "formattedAddress": ["Sch\u00e4ferkampsallee 1", "20357 Hamburg", "Deutschland"], "address": "Sch\u00e4ferkampsallee 1", "lat": 53.567399555806, "lng": 9.969541911755709}, "verified": false, "id": "537477b5498ef7d0e48af678", "categories": [{"pluralName": "Burger Joints", "primary": true, "name": "Burger Joint", "shortName": "Burgers", "id": "4bf58dd8d48988d16c941735", "icon": {"prefix": "https://ss3.4sqi.net/img/categories_v2/food/burger_", "suffix": ".png"}}]}, {"stats": {"tipCount": 57, "checkinsCount": 2348, "usersCount": 1119}, "name": "L'Osteria", "referralId": "v-1446971992", "venueChains": [], "hereNow": {"count": 0, "groups": [], "summary": "Nobody here"}, "specials": {"count": 0, "items": []}, "allowMenuUrlEdit": true, "location": {"city": "Hamburg", "cc": "DE", "country": "Deutschland", "postalCode": "20354", "state": "Hamburg", "formattedAddress": ["Dammtorstr. 12", "20354 Hamburg", "Deutschland"], "address": "Dammtorstr. 12", "lat": 53.55688526903425, "lng": 9.988291919640101}, "verified": false, "id": "505c4809e4b08dae9a5f8771", "categories": [{"pluralName": "Trattorias/Osterias", "primary": true, "name": "Trattoria/Osteria", "shortName": "Trattoria/Osteria", "id": "55a5a1ebe4b013909087cb7f", "icon": {"prefix": "https://ss3.4sqi.net/img/categories_v2/food/italian_", "suffix": ".png"}}]}, {"stats": {"tipCount": 51, "checkinsCount": 1153, "usersCount": 597}, "name": "The Burger Lab", "referralId": "v-1446971992", "venueChains": [], "hereNow": {"count": 0, "groups": [], "summary": "Nobody here"}, "specials": {"count": 0, "items": []}, "allowMenuUrlEdit": true, "location": {"city": "Hamburg", "cc": "DE", "country": "Deutschland", "postalCode": "22769", "state": "Hamburg", "formattedAddress": ["Max-Brauer-Allee 251", "22769 Hamburg", "Deutschland"], "address": "Max-Brauer-Allee 251", "lat": 53.56259411319388, "lng": 9.957228899002075}, "verified": false, "id": "533831d7498ed5a19580ef63", "categories": [{"pluralName": "Burger Joints", "primary": true, "name": "Burger Joint", "shortName": "Burgers", "id": "4bf58dd8d48988d16c941735", "icon": {"prefix": "https://ss3.4sqi.net/img/categories_v2/food/burger_", "suffix": ".png"}}]}, {"stats": {"tipCount": 25, "checkinsCount": 511, "usersCount": 375}, "name": "Hans im Gl\u00fcck", "referralId": "v-1446971992", "venueChains": [], "hereNow": {"count": 0, "groups": [], "summary": "Nobody here"}, "specials": {"count": 0, "items": []}, "allowMenuUrlEdit": true, "location": {"city": "Hamburg", "cc": "DE", "country": "Deutschland", "postalCode": "20099", "state": "Hamburg", "formattedAddress": ["Lange Reihe 107", "20099 Hamburg", "Deutschland"], "address": "Lange Reihe 107", "lat": 53.5594357674317, "lng": 10.013942045808985}, "verified": false, "id": "543bf115498e5f461370c4ab", "categories": [{"pluralName": "Burger Joints", "primary": true, "name": "Burger Joint", "shortName": "Burgers", "id": "4bf58dd8d48988d16c941735", "icon": {"prefix": "https://ss3.4sqi.net/img/categories_v2/food/burger_", "suffix": ".png"}}]}, {"stats": {"tipCount": 36, "checkinsCount": 3085, "usersCount": 1802}, "name": "Hofbr\u00e4u Wirtshaus an der Alster", "referralId": "v-1446971992", "venueChains": [], "hereNow": {"count": 0, "groups": [], "summary": "Nobody here"}, "specials": {"count": 0, "items": []}, "allowMenuUrlEdit": true, "location": {"city": "Hamburg", "cc": "DE", "country": "Deutschland", "postalCode": "20354", "state": "Hamburg", "formattedAddress": ["Esplanade 6", "20354 Hamburg", "Deutschland"], "address": "Esplanade 6", "lat": 53.55769032075024, "lng": 9.992022514343262}, "verified": false, "id": "4b165ce2f964a52071b823e3", "categories": [{"pluralName": "German Restaurants", "primary": true, "name": "German Restaurant", "shortName": "German", "id": "4bf58dd8d48988d10d941735", "icon": {"prefix": "https://ss3.4sqi.net/img/categories_v2/food/german_", "suffix": ".png"}}]}, {"stats": {"tipCount": 65, "checkinsCount": 2285, "usersCount": 871}, "name": "The Coffee Shop", "referralId": "v-1446971992", "venueChains": [], "hereNow": {"count": 0, "groups": [], "summary": "Nobody here"}, "specials": {"count": 0, "items": []}, "allowMenuUrlEdit": true, "location": {"city": "Hamburg", "cc": "DE", "country": "Deutschland", "postalCode": "20354", "state": "Hamburg", "formattedAddress": ["Poststr. 6a", "20354 Hamburg", "Deutschland"], "address": "Poststr. 6a", "lat": 53.55226612946035, "lng": 9.990897}, "verified": false, "id": "4b5af37df964a520e0db28e3", "categories": [{"pluralName": "Coffee Shops", "primary": true, "name": "Coffee Shop", "shortName": "Coffee Shop", "id": "4bf58dd8d48988d1e0931735", "icon": {"prefix": "https://ss3.4sqi.net/img/categories_v2/food/coffeeshop_", "suffix": ".png"}}]}, {"stats": {"tipCount": 29, "checkinsCount": 3440, "usersCount": 1355}, "name": "Jim Block", "referralId": "v-1446971992", "venueChains": [], "hereNow": {"count": 0, "groups": [], "summary": "Nobody here"}, "specials": {"count": 0, "items": []}, "allowMenuUrlEdit": true, "location": {"city": "Hamburg", "cc": "DE", "country": "Deutschland", "postalCode": "20354", "state": "Hamburg", "formattedAddress": ["Dammtorstr. 29-32", "20354 Hamburg", "Deutschland"], "address": "Dammtorstr. 29-32", "lat": 53.55642843425139, "lng": 9.988342523574827}, "verified": false, "id": "4ee5fcaa490141636b3e1316", "categories": [{"pluralName": "Burger Joints", "primary": true, "name": "Burger Joint", "shortName": "Burgers", "id": "4bf58dd8d48988d16c941735", "icon": {"prefix": "https://ss3.4sqi.net/img/categories_v2/food/burger_", "suffix": ".png"}}]}, {"stats": {"tipCount": 24, "checkinsCount": 3548, "usersCount": 1331}, "name": "Starbucks", "referralId": "v-1446971992", "venueChains": [], "hereNow": {"count": 0, "groups": [], "summary": "Nobody here"}, "specials": {"count": 0, "items": []}, "allowMenuUrlEdit": true, "location": {"city": "Hamburg", "cc": "DE", "country": "Deutschland", "postalCode": "20457", "state": "Hamburg", "formattedAddress": ["Gro\u00dfer Burstah 50-52", "20457 Hamburg", "Deutschland"], "address": "Gro\u00dfer Burstah 50-52", "lat": 53.54881687032876, "lng": 9.987458028305747}, "verified": false, "id": "4b0a6aabf964a520e22323e3", "categories": [{"pluralName": "Coffee Shops", "primary": true, "name": "Coffee Shop", "shortName": "Coffee Shop", "id": "4bf58dd8d48988d1e0931735", "icon": {"prefix": "https://ss3.4sqi.net/img/categories_v2/food/coffeeshop_", "suffix": ".png"}}]}, {"stats": {"tipCount": 55, "checkinsCount": 2556, "usersCount": 653}, "name": "O-ren Ishii", "referralId": "v-1446971992", "venueChains": [], "hereNow": {"count": 0, "groups": [], "summary": "Nobody here"}, "specials": {"count": 0, "items": []}, "allowMenuUrlEdit": true, "location": {"city": "Hamburg", "cc": "DE", "country": "Deutschland", "postalCode": "20457", "state": "Hamburg", "formattedAddress": ["Kleine Reichenstr. 18", "20457 Hamburg", "Deutschland"], "address": "Kleine Reichenstr. 18", "lat": 53.54834272254533, "lng": 9.997770743429042}, "verified": false, "id": "4b151242f964a5202da823e3", "categories": [{"pluralName": "Vietnamese Restaurants", "primary": true, "name": "Vietnamese Restaurant", "shortName": "Vietnamese", "id": "4bf58dd8d48988d14a941735", "icon": {"prefix": "https://ss3.4sqi.net/img/categories_v2/food/vietnamese_", "suffix": ".png"}}]}, {"stats": {"tipCount": 3, "checkinsCount": 3862, "usersCount": 280}, "name": "Tchibo", "referralId": "v-1446971992", "venueChains": [], "hereNow": {"count": 0, "groups": [], "summary": "Nobody here"}, "specials": {"count": 0, "items": []}, "allowMenuUrlEdit": true, "location": {"city": "Hamburg", "cc": "DE", "country": "Deutschland", "state": "Hamburg", "formattedAddress": ["\u00dcberseering 18", "Hamburg", "Deutschland"], "address": "\u00dcberseering 18", "lat": 53.60760058932038, "lng": 10.019770556111661}, "verified": false, "id": "4bcc222568f976b074206283", "categories": [{"pluralName": "Offices", "primary": true, "name": "Office", "shortName": "Office", "id": "4bf58dd8d48988d124941735", "icon": {"prefix": "https://ss3.4sqi.net/img/categories_v2/building/default_", "suffix": ".png"}}]}, {"stats": {"tipCount": 117, "checkinsCount": 5777, "usersCount": 3215}, "name": "Bullerei", "referralId": "v-1446971992", "venueChains": [], "storeId": "", "hereNow": {"count": 0, "groups": [], "summary": "Nobody here"}, "specials": {"count": 0, "items": []}, "allowMenuUrlEdit": true, "location": {"city": "Hamburg", "cc": "DE", "country": "Deutschland", "postalCode": "20357", "state": "Hamburg", "formattedAddress": ["Lagerstr. 34", "20357 Hamburg", "Deutschland"], "address": "Lagerstr. 34", "lat": 53.5629987542374, "lng": 9.96610164642334}, "venuePage": {"id": "34684589"}, "verified": true, "id": "4b0ab323f964a520972623e3", "categories": [{"pluralName": "Restaurants", "primary": true, "name": "Restaurant", "shortName": "Restaurant", "id": "4bf58dd8d48988d1c4941735", "icon": {"prefix": "https://ss3.4sqi.net/img/categories_v2/food/default_", "suffix": ".png"}}]}, {"stats": {"tipCount": 89, "checkinsCount": 4148, "usersCount": 1377}, "name": "Jim Burrito's Cantina", "referralId": "v-1446971992", "venueChains": [], "hereNow": {"count": 0, "groups": [], "summary": "Nobody here"}, "specials": {"count": 0, "items": []}, "allowMenuUrlEdit": true, "location": {"city": "Hamburg", "cc": "DE", "country": "Deutschland", "postalCode": "20357", "state": "Hamburg", "formattedAddress": ["Schulterblatt 12", "20357 Hamburg", "Deutschland"], "address": "Schulterblatt 12", "lat": 53.559974, "lng": 9.963519}, "verified": false, "id": "4b2cc012f964a520ffc824e3", "categories": [{"pluralName": "Burrito Places", "primary": true, "name": "Burrito Place", "shortName": "Burritos", "id": "4bf58dd8d48988d153941735", "icon": {"prefix": "https://ss3.4sqi.net/img/categories_v2/food/burrito_", "suffix": ".png"}}]}, {"stats": {"tipCount": 48, "checkinsCount": 4504, "usersCount": 2770}, "name": "Starbucks", "referralId": "v-1446971992", "venueChains": [{"id": "556f676fbd6a75a99038d8ec"}], "hereNow": {"count": 0, "groups": [], "summary": "Nobody here"}, "specials": {"count": 0, "items": []}, "allowMenuUrlEdit": true, "location": {"city": "Hamburg", "cc": "DE", "country": "Deutschland", "postalCode": "20095", "state": "Hamburg", "formattedAddress": ["Barkhof 3", "20095 Hamburg", "Deutschland"], "address": "Barkhof 3", "lat": 53.551221843377526, "lng": 10.000891125719038}, "verified": false, "id": "4b06afd3f964a520a3ee22e3", "categories": [{"pluralName": "Coffee Shops", "primary": true, "name": "Coffee Shop", "shortName": "Coffee Shop", "id": "4bf58dd8d48988d1e0931735", "icon": {"prefix": "https://ss3.4sqi.net/img/categories_v2/food/coffeeshop_", "suffix": ".png"}}]}, {"stats": {"tipCount": 40, "checkinsCount": 3385, "usersCount": 517}, "name": "Due Baristi", "referralId": "v-1446971992", "venueChains": [], "hereNow": {"count": 0, "groups": [], "summary": "Nobody here"}, "specials": {"count": 0, "items": []}, "allowMenuUrlEdit": true, "location": {"city": "Hamburg", "cc": "DE", "country": "Deutschland", "postalCode": "20257", "state": "Hamburg", "formattedAddress": ["Langenfelder Damm 2-4", "20257 Hamburg", "Deutschland"], "address": "Langenfelder Damm 2-4", "lat": 53.578104, "lng": 9.941752}, "verified": false, "id": "4b1a48abf964a520a2e823e3", "categories": [{"pluralName": "Caf\u00e9s", "primary": true, "name": "Caf\u00e9", "shortName": "Caf\u00e9", "id": "4bf58dd8d48988d16d941735", "icon": {"prefix": "https://ss3.4sqi.net/img/categories_v2/food/cafe_", "suffix": ".png"}}]}, {"stats": {"tipCount": 54, "checkinsCount": 5145, "usersCount": 2330}, "name": "Starbucks", "referralId": "v-1446971992", "venueChains": [], "hereNow": {"count": 0, "groups": [], "summary": "Nobody here"}, "specials": {"count": 0, "items": []}, "allowMenuUrlEdit": true, "location": {"city": "Hamburg", "cc": "DE", "country": "Deutschland", "postalCode": "20354", "state": "Hamburg", "formattedAddress": ["Neuer Jungfernstieg 5", "20354 Hamburg", "Deutschland"], "address": "Neuer Jungfernstieg 5", "lat": 53.55500080010993, "lng": 9.991035461425781}, "verified": false, "id": "4b096f96f964a520461723e3", "categories": [{"pluralName": "Coffee Shops", "primary": true, "name": "Coffee Shop", "shortName": "Coffee Shop", "id": "4bf58dd8d48988d1e0931735", "icon": {"prefix": "https://ss3.4sqi.net/img/categories_v2/food/coffeeshop_", "suffix": ".png"}}]}, {"stats": {"tipCount": 14, "checkinsCount": 561, "usersCount": 349}, "name": "Atelier F", "referralId": "v-1446971992", "venueChains": [], "hereNow": {"count": 0, "groups": [], "summary": "Nobody here"}, "specials": {"count": 0, "items": []}, "allowMenuUrlEdit": true, "location": {"city": "Hamburg", "cc": "DE", "country": "Deutschland", "postalCode": "20354", "state": "Hamburg", "formattedAddress": ["Gro\u00dfe Bleichen 31 (Bleichenbr\u00fccke)", "20354 Hamburg", "Deutschland"], "crossStreet": "Bleichenbr\u00fccke", "address": "Gro\u00dfe Bleichen 31", "lat": 53.5517097341778, "lng": 9.989360688618179}, "verified": false, "id": "52a5b51c498e25be7fd02168", "categories": [{"pluralName": "French Restaurants", "primary": true, "name": "French Restaurant", "shortName": "French", "id": "4bf58dd8d48988d10c941735", "icon": {"prefix": "https://ss3.4sqi.net/img/categories_v2/food/french_", "suffix": ".png"}}]}]}}