{"meta": {"code": 200, "requestId": "563f0a53498ec90ea8a42f94"}, "response": {"confident": false, "geocode": {"parents": [], "what": "", "where": "helsinki", "feature": {"highlightedName": "<b>Helsinki</b>, Finland", "displayName": "Helsinki, Finland", "name": "Helsinki", "longId": "72057594038586161", "cc": "FI", "id": "geonameid:658225", "geometry": {"center": {"lat": 60.16952, "lng": 24.93545}, "bounds": {"sw": {"lat": 60.12648197436881, "lng": 24.8240229894074}, "ne": {"lat": 60.29788198177167, "lng": 25.2415192349548}}}, "matchedName": "Helsinki, Finland", "woeType": 7, "slug": "helsinki-finland"}}, "venues": [{"stats": {"tipCount": 3, "checkinsCount": 225, "usersCount": 153}, "name": "Espresso house", "referralId": "v-1446971987", "venueChains": [], "hereNow": {"count": 0, "groups": [], "summary": "Nobody here"}, "specials": {"count": 0, "items": []}, "allowMenuUrlEdit": true, "location": {"lat": 60.1691360031281, "cc": "FI", "lng": 24.932294232090964, "formattedAddress": ["Suomi"], "country": "Suomi"}, "verified": false, "id": "55fa8a92498e6e88f5a10c16", "categories": [{"pluralName": "Cafeterias", "primary": true, "name": "Cafeteria", "shortName": "Cafeteria", "id": "4bf58dd8d48988d128941735", "icon": {"prefix": "https://ss3.4sqi.net/img/categories_v2/education/cafeteria_", "suffix": ".png"}}]}, {"stats": {"tipCount": 55, "checkinsCount": 18345, "usersCount": 7208}, "name": "Teerenpeli", "referralId": "v-1446971987", "venueChains": [], "hereNow": {"count": 0, "groups": [], "summary": "Nobody here"}, "specials": {"count": 0, "items": []}, "allowMenuUrlEdit": true, "location": {"city": "Helsinki", "cc": "FI", "country": "Suomi", "postalCode": "00100", "state": "Uusimaa", "formattedAddress": ["Olavinkatu 2", "00100 Helsinki", "Suomi"], "address": "Olavinkatu 2", "lat": 60.170262495609876, "lng": 24.933705495384796}, "verified": false, "id": "4aec7cd2f964a520c0c721e3", "categories": [{"pluralName": "Breweries", "primary": true, "name": "Brewery", "shortName": "Brewery", "id": "50327c8591d4c4b30a586d5d", "icon": {"prefix": "https://ss3.4sqi.net/img/categories_v2/food/brewery_", "suffix": ".png"}}]}, {"stats": {"tipCount": 80, "checkinsCount": 11444, "usersCount": 5947}, "name": "Starbucks", "referralId": "v-1446971987", "venueChains": [{"id": "556f676fbd6a75a99038d8ec"}], "hereNow": {"count": 0, "groups": [], "summary": "Nobody here"}, "specials": {"count": 0, "items": []}, "allowMenuUrlEdit": true, "location": {"city": "Helsinki", "cc": "FI", "country": "Suomi", "postalCode": "00100", "state": "Uusimaa", "formattedAddress": ["Akateeminen kirjakauppa (Pohjoisesplanadi 39)", "00100 Helsinki", "Suomi"], "crossStreet": "Pohjoisesplanadi 39", "address": "Akateeminen kirjakauppa", "lat": 60.16773142404255, "lng": 24.943251353803614}, "verified": false, "id": "5238643c11d2c1029cc5e106", "categories": [{"pluralName": "Coffee Shops", "primary": true, "name": "Coffee Shop", "shortName": "Coffee Shop", "id": "4bf58dd8d48988d1e0931735", "icon": {"prefix": "https://ss3.4sqi.net/img/categories_v2/food/coffeeshop_", "suffix": ".png"}}]}, {"stats": {"tipCount": 21, "checkinsCount": 6023, "usersCount": 2335}, "name": "McDonald's", "referralId": "v-1446971987", "venueChains": [{"id": "556f7a12bd6a75a9903bddb2"}], "storeId": "", "hereNow": {"count": 0, "groups": [], "summary": "Nobody here"}, "specials": {"count": 0, "items": []}, "allowMenuUrlEdit": true, "location": {"city": "Helsinki", "cc": "FI", "country": "Suomi", "postalCode": "00500", "state": "Uusimaa", "formattedAddress": ["Teollisuuskatu 6 (Satamaradankatu)", "00500 Helsinki", "Suomi"], "crossStreet": "Satamaradankatu", "address": "Teollisuuskatu 6", "lat": 60.1905454157709, "lng": 24.956045150756836}, "verified": true, "id": "4ca87ed4f47ea1433c757521", "categories": [{"pluralName": "Fast Food Restaurants", "primary": true, "name": "Fast Food Restaurant", "shortName": "Fast Food", "id": "4bf58dd8d48988d16e941735", "icon": {"prefix": "https://ss3.4sqi.net/img/categories_v2/food/fastfood_", "suffix": ".png"}}]}, {"stats": {"tipCount": 9, "checkinsCount": 2762, "usersCount": 443}, "name": "Ravintola Factory", "referralId": "v-1446971987", "venueChains": [], "hereNow": {"count": 0, "groups": [], "summary": "Nobody here"}, "specials": {"count": 0, "items": []}, "allowMenuUrlEdit": true, "location": {"city": "Helsinki", "cc": "FI", "country": "Suomi", "postalCode": "00380", "state": "Uusimaa", "formattedAddress": ["Valimotie 13 a", "00380 Helsinki", "Suomi"], "address": "Valimotie 13 a", "lat": 60.21796303196897, "lng": 24.879141928683314}, "verified": false, "id": "4eb3e1209a52ad1e3e3ea847", "categories": [{"pluralName": "Cafeterias", "primary": true, "name": "Cafeteria", "shortName": "Cafeteria", "id": "4bf58dd8d48988d128941735", "icon": {"prefix": "https://ss3.4sqi.net/img/categories_v2/education/cafeteria_", "suffix": ".png"}}]}, {"stats": {"tipCount": 157, "checkinsCount": 16247, "usersCount": 9493}, "name": "Karl Fazer Caf\u00e9", "referralId": "v-1446971987", "venueChains": [{"id": "5569ff4fa7c8896abe7dd6a0"}], "storeId": "", "hereNow": {"count": 0, "groups": [], "summary": "Nobody here"}, "specials": {"count": 1, "items": [{"redemption": "webview", "description": "", "unlocked": true, "title": "Special", "finePrint": "Edellytt\u00e4\u00e4 brunssin ostamista.", "page": {"bio": "", "firstName": "Fazer", "gender": "none", "lists": {"groups": [{"count": 5, "items": [], "type": "created"}]}, "homeCity": "Helsinki, Suomi", "contact": {"twitter": "fazersuomi"}, "photo": {"prefix": "https://irs0.4sqi.net/img/user/", "suffix": "/VFIWZOO0MPYUXDIC.jpg"}, "tips": {"count": 39}, "type": "chain", "id": "4821303"}, "state": "unlocked", "interaction": {"entryUrl": "https://foursquare.com/device/specials/507eb3c6f2e711f2c7ff033c?venueId=4adcdb1ff964a5208d5f21e3"}, "provider": "foursquare", "message": "Saat sunnuntaibrunssin yhteydess\u00e4 erikoiskahvin puoleen hintaan.", "type": "frequency", "id": "507eb3c6f2e711f2c7ff033c", "icon": "default"}]}, "allowMenuUrlEdit": true, "location": {"city": "Helsinki", "cc": "FI", "country": "Suomi", "postalCode": "00100", "state": "Uusimaa", "formattedAddress": ["Kluuvikatu 3", "00100 Helsinki", "Suomi"], "address": "Kluuvikatu 3", "lat": 60.16860810596715, "lng": 24.947372342382746}, "verified": true, "id": "4adcdb1ff964a5208d5f21e3", "categories": [{"pluralName": "Caf\u00e9s", "primary": true, "name": "Caf\u00e9", "shortName": "Caf\u00e9", "id": "4bf58dd8d48988d16d941735", "icon": {"prefix": "https://ss3.4sqi.net/img/categories_v2/food/cafe_", "suffix": ".png"}}]}, {"stats": {"tipCount": 113, "checkinsCount": 15764, "usersCount": 5780}, "name": "Stone's", "referralId": "v-1446971987", "venueChains": [], "storeId": "", "hereNow": {"count": 0, "groups": [], "summary": "Nobody here"}, "specials": {"count": 0, "items": []}, "allowMenuUrlEdit": true, "location": {"city": "Helsinki", "cc": "FI", "country": "Suomi", "postalCode": "00100", "state": "Etel\u00e4-Suomen L\u00e4\u00e4ni", "formattedAddress": ["Keskuskatu 4", "00100 Helsinki", "Suomi"], "address": "Keskuskatu 4", "lat": 60.169247224327165, "lng": 24.942634105682373}, "venuePage": {"id": "33622057"}, "verified": true, "id": "4ce64db8f1c6236aad8e52f0", "categories": [{"pluralName": "Gastropubs", "primary": true, "name": "Gastropub", "shortName": "Gastropub", "id": "4bf58dd8d48988d155941735", "icon": {"prefix": "https://ss3.4sqi.net/img/categories_v2/food/gastropub_", "suffix": ".png"}}]}, {"stats": {"tipCount": 49, "checkinsCount": 13559, "usersCount": 6584}, "name": "Vltava", "referralId": "v-1446971987", "venueChains": [], "hereNow": {"count": 0, "groups": [], "summary": "Nobody here"}, "specials": {"count": 0, "items": []}, "allowMenuUrlEdit": true, "location": {"city": "Helsinki", "cc": "FI", "country": "Suomi", "postalCode": "00100", "state": "Uusimaa", "formattedAddress": ["Elielinaukio 2", "00100 Helsinki", "Suomi"], "address": "Elielinaukio 2", "lat": 60.17150073130148, "lng": 24.939254919294857}, "venuePage": {"id": "33622052"}, "verified": true, "id": "4adcdb22f964a5202a6021e3", "categories": [{"pluralName": "Czech Restaurants", "primary": true, "name": "Czech Restaurant", "shortName": "Czech", "id": "52f2ae52bcbc57f1066b8b81", "icon": {"prefix": "https://ss3.4sqi.net/img/categories_v2/food/default_", "suffix": ".png"}}]}, {"stats": {"tipCount": 66, "checkinsCount": 8884, "usersCount": 4689}, "name": "Caf\u00e9 Ursula", "referralId": "v-1446971987", "venueChains": [], "hereNow": {"count": 0, "groups": [], "summary": "Nobody here"}, "specials": {"count": 0, "items": []}, "allowMenuUrlEdit": true, "location": {"city": "Helsinki", "cc": "FI", "country": "Suomi", "postalCode": "00140", "state": "Uusimaa", "formattedAddress": ["Ehrenstr\u00f6mintie 3", "00140 Helsinki", "Suomi"], "address": "Ehrenstr\u00f6mintie 3", "lat": 60.1552027120491, "lng": 24.960776567459106}, "verified": false, "id": "4adcdb20f964a520b65f21e3", "categories": [{"pluralName": "Caf\u00e9s", "primary": true, "name": "Caf\u00e9", "shortName": "Caf\u00e9", "id": "4bf58dd8d48988d16d941735", "icon": {"prefix": "https://ss3.4sqi.net/img/categories_v2/food/cafe_", "suffix": ".png"}}]}, {"stats": {"tipCount": 19, "checkinsCount": 1106, "usersCount": 726}, "name": "The Cock", "referralId": "v-1446971987", "venueChains": [], "hereNow": {"count": 0, "groups": [], "summary": "Nobody here"}, "specials": {"count": 0, "items": []}, "allowMenuUrlEdit": true, "location": {"city": "Helsinki", "neighborhood": "Kaartinkaupunki", "cc": "FI", "country": "Suomi", "postalCode": "00130", "state": "Southern Finland", "formattedAddress": ["Fabianinkatu 17 (Pohjoinen Makasiinikatu)", "00130 Helsinki", "Suomi"], "crossStreet": "Pohjoinen Makasiinikatu", "address": "Fabianinkatu 17", "lat": 60.165517505243024, "lng": 24.949371878951975}, "venuePage": {"id": "121663305"}, "verified": true, "id": "54f6d634498eb03ddc122da3", "categories": [{"pluralName": "Gastropubs", "primary": true, "name": "Gastropub", "shortName": "Gastropub", "id": "4bf58dd8d48988d155941735", "icon": {"prefix": "https://ss3.4sqi.net/img/categories_v2/food/gastropub_", "suffix": ".png"}}]}, {"stats": {"tipCount": 58, "checkinsCount": 9847, "usersCount": 3070}, "name": "Caf\u00e9 Tin Tin Tango", "referralId": "v-1446971987", "venueChains": [], "storeId": "", "hereNow": {"count": 0, "groups": [], "summary": "Nobody here"}, "specials": {"count": 0, "items": []}, "allowMenuUrlEdit": true, "location": {"city": "Helsinki", "cc": "FI", "country": "Suomi", "postalCode": "00260", "state": "Uusimaa", "formattedAddress": ["T\u00f6\u00f6l\u00f6ntorinkatu 7", "00260 Helsinki", "Suomi"], "address": "T\u00f6\u00f6l\u00f6ntorinkatu 7", "lat": 60.17860129756121, "lng": 24.924802875455327}, "verified": true, "id": "4b9fdee2f964a5202c4637e3", "categories": [{"pluralName": "Caf\u00e9s", "primary": true, "name": "Caf\u00e9", "shortName": "Caf\u00e9", "id": "4bf58dd8d48988d16d941735", "icon": {"prefix": "https://ss3.4sqi.net/img/categories_v2/food/cafe_", "suffix": ".png"}}]}, {"stats": {"tipCount": 117, "checkinsCount": 8997, "usersCount": 4103}, "name": "Caf\u00e9 Regatta", "referralId": "v-1446971987", "venueChains": [], "hereNow": {"count": 0, "groups": [], "summary": "Nobody here"}, "specials": {"count": 0, "items": []}, "allowMenuUrlEdit": true, "location": {"city": "Helsinki", "cc": "FI", "country": "Suomi", "postalCode": "00250", "state": "Uusimaa", "formattedAddress": ["Merikannontie 10", "00250 Helsinki", "Suomi"], "address": "Merikannontie 10", "lat": 60.18009011393016, "lng": 24.911799430847168}, "verified": false, "id": "4adcdb22f964a5203a6021e3", "categories": [{"pluralName": "Caf\u00e9s", "primary": true, "name": "Caf\u00e9", "shortName": "Caf\u00e9", "id": "4bf58dd8d48988d16d941735", "icon": {"prefix": "https://ss3.4sqi.net/img/categories_v2/food/cafe_", "suffix": ".png"}}]}, {"stats": {"tipCount": 73, "checkinsCount": 17670, "usersCount": 6868}, "name": "Caf\u00e9 Carusel", "referralId": "v-1446971987", "venueChains": [], "hereNow": {"count": 0, "groups": [], "summary": "Nobody here"}, "specials": {"count": 0, "items": []}, "allowMenuUrlEdit": true, "location": {"city": "Helsinki", "cc": "FI", "country": "Suomi", "postalCode": "00150", "state": "Uusimaa", "formattedAddress": ["Merisatamanranta 10", "00150 Helsinki", "Suomi"], "address": "Merisatamanranta 10", "lat": 60.15367608997506, "lng": 24.94239917315031}, "verified": false, "id": "4b5a417df964a520e0b728e3", "categories": [{"pluralName": "Caf\u00e9s", "primary": true, "name": "Caf\u00e9", "shortName": "Caf\u00e9", "id": "4bf58dd8d48988d16d941735", "icon": {"prefix": "https://ss3.4sqi.net/img/categories_v2/food/cafe_", "suffix": ".png"}}]}, {"stats": {"tipCount": 52, "checkinsCount": 4318, "usersCount": 1796}, "name": "Kuja Bar and Bistro", "referralId": "v-1446971987", "venueChains": [], "hereNow": {"count": 0, "groups": [], "summary": "Nobody here"}, "specials": {"count": 0, "items": []}, "allowMenuUrlEdit": true, "location": {"city": "Helsinki", "cc": "FI", "country": "Suomi", "postalCode": "00530", "state": "Uusimaa", "formattedAddress": ["Hakaniemenkatu 7", "00530 Helsinki", "Suomi"], "address": "Hakaniemenkatu 7", "lat": 60.178921687184896, "lng": 24.954760372638702}, "verified": false, "id": "51683026e4b0099252f620c7", "categories": [{"pluralName": "Bistros", "primary": true, "name": "Bistro", "shortName": "Bistro", "id": "52e81612bcbc57f1066b79f1", "icon": {"prefix": "https://ss3.4sqi.net/img/categories_v2/food/default_", "suffix": ".png"}}]}, {"stats": {"tipCount": 26, "checkinsCount": 17243, "usersCount": 3440}, "name": "McDonald's", "referralId": "v-1446971987", "venueChains": [{"id": "556f7a12bd6a75a9903bddb2"}], "storeId": "", "hereNow": {"count": 0, "groups": [], "summary": "Nobody here"}, "specials": {"count": 0, "items": []}, "allowMenuUrlEdit": true, "location": {"city": "Espoo", "cc": "FI", "country": "Suomi", "postalCode": "02200", "state": "Uusimaa", "formattedAddress": ["Niittymaantie 6", "02200 Espoo", "Suomi"], "address": "Niittymaantie 6", "lat": 60.17116046464334, "lng": 24.778107404708862}, "verified": true, "id": "4b4d8983f964a520bfd326e3", "categories": [{"pluralName": "Fast Food Restaurants", "primary": true, "name": "Fast Food Restaurant", "shortName": "Fast Food", "id": "4bf58dd8d48988d16e941735", "icon": {"prefix": "https://ss3.4sqi.net/img/categories_v2/food/fastfood_", "suffix": ".png"}}]}, {"stats": {"tipCount": 30, "checkinsCount": 5399, "usersCount": 2119}, "name": "Bar Loosister", "referralId": "v-1446971987", "venueChains": [], "hereNow": {"count": 0, "groups": [], "summary": "Nobody here"}, "specials": {"count": 0, "items": []}, "allowMenuUrlEdit": true, "location": {"city": "Helsinki", "cc": "FI", "country": "Suomi", "postalCode": "00500", "state": "Uusimaa", "formattedAddress": ["H\u00e4meentie 50", "00500 Helsinki", "Suomi"], "address": "H\u00e4meentie 50", "lat": 60.1870807564127, "lng": 24.961486158632876}, "verified": false, "id": "5173df84e4b0bb056be47496", "categories": [{"pluralName": "Bars", "primary": true, "name": "Bar", "shortName": "Bar", "id": "4bf58dd8d48988d116941735", "icon": {"prefix": "https://ss3.4sqi.net/img/categories_v2/nightlife/pub_", "suffix": ".png"}}]}, {"stats": {"tipCount": 33, "checkinsCount": 1570, "usersCount": 1074}, "name": "Friends & Brgrs", "referralId": "v-1446971987", "venueChains": [], "hereNow": {"count": 0, "groups": [], "summary": "Nobody here"}, "specials": {"count": 0, "items": []}, "allowMenuUrlEdit": true, "location": {"city": "Helsinki", "cc": "FI", "country": "Suomi", "postalCode": "00100", "state": "Southern Finland", "formattedAddress": ["Mikonkatu 8", "00100 Helsinki", "Suomi"], "address": "Mikonkatu 8", "lat": 60.170140071732824, "lng": 24.94529988197942}, "verified": false, "id": "552e0d2e498ef13895cfb6a7", "categories": [{"pluralName": "Burger Joints", "primary": true, "name": "Burger Joint", "shortName": "Burgers", "id": "4bf58dd8d48988d16c941735", "icon": {"prefix": "https://ss3.4sqi.net/img/categories_v2/food/burger_", "suffix": ".png"}}]}, {"stats": {"tipCount": 110, "checkinsCount": 13153, "usersCount": 4032}, "name": "Caf\u00e9 Bar 9", "referralId": "v-1446971987", "venueChains": [], "hereNow": {"count": 0, "groups": [], "summary": "Nobody here"}, "specials": {"count": 0, "items": []}, "allowMenuUrlEdit": true, "location": {"city": "Helsinki", "cc": "FI", "country": "Suomi", "postalCode": "00120", "state": "Uusimaa", "formattedAddress": ["Uudenmaankatu 9", "00120 Helsinki", "Suomi"], "address": "Uudenmaankatu 9", "lat": 60.16495069989984, "lng": 24.941765069961548}, "verified": false, "id": "4adcdb21f964a520e55f21e3", "categories": [{"pluralName": "Bars", "primary": true, "name": "Bar", "shortName": "Bar", "id": "4bf58dd8d48988d116941735", "icon": {"prefix": "https://ss3.4sqi.net/img/categories_v2/nightlife/pub_", "suffix": ".png"}}]}, {"stats": {"tipCount": 136, "checkinsCount": 12688, "usersCount": 4221}, "name": "La Torrefazione", "referralId": "v-1446971987", "venueChains": [], "hereNow": {"count": 0, "groups": [], "summary": "Nobody here"}, "specials": {"count": 0, "items": []}, "allowMenuUrlEdit": true, "location": {"city": "Helsinki", "cc": "FI", "country": "Suomi", "postalCode": "00100", "state": "Uusimaa", "formattedAddress": ["Aleksanterinkatu 50", "00100 Helsinki", "Suomi"], "address": "Aleksanterinkatu 50", "lat": 60.16887696177885, "lng": 24.9438452857296}, "verified": false, "id": "4af1c9e2f964a52031e321e3", "categories": [{"pluralName": "Caf\u00e9s", "primary": true, "name": "Caf\u00e9", "shortName": "Caf\u00e9", "id": "4bf58dd8d48988d16d941735", "icon": {"prefix": "https://ss3.4sqi.net/img/categories_v2/food/cafe_", "suffix": ".png"}}]}, {"stats": {"tipCount": 153, "checkinsCount": 23558, "usersCount": 10833}, "name": "Vapiano", "referralId": "v-1446971987", "venueChains": [], "hereNow": {"count": 0, "groups": [], "summary": "Nobody here"}, "specials": {"count": 0, "items": []}, "allowMenuUrlEdit": true, "location": {"city": "Helsinki", "cc": "FI", "country": "Suomi", "postalCode": "00100", "state": "Uusimaa", "formattedAddress": ["Mikonkatu 15", "00100 Helsinki", "Suomi"], "address": "Mikonkatu 15", "lat": 60.170984355128006, "lng": 24.94548261165619}, "verified": false, "id": "4df370c16284fefe8fc23488", "categories": [{"pluralName": "Italian Restaurants", "primary": true, "name": "Italian Restaurant", "shortName": "Italian", "id": "4bf58dd8d48988d110941735", "icon": {"prefix": "https://ss3.4sqi.net/img/categories_v2/food/italian_", "suffix": ".png"}}]}, {"stats": {"tipCount": 41, "checkinsCount": 3577, "usersCount": 1856}, "name": "D\u00f6ner Harju", "referralId": "v-1446971987", "venueChains": [], "hereNow": {"count": 0, "groups": [], "summary": "Nobody here"}, "specials": {"count": 0, "items": []}, "allowMenuUrlEdit": true, "location": {"city": "Harju", "cc": "FI", "country": "Suomi", "postalCode": "00500", "state": "Southern Finland", "formattedAddress": ["Fleminginkatu 23 (Vaasankatu)", "00500 Harju", "Suomi"], "crossStreet": "Vaasankatu", "address": "Fleminginkatu 23", "lat": 60.18863346537462, "lng": 24.952752854313225}, "verified": false, "id": "52ea813c498e1f9f00b95673", "categories": [{"pluralName": "Doner Restaurants", "primary": true, "name": "Doner Restaurant", "shortName": "Doner", "id": "5283c7b4e4b094cb91ec88d8", "icon": {"prefix": "https://ss3.4sqi.net/img/categories_v2/food/turkish_", "suffix": ".png"}}]}, {"stats": {"tipCount": 99, "checkinsCount": 11966, "usersCount": 6088}, "name": "Belge", "referralId": "v-1446971987", "venueChains": [], "storeId": "", "hereNow": {"count": 0, "groups": [], "summary": "Nobody here"}, "specials": {"count": 0, "items": []}, "allowMenuUrlEdit": true, "location": {"city": "Helsinki", "cc": "FI", "country": "Suomi", "postalCode": "00100", "state": "Uusimaa", "formattedAddress": ["Kluuvikatu 5", "00100 Helsinki", "Suomi"], "address": "Kluuvikatu 5", "lat": 60.16933986865219, "lng": 24.947466825096804}, "venuePage": {"id": "33622940"}, "verified": true, "id": "4adcdb21f964a520f45f21e3", "categories": [{"pluralName": "Belgian Restaurants", "primary": true, "name": "Belgian Restaurant", "shortName": "Belgian", "id": "52e81612bcbc57f1066b7a02", "icon": {"prefix": "https://ss3.4sqi.net/img/categories_v2/food/default_", "suffix": ".png"}}]}, {"stats": {"tipCount": 90, "checkinsCount": 9366, "usersCount": 4875}, "name": "KIILA Food & Bar", "referralId": "v-1446971987", "venueChains": [], "hereNow": {"count": 0, "groups": [], "summary": "Nobody here"}, "specials": {"count": 0, "items": []}, "allowMenuUrlEdit": true, "location": {"city": "Helsinki", "cc": "FI", "country": "Suomi", "postalCode": "00100", "state": "Uusimaa", "formattedAddress": ["Kalevankatu 1 (Mannerheimintie)", "00100 Helsinki", "Suomi"], "crossStreet": "Mannerheimintie", "address": "Kalevankatu 1", "lat": 60.16826521113304, "lng": 24.940026998519897}, "verified": false, "id": "4f510050e4b062d9da86e1bb", "categories": [{"pluralName": "Scandinavian Restaurants", "primary": true, "name": "Scandinavian Restaurant", "shortName": "Scandinavian", "id": "4bf58dd8d48988d1c6941735", "icon": {"prefix": "https://ss3.4sqi.net/img/categories_v2/food/scandinavian_", "suffix": ".png"}}]}, {"stats": {"tipCount": 20, "checkinsCount": 9444, "usersCount": 4310}, "name": "McDonald's", "referralId": "v-1446971987", "venueChains": [{"id": "556f7a12bd6a75a9903bddb2"}], "storeId": "", "hereNow": {"count": 0, "groups": [], "summary": "Nobody here"}, "specials": {"count": 0, "items": []}, "allowMenuUrlEdit": true, "location": {"city": "Helsinki", "cc": "FI", "country": "Suomi", "postalCode": "00250", "state": "Uusimaa", "formattedAddress": ["Mannerheimintie 53 (Reijolankatu)", "00250 Helsinki", "Suomi"], "crossStreet": "Reijolankatu", "address": "Mannerheimintie 53", "lat": 60.18999606187139, "lng": 24.917389154434204}, "verified": true, "id": "4bee687ee24d20a1a4e57214", "categories": [{"pluralName": "Fast Food Restaurants", "primary": true, "name": "Fast Food Restaurant", "shortName": "Fast Food", "id": "4bf58dd8d48988d16e941735", "icon": {"prefix": "https://ss3.4sqi.net/img/categories_v2/food/fastfood_", "suffix": ".png"}}]}, {"stats": {"tipCount": 109, "checkinsCount": 12297, "usersCount": 4602}, "name": "Putte's Bar & Pizza", "referralId": "v-1446971988", "venueChains": [], "hereNow": {"count": 0, "groups": [], "summary": "Nobody here"}, "specials": {"count": 0, "items": []}, "allowMenuUrlEdit": true, "location": {"city": "Helsinki", "cc": "FI", "country": "Suomi", "postalCode": "00100", "state": "Uusimaa", "formattedAddress": ["Kalevankatu 6", "00100 Helsinki", "Suomi"], "address": "Kalevankatu 6", "lat": 60.167550030878864, "lng": 24.93899703025818}, "verified": false, "id": "4e7cc319d22dfdd20948bc9a", "categories": [{"pluralName": "Pizza Places", "primary": true, "name": "Pizza Place", "shortName": "Pizza", "id": "4bf58dd8d48988d1ca941735", "icon": {"prefix": "https://ss3.4sqi.net/img/categories_v2/food/pizza_", "suffix": ".png"}}]}, {"stats": {"tipCount": 48, "checkinsCount": 3349, "usersCount": 1580}, "name": "Woolshed Bar & Kitchen", "referralId": "v-1446971988", "venueChains": [], "storeId": "", "hereNow": {"count": 0, "groups": [], "summary": "Nobody here"}, "specials": {"count": 0, "items": []}, "allowMenuUrlEdit": true, "location": {"city": "Helsinki", "cc": "FI", "country": "Suomi", "postalCode": "00100", "state": "Etel\u00e4-Suomen L\u00e4\u00e4ni", "formattedAddress": ["T\u00f6\u00f6l\u00f6nlahdenkatu 3 B 1 (Under new KPMG building)", "00100 Helsinki", "Suomi"], "crossStreet": "Under new KPMG building", "address": "T\u00f6\u00f6l\u00f6nlahdenkatu 3 B 1", "lat": 60.17338069765411, "lng": 24.939009475419876}, "venuePage": {"id": "84196455"}, "verified": true, "id": "533a7482498ebe4937dcbee6", "categories": [{"pluralName": "Burger Joints", "primary": true, "name": "Burger Joint", "shortName": "Burgers", "id": "4bf58dd8d48988d16c941735", "icon": {"prefix": "https://ss3.4sqi.net/img/categories_v2/food/burger_", "suffix": ".png"}}]}, {"stats": {"tipCount": 12, "checkinsCount": 646, "usersCount": 393}, "name": "Il Birrificio", "referralId": "v-1446971988", "venueChains": [], "hereNow": {"count": 0, "groups": [], "summary": "Nobody here"}, "specials": {"count": 0, "items": []}, "allowMenuUrlEdit": true, "location": {"city": "Helsinki, Southern Finland", "cc": "FI", "country": "Suomi", "postalCode": "00120", "formattedAddress": ["Fredrikinkatu 22", "00120 Helsinki, Southern Finland", "Suomi"], "address": "Fredrikinkatu 22", "lat": 60.163528257444376, "lng": 24.938111655929365}, "verified": false, "id": "554a4395498e5f3d05467a6d", "categories": [{"pluralName": "Breweries", "primary": true, "name": "Brewery", "shortName": "Brewery", "id": "50327c8591d4c4b30a586d5d", "icon": {"prefix": "https://ss3.4sqi.net/img/categories_v2/food/brewery_", "suffix": ".png"}}]}, {"stats": {"tipCount": 178, "checkinsCount": 15782, "usersCount": 10298}, "name": "Hard Rock Cafe Helsinki", "referralId": "v-1446971988", "venueChains": [], "storeId": "", "hereNow": {"count": 0, "groups": [], "summary": "Nobody here"}, "specials": {"count": 1, "items": [{"redemption": "webview", "description": "", "unlocked": true, "photo": {"suffix": "/87576934_iQWPsZ2OfozQ8XsYNW_mCYbdH6W-XlDZVCxOdkcRUzc.jpg", "height": 622, "width": 640, "prefix": "https://irs3.4sqi.net/img/general/", "id": "53a0343e498ea6855da202a8", "createdAt": 1403008062}, "title": "Special", "page": {"bio": "", "firstName": "Hard Rock Cafe Helsinki", "gender": "none", "venue": {"id": "4f7d607fe4b0ffb6a37cdd8a"}, "lists": {"groups": [{"count": 2, "items": [], "type": "created"}]}, "homeCity": "Helsinki", "contact": {"facebook": "182505265200391"}, "photo": {"prefix": "https://irs2.4sqi.net/img/user/", "suffix": "/87576934-EXURMCEOFXIG1P4L.png"}, "tips": {"count": 1}, "type": "venuePage", "id": "87576934"}, "state": "unlocked", "interaction": {"entryUrl": "https://foursquare.com/device/specials/53a0343e498e402e0b40cc2f?venueId=4f7d607fe4b0ffb6a37cdd8a"}, "provider": "foursquare", "message": "'FREE Regular Coffee' when you check in at the Hard Rock. \n(Please show our staff your check in for verification.)", "type": "frequency", "id": "53a0343e498e402e0b40cc2f", "icon": "default"}]}, "allowMenuUrlEdit": true, "location": {"city": "Helsinki", "cc": "FI", "country": "Suomi", "postalCode": "00100", "state": "Etel\u00e4-Suomen L\u00e4\u00e4ni", "formattedAddress": ["Aleksanterinkatu 21", "00100 Helsinki", "Suomi"], "address": "Aleksanterinkatu 21", "lat": 60.16887363581031, "lng": 24.941453933715817}, "venuePage": {"id": "87576934"}, "verified": true, "id": "4f7d607fe4b0ffb6a37cdd8a", "categories": [{"pluralName": "American Restaurants", "primary": true, "name": "American Restaurant", "shortName": "American", "id": "4bf58dd8d48988d14e941735", "icon": {"prefix": "https://ss3.4sqi.net/img/categories_v2/food/default_", "suffix": ".png"}}]}, {"stats": {"tipCount": 65, "checkinsCount": 10538, "usersCount": 2856}, "name": "Fratello Torrefazione", "referralId": "v-1446971988", "venueChains": [], "storeId": "", "hereNow": {"count": 0, "groups": [], "summary": "Nobody here"}, "specials": {"count": 0, "items": []}, "allowMenuUrlEdit": true, "location": {"city": "Helsinki", "cc": "FI", "country": "Suomi", "postalCode": "00100", "formattedAddress": ["Yliopistonkatu 6", "00100 Helsinki", "Suomi"], "address": "Yliopistonkatu 6", "lat": 60.16999572502748, "lng": 24.947779169710966}, "venuePage": {"id": "47222393"}, "verified": true, "id": "4e9ad0408231878c15989647", "categories": [{"pluralName": "Coffee Shops", "primary": true, "name": "Coffee Shop", "shortName": "Coffee Shop", "id": "4bf58dd8d48988d1e0931735", "icon": {"prefix": "https://ss3.4sqi.net/img/categories_v2/food/coffeeshop_", "suffix": ".png"}}]}, {"stats": {"tipCount": 48, "checkinsCount": 6076, "usersCount": 1198}, "name": "Kahvila S\u00e4vy", "referralId": "v-1446971988", "venueChains": [], "storeId": "", "hereNow": {"count": 0, "groups": [], "summary": "Nobody here"}, "specials": {"count": 0, "items": []}, "allowMenuUrlEdit": true, "location": {"city": "Helsinki", "cc": "FI", "country": "Suomi", "postalCode": "00500", "state": "Uusimaa", "formattedAddress": ["Aleksis Kiven katu 12 (corner of Harjukatu & Aleksis Kiven katu)", "00500 Helsinki", "Suomi"], "crossStreet": "corner of Harjukatu & Aleksis Kiven katu", "address": "Aleksis Kiven katu 12", "lat": 60.189190681769226, "lng": 24.958534240722656}, "venuePage": {"id": "34299880"}, "verified": true, "id": "4cda4b4fcea2224b92d07e4c", "categories": [{"pluralName": "Caf\u00e9s", "primary": true, "name": "Caf\u00e9", "shortName": "Caf\u00e9", "id": "4bf58dd8d48988d16d941735", "icon": {"prefix": "https://ss3.4sqi.net/img/categories_v2/food/cafe_", "suffix": ".png"}}]}]}}