{"meta": {"code": 200, "requestId": "563f0a56498e699908271caf"}, "response": {"confident": false, "geocode": {"parents": [], "what": "", "where": "milan", "feature": {"highlightedName": "<b>Milan</b>, Lombardy, Italy", "displayName": "Milan, Lombardy, Italy", "name": "Milan", "longId": "72057594041101371", "cc": "IT", "id": "geonameid:3173435", "geometry": {"center": {"lat": 45.46427, "lng": 9.18951}, "bounds": {"sw": {"lat": 45.38920202383928, "lng": 9.039837068386658}, "ne": {"lat": 45.53644193307576, "lng": 9.278070963403922}}}, "matchedName": "Milan, Lombardy, Italy", "woeType": 7, "slug": "milano-italy"}}, "venues": [{"stats": {"tipCount": 8, "checkinsCount": 297, "usersCount": 206}, "name": "oTTo", "referralId": "v-1446971990", "venueChains": [], "hereNow": {"count": 0, "groups": [], "summary": "Nobody here"}, "specials": {"count": 0, "items": []}, "allowMenuUrlEdit": true, "location": {"city": "Milano", "cc": "IT", "country": "Italia", "state": "Lombardia", "formattedAddress": ["Via Paolo Sarpi 10", "Milano Lombardia", "Italia"], "address": "Via Paolo Sarpi 10", "lat": 45.481921943181035, "lng": 9.179891087965144}, "verified": false, "id": "552a888a498e4c935129d1bd", "categories": [{"pluralName": "Bistros", "primary": true, "name": "Bistro", "shortName": "Bistro", "id": "52e81612bcbc57f1066b79f1", "icon": {"prefix": "https://ss3.4sqi.net/img/categories_v2/food/default_", "suffix": ".png"}}]}, {"stats": {"tipCount": 169, "checkinsCount": 8917, "usersCount": 5693}, "name": "Eataly Smeraldo", "referralId": "v-1446971990", "venueChains": [], "hereNow": {"count": 1, "groups": [{"count": 1, "items": [], "type": "others", "name": "Other people here"}], "summary": "One other person is here"}, "specials": {"count": 0, "items": []}, "allowMenuUrlEdit": true, "location": {"city": "Milano", "cc": "IT", "country": "Italia", "postalCode": "20121", "state": "Lombardia", "formattedAddress": ["Piazza XXV Aprile, 10", "20121 Milano Lombardia", "Italia"], "address": "Piazza XXV Aprile, 10", "lat": 45.48061820730947, "lng": 9.187445640563963}, "verified": false, "id": "53203c1611d2fa014b90028a", "categories": [{"pluralName": "Gourmet Shops", "primary": true, "name": "Gourmet Shop", "shortName": "Gourmet", "id": "4bf58dd8d48988d1f5941735", "icon": {"prefix": "https://ss3.4sqi.net/img/categories_v2/shops/food_gourmet_", "suffix": ".png"}}]}, {"stats": {"tipCount": 64, "checkinsCount": 1401, "usersCount": 1168}, "name": "Spontini", "referralId": "v-1446971990", "venueChains": [], "hereNow": {"count": 0, "groups": [], "summary": "Nobody here"}, "specials": {"count": 0, "items": []}, "allowMenuUrlEdit": true, "location": {"city": "Milano", "cc": "IT", "country": "Italia", "postalCode": "20121", "state": "Lombardia", "formattedAddress": ["Via Santa Radegonda, 11", "20121 Milano Lombardia", "Italia"], "address": "Via Santa Radegonda, 11", "lat": 45.46571904593314, "lng": 9.191040874248877}, "verified": false, "id": "52fb6e6411d2685ca74f57f0", "categories": [{"pluralName": "Pizza Places", "primary": true, "name": "Pizza Place", "shortName": "Pizza", "id": "4bf58dd8d48988d1ca941735", "icon": {"prefix": "https://ss3.4sqi.net/img/categories_v2/food/pizza_", "suffix": ".png"}}]}, {"stats": {"tipCount": 22, "checkinsCount": 679, "usersCount": 567}, "name": "Carlo e Camilla in Segheria", "referralId": "v-1446971990", "venueChains": [], "hereNow": {"count": 0, "groups": [], "summary": "Nobody here"}, "specials": {"count": 0, "items": []}, "allowMenuUrlEdit": true, "location": {"city": "Milano", "cc": "IT", "country": "Italia", "postalCode": "20136", "state": "Lombardia", "formattedAddress": ["Via Giuseppe Meda, 24", "20136 Milano Lombardia", "Italia"], "address": "Via Giuseppe Meda, 24", "lat": 45.442985040430145, "lng": 9.178748332786343}, "verified": false, "id": "532aaab3498eb45e32162e53", "categories": [{"pluralName": "Restaurants", "primary": true, "name": "Restaurant", "shortName": "Restaurant", "id": "4bf58dd8d48988d1c4941735", "icon": {"prefix": "https://ss3.4sqi.net/img/categories_v2/food/default_", "suffix": ".png"}}]}, {"stats": {"tipCount": 54, "checkinsCount": 2842, "usersCount": 1699}, "name": "Princi", "referralId": "v-1446971990", "venueChains": [], "hereNow": {"count": 0, "groups": [], "summary": "Nobody here"}, "specials": {"count": 0, "items": []}, "allowMenuUrlEdit": true, "location": {"city": "Milano", "neighborhood": "Garibaldi", "cc": "IT", "country": "Italia", "state": "Lombardia", "formattedAddress": ["Piazza XXV Aprile, 5 (Viale Pasubio)", "Milano Lombardia", "Italia"], "crossStreet": "Viale Pasubio", "address": "Piazza XXV Aprile, 5", "lat": 45.48100344629867, "lng": 9.186338828607058}, "verified": false, "id": "4be4ba45910020a1df2ed214", "categories": [{"pluralName": "Bakeries", "primary": true, "name": "Bakery", "shortName": "Bakery", "id": "4bf58dd8d48988d16a941735", "icon": {"prefix": "https://ss3.4sqi.net/img/categories_v2/food/bakery_", "suffix": ".png"}}]}, {"stats": {"tipCount": 97, "checkinsCount": 2733, "usersCount": 1711}, "name": "Temakinho Brera", "referralId": "v-1446971990", "venueChains": [{"id": "556e5197bd6a82902e2820c7"}], "storeId": "", "hereNow": {"count": 0, "groups": [], "summary": "Nobody here"}, "specials": {"count": 0, "items": []}, "allowMenuUrlEdit": true, "location": {"city": "Milano", "cc": "IT", "country": "Italia", "postalCode": "20121", "state": "Lombardia", "formattedAddress": ["Corso Garibaldi, 59", "20121 Milano Lombardia", "Italia"], "address": "Corso Garibaldi, 59", "lat": 45.474675239939515, "lng": 9.183306849660843}, "verified": true, "id": "51228214e4b0bc18a1423965", "categories": [{"pluralName": "Sushi Restaurants", "primary": true, "name": "Sushi Restaurant", "shortName": "Sushi", "id": "4bf58dd8d48988d1d2941735", "icon": {"prefix": "https://ss3.4sqi.net/img/categories_v2/food/sushi_", "suffix": ".png"}}]}, {"stats": {"tipCount": 19, "checkinsCount": 10200, "usersCount": 2637}, "name": "Porta Romana", "referralId": "v-1446971990", "venueChains": [], "hereNow": {"count": 0, "groups": [], "summary": "Nobody here"}, "specials": {"count": 0, "items": []}, "allowMenuUrlEdit": true, "location": {"city": "Milano", "cc": "IT", "country": "Italia", "postalCode": "20135", "state": "Lombardia", "formattedAddress": ["Piazza Medaglie d'Oro (Corso di Porta Romana)", "20135 Milano Lombardia", "Italia"], "crossStreet": "Corso di Porta Romana", "address": "Piazza Medaglie d'Oro", "lat": 45.45169619189568, "lng": 9.202568984354803}, "verified": false, "id": "4b05887cf964a520d7c822e3", "categories": [{"pluralName": "Monuments / Landmarks", "primary": true, "name": "Monument / Landmark", "shortName": "Landmark", "id": "4bf58dd8d48988d12d941735", "icon": {"prefix": "https://ss3.4sqi.net/img/categories_v2/building/government_monument_", "suffix": ".png"}}]}, {"stats": {"tipCount": 140, "checkinsCount": 6919, "usersCount": 4067}, "name": "California Bakery", "referralId": "v-1446971990", "venueChains": [{"id": "5568edfca7c8a9cf8ec3c35d"}], "storeId": "", "hereNow": {"count": 0, "groups": [], "summary": "Nobody here"}, "specials": {"count": 0, "items": []}, "allowMenuUrlEdit": true, "location": {"city": "Milano", "cc": "IT", "country": "Italia", "postalCode": "20122", "state": "Lombardia", "formattedAddress": ["Via Larga 19", "20122 Milano Lombardia", "Italia"], "address": "Via Larga 19", "lat": 45.461462028348905, "lng": 9.192260497738578}, "verified": true, "id": "4cec0be70f196dcbee635bae", "categories": [{"pluralName": "Breakfast Spots", "primary": true, "name": "Breakfast Spot", "shortName": "Breakfast", "id": "4bf58dd8d48988d143941735", "icon": {"prefix": "https://ss3.4sqi.net/img/categories_v2/food/breakfast_", "suffix": ".png"}}]}, {"stats": {"tipCount": 96, "checkinsCount": 3894, "usersCount": 2280}, "name": "God Save the Food", "referralId": "v-1446971990", "venueChains": [], "hereNow": {"count": 0, "groups": [], "summary": "Nobody here"}, "specials": {"count": 0, "items": []}, "allowMenuUrlEdit": true, "location": {"city": "Milano", "cc": "IT", "country": "Italia", "postalCode": "20144", "state": "Lombardia", "formattedAddress": ["Via Tortona 34 (Via Novi)", "20144 Milano Lombardia", "Italia"], "crossStreet": "Via Novi", "address": "Via Tortona 34", "lat": 45.45270377540497, "lng": 9.165525670656871}, "venuePage": {"id": "70488359"}, "verified": true, "id": "4e5f4f5ad22d7239c1adff65", "categories": [{"pluralName": "Italian Restaurants", "primary": true, "name": "Italian Restaurant", "shortName": "Italian", "id": "4bf58dd8d48988d110941735", "icon": {"prefix": "https://ss3.4sqi.net/img/categories_v2/food/italian_", "suffix": ".png"}}]}, {"stats": {"tipCount": 31, "checkinsCount": 1777, "usersCount": 674}, "name": "Anche Bar", "referralId": "v-1446971990", "venueChains": [], "hereNow": {"count": 0, "groups": [], "summary": "Nobody here"}, "specials": {"count": 0, "items": []}, "allowMenuUrlEdit": true, "location": {"city": "Milano", "neighborhood": "Isola, Milano, Lombardia", "cc": "IT", "country": "Italia", "postalCode": "20159", "state": "Lombardia", "formattedAddress": ["Via Carmagnola 5 (Via Pastrengo)", "20159 Milano Lombardia", "Italia"], "crossStreet": "Via Pastrengo", "address": "Via Carmagnola 5", "lat": 45.48666599581828, "lng": 9.186726808547974}, "venuePage": {"id": "87883593"}, "verified": true, "id": "4e84d6f2d3e3e0955c030624", "categories": [{"pluralName": "Bars", "primary": true, "name": "Bar", "shortName": "Bar", "id": "4bf58dd8d48988d116941735", "icon": {"prefix": "https://ss3.4sqi.net/img/categories_v2/nightlife/pub_", "suffix": ".png"}}]}, {"stats": {"tipCount": 97, "checkinsCount": 5632, "usersCount": 2793}, "name": "Princi", "referralId": "v-1446971990", "venueChains": [], "hereNow": {"count": 0, "groups": [], "summary": "Nobody here"}, "specials": {"count": 0, "items": []}, "allowMenuUrlEdit": true, "location": {"city": "Milano", "neighborhood": "Moscova", "cc": "IT", "country": "Italia", "postalCode": "20121", "state": "Lombardia", "formattedAddress": ["Largo La Foppa 2", "20121 Milano Lombardia", "Italia"], "address": "Largo La Foppa 2", "lat": 45.47785411235437, "lng": 9.184460420726753}, "verified": false, "id": "4b683575f964a520fd6b2be3", "categories": [{"pluralName": "Bakeries", "primary": true, "name": "Bakery", "shortName": "Bakery", "id": "4bf58dd8d48988d16a941735", "icon": {"prefix": "https://ss3.4sqi.net/img/categories_v2/food/bakery_", "suffix": ".png"}}]}, {"stats": {"tipCount": 182, "checkinsCount": 7235, "usersCount": 3650}, "name": "Bianco Latte", "referralId": "v-1446971990", "venueChains": [], "hereNow": {"count": 0, "groups": [], "summary": "Nobody here"}, "specials": {"count": 0, "items": []}, "allowMenuUrlEdit": true, "location": {"city": "Milano", "cc": "IT", "country": "Italia", "postalCode": "20121", "state": "Lombardia", "formattedAddress": ["Via Filippo Turati 30", "20121 Milano Lombardia", "Italia"], "address": "Via Filippo Turati 30", "lat": 45.47646998730063, "lng": 9.19509}, "verified": false, "id": "4c45c5fef0bdd13a9e64cbcc", "categories": [{"pluralName": "Breakfast Spots", "primary": true, "name": "Breakfast Spot", "shortName": "Breakfast", "id": "4bf58dd8d48988d143941735", "icon": {"prefix": "https://ss3.4sqi.net/img/categories_v2/food/breakfast_", "suffix": ".png"}}]}, {"stats": {"tipCount": 77, "checkinsCount": 5275, "usersCount": 2809}, "name": "Ostello Bello", "referralId": "v-1446971990", "venueChains": [], "hereNow": {"count": 0, "groups": [], "summary": "Nobody here"}, "specials": {"count": 0, "items": []}, "allowMenuUrlEdit": true, "location": {"city": "Milano", "cc": "IT", "country": "Italia", "postalCode": "20123", "state": "Lombardia", "formattedAddress": ["Via Medici 4", "20123 Milano Lombardia", "Italia"], "address": "Via Medici 4", "lat": 45.46085264926285, "lng": 9.181219047676874}, "verified": false, "id": "4e204c1ac65b2b5e353a326e", "categories": [{"pluralName": "Hostels", "primary": true, "name": "Hostel", "shortName": "Hostel", "id": "4bf58dd8d48988d1ee931735", "icon": {"prefix": "https://ss3.4sqi.net/img/categories_v2/travel/hostel_", "suffix": ".png"}}]}, {"stats": {"tipCount": 106, "checkinsCount": 835, "usersCount": 594}, "name": "Pizza Am", "referralId": "v-1446971990", "venueChains": [], "hereNow": {"count": 0, "groups": [], "summary": "Nobody here"}, "specials": {"count": 0, "items": []}, "allowMenuUrlEdit": true, "location": {"city": "Milano", "cc": "IT", "country": "Italia", "postalCode": "20122", "state": "Lombardia", "formattedAddress": ["Corso di Porta Romana, 83", "20122 Milano Lombardia", "Italia"], "address": "Corso di Porta Romana, 83", "lat": 45.45552783113018, "lng": 9.196826418174808}, "verified": false, "id": "52068be511d2f3fc7abb402b", "categories": [{"pluralName": "Pizza Places", "primary": true, "name": "Pizza Place", "shortName": "Pizza", "id": "4bf58dd8d48988d1ca941735", "icon": {"prefix": "https://ss3.4sqi.net/img/categories_v2/food/pizza_", "suffix": ".png"}}]}, {"stats": {"tipCount": 56, "checkinsCount": 1830, "usersCount": 1072}, "name": "California Bakery", "referralId": "v-1446971990", "venueChains": [{"id": "5568edfca7c8a9cf8ec3c35d"}], "hereNow": {"count": 0, "groups": [], "summary": "Nobody here"}, "specials": {"count": 0, "items": []}, "allowMenuUrlEdit": true, "location": {"city": "Milano", "cc": "IT", "country": "Italia", "postalCode": "20123", "state": "Lombardia", "formattedAddress": ["Via San Vittore 2", "20123 Milano Lombardia", "Italia"], "address": "Via San Vittore 2", "lat": 45.46220944946535, "lng": 9.174027057137325}, "verified": true, "id": "51431764e4b0f6376845f202", "categories": [{"pluralName": "Breakfast Spots", "primary": true, "name": "Breakfast Spot", "shortName": "Breakfast", "id": "4bf58dd8d48988d143941735", "icon": {"prefix": "https://ss3.4sqi.net/img/categories_v2/food/breakfast_", "suffix": ".png"}}]}, {"stats": {"tipCount": 102, "checkinsCount": 6027, "usersCount": 4405}, "name": "Emporio Armani Caff\u00e8", "referralId": "v-1446971990", "venueChains": [], "hereNow": {"count": 0, "groups": [], "summary": "Nobody here"}, "specials": {"count": 0, "items": []}, "allowMenuUrlEdit": true, "location": {"city": "Milano", "neighborhood": "Montenapoleone, Milano, Lombardia", "cc": "IT", "country": "Italia", "postalCode": "20121", "state": "Lombardia", "formattedAddress": ["Via Croce Rossa 2", "20121 Milano Lombardia", "Italia"], "address": "Via Croce Rossa 2", "lat": 45.47031140035324, "lng": 9.192236065864563}, "verified": false, "id": "4b05887ff964a520f9c922e3", "categories": [{"pluralName": "Caf\u00e9s", "primary": true, "name": "Caf\u00e9", "shortName": "Caf\u00e9", "id": "4bf58dd8d48988d16d941735", "icon": {"prefix": "https://ss3.4sqi.net/img/categories_v2/food/cafe_", "suffix": ".png"}}]}, {"stats": {"tipCount": 93, "checkinsCount": 5018, "usersCount": 2428}, "name": "California Bakery", "referralId": "v-1446971990", "venueChains": [{"id": "5568edfca7c8a9cf8ec3c35d"}], "storeId": "", "hereNow": {"count": 0, "groups": [], "summary": "Nobody here"}, "specials": {"count": 0, "items": []}, "allowMenuUrlEdit": true, "location": {"city": "Milano", "cc": "IT", "country": "Italia", "postalCode": "20129", "state": "Lombardia", "formattedAddress": ["Viale Premuda 44", "20129 Milano Lombardia", "Italia"], "address": "Viale Premuda 44", "lat": 45.46690513110348, "lng": 9.207132556323929}, "verified": true, "id": "4b058882f964a520c3ca22e3", "categories": [{"pluralName": "American Restaurants", "primary": true, "name": "American Restaurant", "shortName": "American", "id": "4bf58dd8d48988d14e941735", "icon": {"prefix": "https://ss3.4sqi.net/img/categories_v2/food/default_", "suffix": ".png"}}]}, {"stats": {"tipCount": 94, "checkinsCount": 7476, "usersCount": 3553}, "name": "Frida", "referralId": "v-1446971990", "venueChains": [], "hereNow": {"count": 0, "groups": [], "summary": "Nobody here"}, "specials": {"count": 0, "items": []}, "allowMenuUrlEdit": true, "location": {"city": "Milano", "neighborhood": "Isola, Milano, Lombardia", "cc": "IT", "country": "Italia", "postalCode": "20159", "state": "Lombardia", "formattedAddress": ["Via Antonio Pollaiuolo 3", "20159 Milano Lombardia", "Italia"], "address": "Via Antonio Pollaiuolo 3", "lat": 45.48869, "lng": 9.187148}, "verified": false, "id": "4b79c8bcf964a520d6112fe3", "categories": [{"pluralName": "Cocktail Bars", "primary": true, "name": "Cocktail Bar", "shortName": "Cocktail", "id": "4bf58dd8d48988d11e941735", "icon": {"prefix": "https://ss3.4sqi.net/img/categories_v2/nightlife/cocktails_", "suffix": ".png"}}]}, {"stats": {"tipCount": 144, "checkinsCount": 3848, "usersCount": 2498}, "name": "Bistrot Milano Centrale", "referralId": "v-1446971990", "venueChains": [], "hereNow": {"count": 0, "groups": [], "summary": "Nobody here"}, "specials": {"count": 0, "items": []}, "allowMenuUrlEdit": true, "location": {"city": "Milano", "cc": "IT", "country": "Italia", "postalCode": "20145", "state": "Lombardia", "formattedAddress": ["Stazione Milano Centrale (Piazza Duca d'Aosta)", "20145 Milano Lombardia", "Italia"], "crossStreet": "Piazza Duca d'Aosta", "address": "Stazione Milano Centrale", "lat": 45.48589137595861, "lng": 9.204858745732748}, "verified": false, "id": "5155ac69e4b0446e2cc71672", "categories": [{"pluralName": "Bistros", "primary": true, "name": "Bistro", "shortName": "Bistro", "id": "52e81612bcbc57f1066b79f1", "icon": {"prefix": "https://ss3.4sqi.net/img/categories_v2/food/default_", "suffix": ".png"}}]}, {"stats": {"tipCount": 195, "checkinsCount": 4759, "usersCount": 2230}, "name": "Pav\u00e8", "referralId": "v-1446971990", "venueChains": [], "hereNow": {"count": 0, "groups": [], "summary": "Nobody here"}, "specials": {"count": 0, "items": []}, "allowMenuUrlEdit": true, "location": {"city": "Milano", "cc": "IT", "country": "Italia", "postalCode": "20124", "state": "Lombardia", "formattedAddress": ["Via Felice Casati 27", "20124 Milano Lombardia", "Italia"], "address": "Via Felice Casati 27", "lat": 45.479076067808386, "lng": 9.20278787612915}, "verified": false, "id": "4faacd5fbe77fba915f5f415", "categories": [{"pluralName": "Caf\u00e9s", "primary": true, "name": "Caf\u00e9", "shortName": "Caf\u00e9", "id": "4bf58dd8d48988d16d941735", "icon": {"prefix": "https://ss3.4sqi.net/img/categories_v2/food/cafe_", "suffix": ".png"}}]}, {"stats": {"tipCount": 77, "checkinsCount": 4303, "usersCount": 2887}, "name": "Dolce&Gabbana Martini Bar", "referralId": "v-1446971990", "venueChains": [{"id": "556c9a41a7c87f637869ba0c"}], "storeId": "", "hereNow": {"count": 0, "groups": [], "summary": "Nobody here"}, "specials": {"count": 0, "items": []}, "allowMenuUrlEdit": true, "location": {"city": "Milano", "cc": "IT", "country": "Italia", "postalCode": "20121", "state": "Lombardia", "formattedAddress": ["Corso Venezia 15", "20121 Milano Lombardia", "Italia"], "address": "Corso Venezia 15", "lat": 45.46838197811214, "lng": 9.198548342841043}, "verified": true, "id": "4c59c695f346c9288b6a4dca", "categories": [{"pluralName": "Cocktail Bars", "primary": true, "name": "Cocktail Bar", "shortName": "Cocktail", "id": "4bf58dd8d48988d11e941735", "icon": {"prefix": "https://ss3.4sqi.net/img/categories_v2/nightlife/cocktails_", "suffix": ".png"}}]}, {"stats": {"tipCount": 145, "checkinsCount": 9260, "usersCount": 6551}, "name": "10 Corso Como", "referralId": "v-1446971990", "venueChains": [], "hereNow": {"count": 0, "groups": [], "summary": "Nobody here"}, "specials": {"count": 0, "items": []}, "allowMenuUrlEdit": true, "location": {"city": "Milano", "cc": "IT", "country": "Italia", "postalCode": "20154", "state": "Lombardia", "formattedAddress": ["Corso Como 10", "20154 Milano Lombardia", "Italia"], "address": "Corso Como 10", "lat": 45.481871273450516, "lng": 9.1877343490227}, "verified": false, "id": "4b058884f964a52049cb22e3", "categories": [{"pluralName": "Boutiques", "primary": true, "name": "Boutique", "shortName": "Boutique", "id": "4bf58dd8d48988d104951735", "icon": {"prefix": "https://ss3.4sqi.net/img/categories_v2/shops/apparel_boutique_", "suffix": ".png"}}]}, {"stats": {"tipCount": 232, "checkinsCount": 4722, "usersCount": 2834}, "name": "Pizzeria Spontini", "referralId": "v-1446971990", "venueChains": [], "hereNow": {"count": 0, "groups": [], "summary": "Nobody here"}, "specials": {"count": 0, "items": []}, "allowMenuUrlEdit": true, "location": {"city": "Milano", "cc": "IT", "country": "Italia", "postalCode": "20124", "state": "Lombardia", "formattedAddress": ["Corso Buenos Aires 60 (Via Gaspare Spontini)", "20124 Milano Lombardia", "Italia"], "crossStreet": "Via Gaspare Spontini", "address": "Corso Buenos Aires 60", "lat": 45.48187492361458, "lng": 9.213136191989348}, "verified": false, "id": "4bb16be1f964a52065923ce3", "categories": [{"pluralName": "Pizza Places", "primary": true, "name": "Pizza Place", "shortName": "Pizza", "id": "4bf58dd8d48988d1ca941735", "icon": {"prefix": "https://ss3.4sqi.net/img/categories_v2/food/pizza_", "suffix": ".png"}}]}, {"stats": {"tipCount": 26, "checkinsCount": 555, "usersCount": 475}, "name": "Bar Luce Fondazione Prada", "referralId": "v-1446971990", "venueChains": [], "hereNow": {"count": 0, "groups": [], "summary": "Nobody here"}, "specials": {"count": 0, "items": []}, "allowMenuUrlEdit": true, "location": {"city": "Milano", "cc": "IT", "country": "Italia", "postalCode": "20135", "state": "Lombardia", "formattedAddress": ["Largo Isarco 2 (Via Orobia)", "20135 Milano Lombardia", "Italia"], "crossStreet": "Via Orobia", "address": "Largo Isarco 2", "lat": 45.44387714511033, "lng": 9.205210155554871}, "verified": false, "id": "554d0ce7498eb0c13b6f70b1", "categories": [{"pluralName": "Caf\u00e9s", "primary": true, "name": "Caf\u00e9", "shortName": "Caf\u00e9", "id": "4bf58dd8d48988d16d941735", "icon": {"prefix": "https://ss3.4sqi.net/img/categories_v2/food/cafe_", "suffix": ".png"}}]}, {"stats": {"tipCount": 35, "checkinsCount": 16190, "usersCount": 2599}, "name": "Universit\u00e0 Commerciale Luigi Bocconi", "referralId": "v-1446971990", "venueChains": [], "storeId": "", "hereNow": {"count": 0, "groups": [], "summary": "Nobody here"}, "specials": {"count": 0, "items": []}, "allowMenuUrlEdit": true, "location": {"city": "Milano", "cc": "IT", "country": "Italia", "postalCode": "20136", "state": "Lombardia", "formattedAddress": ["Via Roberto Sarfatti 25 (Via Bocconi)", "20136 Milano Lombardia", "Italia"], "crossStreet": "Via Bocconi", "address": "Via Roberto Sarfatti 25", "lat": 45.44880397863143, "lng": 9.189881086349487}, "venuePage": {"id": "65681153"}, "verified": true, "id": "4b96d53bf964a52099e734e3", "categories": [{"pluralName": "Universities", "primary": true, "name": "University", "shortName": "University", "id": "4bf58dd8d48988d1ae941735", "icon": {"prefix": "https://ss3.4sqi.net/img/categories_v2/education/default_", "suffix": ".png"}}]}, {"stats": {"tipCount": 391, "checkinsCount": 9699, "usersCount": 6956}, "name": "Luini", "referralId": "v-1446971990", "venueChains": [], "hereNow": {"count": 0, "groups": [], "summary": "Nobody here"}, "specials": {"count": 0, "items": []}, "allowMenuUrlEdit": true, "location": {"city": "Milano", "cc": "IT", "country": "Italia", "postalCode": "20121", "state": "Lombardia", "formattedAddress": ["Via Santa Radegonda 16 (Via San Raffaele)", "20121 Milano Lombardia", "Italia"], "crossStreet": "Via San Raffaele", "address": "Via Santa Radegonda 16", "lat": 45.46571402046942, "lng": 9.191359459651325}, "verified": false, "id": "4b55fd64f964a520b7fa27e3", "categories": [{"pluralName": "Bakeries", "primary": true, "name": "Bakery", "shortName": "Bakery", "id": "4bf58dd8d48988d16a941735", "icon": {"prefix": "https://ss3.4sqi.net/img/categories_v2/food/bakery_", "suffix": ".png"}}]}, {"stats": {"tipCount": 141, "checkinsCount": 5293, "usersCount": 2455}, "name": "Mag Caf\u00e8", "referralId": "v-1446971990", "venueChains": [], "hereNow": {"count": 0, "groups": [], "summary": "Nobody here"}, "specials": {"count": 0, "items": []}, "allowMenuUrlEdit": true, "location": {"city": "Milano", "cc": "IT", "country": "Italia", "state": "Lombardia", "formattedAddress": ["Ripa di Porta Ticinese 43", "Milano Lombardia", "Italia"], "address": "Ripa di Porta Ticinese 43", "lat": 45.45144601992327, "lng": 9.173281318135901}, "verified": false, "id": "4bcdaf56937ca5937017ad92", "categories": [{"pluralName": "Cocktail Bars", "primary": true, "name": "Cocktail Bar", "shortName": "Cocktail", "id": "4bf58dd8d48988d11e941735", "icon": {"prefix": "https://ss3.4sqi.net/img/categories_v2/nightlife/cocktails_", "suffix": ".png"}}]}, {"stats": {"tipCount": 201, "checkinsCount": 5710, "usersCount": 4260}, "name": "CioccolatItaliani", "referralId": "v-1446971990", "venueChains": [], "storeId": "", "hereNow": {"count": 0, "groups": [], "summary": "Nobody here"}, "specials": {"count": 0, "items": []}, "allowMenuUrlEdit": true, "location": {"city": "Milano", "neighborhood": "Centro Storico", "cc": "IT", "country": "Italia", "postalCode": "20121", "state": "Lombardia", "formattedAddress": ["Via San Raffaele, 6 (Via Santa Radegonda)", "20121 Milano Lombardia", "Italia"], "crossStreet": "Via Santa Radegonda", "address": "Via San Raffaele, 6", "lat": 45.46573726225508, "lng": 9.191259473240603}, "venuePage": {"id": "57672473"}, "verified": true, "id": "4e2e6fe31495329632fa4462", "categories": [{"pluralName": "Ice Cream Shops", "primary": true, "name": "Ice Cream Shop", "shortName": "Ice Cream", "id": "4bf58dd8d48988d1c9941735", "icon": {"prefix": "https://ss3.4sqi.net/img/categories_v2/food/icecream_", "suffix": ".png"}}]}, {"stats": {"tipCount": 10, "checkinsCount": 2108, "usersCount": 788}, "name": "Leroy Merlin", "referralId": "v-1446971990", "venueChains": [], "hereNow": {"count": 0, "groups": [], "summary": "Nobody here"}, "specials": {"count": 0, "items": []}, "allowMenuUrlEdit": true, "location": {"city": "Corsico", "cc": "IT", "country": "Italia", "postalCode": "20094", "state": "Lombardia", "formattedAddress": ["Viale dell'Industria 2", "20094 Corsico Lombardia", "Italia"], "address": "Viale dell'Industria 2", "lat": 45.431414065282894, "lng": 9.07993169821099}, "verified": false, "id": "4bd0361d77b29c7486478a82", "categories": [{"pluralName": "Hardware Stores", "primary": true, "name": "Hardware Store", "shortName": "Hardware", "id": "4bf58dd8d48988d112951735", "icon": {"prefix": "https://ss3.4sqi.net/img/categories_v2/shops/hardware_", "suffix": ".png"}}]}, {"stats": {"tipCount": 79, "checkinsCount": 2125, "usersCount": 1292}, "name": "Piccola Ischia", "referralId": "v-1446971990", "venueChains": [], "hereNow": {"count": 0, "groups": [], "summary": "Nobody here"}, "specials": {"count": 0, "items": []}, "allowMenuUrlEdit": true, "location": {"city": "Milano", "cc": "IT", "country": "Italia", "postalCode": "20129", "state": "Lombardia", "formattedAddress": ["Via Giovanni Battista Morgagni 7", "20129 Milano Lombardia", "Italia"], "address": "Via Giovanni Battista Morgagni 7", "lat": 45.47777162299494, "lng": 9.211797396806649}, "verified": false, "id": "4b06e3b5f964a52046f222e3", "categories": [{"pluralName": "Pizza Places", "primary": true, "name": "Pizza Place", "shortName": "Pizza", "id": "4bf58dd8d48988d1ca941735", "icon": {"prefix": "https://ss3.4sqi.net/img/categories_v2/food/pizza_", "suffix": ".png"}}]}]}}