{"meta": {"code": 200, "requestId": "563f0a55498e74e19bbb1944"}, "response": {"confident": false, "geocode": {"parents": [], "what": "", "where": "munich", "feature": {"highlightedName": "<b>Munich</b>, Germany", "displayName": "Munich, Germany", "name": "Munich", "longId": "72057594040795650", "cc": "DE", "id": "geonameid:2867714", "geometry": {"center": {"lat": 48.13743, "lng": 11.57549}, "bounds": {"sw": {"lat": 48.056709032148035, "lng": 11.366852915131258}, "ne": {"lat": 48.25054098984264, "lng": 11.721548078800224}}}, "matchedName": "Munich, Germany", "woeType": 7, "slug": "munchen-germany"}}, "venues": [{"stats": {"tipCount": 580, "checkinsCount": 31722, "usersCount": 25380}, "name": "Hofbr\u00e4uhaus", "referralId": "v-1446971989", "venueChains": [], "storeId": "", "hereNow": {"count": 0, "groups": [], "summary": "Nobody here"}, "specials": {"count": 0, "items": []}, "allowMenuUrlEdit": true, "location": {"city": "M\u00fcnchen", "cc": "DE", "country": "Deutschland", "postalCode": "80331", "state": "Bayern", "formattedAddress": ["Platzl 9 (Br\u00e4uhausstr.)", "80331 M\u00fcnchen", "Deutschland"], "crossStreet": "Br\u00e4uhausstr.", "address": "Platzl 9", "lat": 48.137488140967804, "lng": 11.579928456575427}, "venuePage": {"id": "35928853"}, "verified": true, "id": "4ade0ca0f964a5202c6821e3", "categories": [{"pluralName": "German Restaurants", "primary": true, "name": "German Restaurant", "shortName": "German", "id": "4bf58dd8d48988d10d941735", "icon": {"prefix": "https://ss3.4sqi.net/img/categories_v2/food/german_", "suffix": ".png"}}]}, {"stats": {"tipCount": 117, "checkinsCount": 7510, "usersCount": 4814}, "name": "Airbr\u00e4u Brauhaus", "referralId": "v-1446971989", "venueChains": [], "hereNow": {"count": 2, "groups": [{"count": 2, "items": [], "type": "others", "name": "Other people here"}], "summary": "2 people are here"}, "specials": {"count": 0, "items": []}, "allowMenuUrlEdit": true, "location": {"city": "M\u00fcnchen", "cc": "DE", "country": "Deutschland", "postalCode": "85356", "state": "Bayern", "formattedAddress": ["Terminalstr. Mitte 18 (MUC Airport)", "85356 M\u00fcnchen", "Deutschland"], "crossStreet": "MUC Airport", "address": "Terminalstr. Mitte 18", "lat": 48.353981868133, "lng": 11.788330078125}, "verified": false, "id": "4b588c99f964a520675d28e3", "categories": [{"pluralName": "Breweries", "primary": true, "name": "Brewery", "shortName": "Brewery", "id": "50327c8591d4c4b30a586d5d", "icon": {"prefix": "https://ss3.4sqi.net/img/categories_v2/food/brewery_", "suffix": ".png"}}]}, {"stats": {"tipCount": 99, "checkinsCount": 7123, "usersCount": 2565}, "name": "Andechser am Dom", "referralId": "v-1446971989", "venueChains": [], "hereNow": {"count": 0, "groups": [], "summary": "Nobody here"}, "specials": {"count": 0, "items": []}, "allowMenuUrlEdit": true, "location": {"city": "M\u00fcnchen", "cc": "DE", "country": "Deutschland", "postalCode": "80333", "state": "Bayern", "formattedAddress": ["Weinstr. 7a", "80333 M\u00fcnchen", "Deutschland"], "address": "Weinstr. 7a", "lat": 48.138484, "lng": 11.574393}, "verified": false, "id": "4ade0ca0f964a5202a6821e3", "categories": [{"pluralName": "German Restaurants", "primary": true, "name": "German Restaurant", "shortName": "German", "id": "4bf58dd8d48988d10d941735", "icon": {"prefix": "https://ss3.4sqi.net/img/categories_v2/food/german_", "suffix": ".png"}}]}, {"stats": {"tipCount": 223, "checkinsCount": 15319, "usersCount": 8444}, "name": "Augustiner-Keller", "referralId": "v-1446971989", "venueChains": [], "hereNow": {"count": 0, "groups": [], "summary": "Nobody here"}, "specials": {"count": 0, "items": []}, "allowMenuUrlEdit": true, "location": {"city": "M\u00fcnchen", "cc": "DE", "country": "Deutschland", "postalCode": "80335", "state": "Bayern", "formattedAddress": ["Arnulfstr. 52 (Zirkus-Krone-Str.)", "80335 M\u00fcnchen", "Deutschland"], "crossStreet": "Zirkus-Krone-Str.", "address": "Arnulfstr. 52", "lat": 48.143358388622566, "lng": 11.551064312421957}, "verified": false, "id": "4bb1db0bf964a520c3a63ce3", "categories": [{"pluralName": "German Restaurants", "primary": true, "name": "German Restaurant", "shortName": "German", "id": "4bf58dd8d48988d10d941735", "icon": {"prefix": "https://ss3.4sqi.net/img/categories_v2/food/german_", "suffix": ".png"}}]}, {"stats": {"tipCount": 127, "checkinsCount": 5811, "usersCount": 3480}, "name": "Brenner", "referralId": "v-1446971989", "venueChains": [], "storeId": "", "hereNow": {"count": 0, "groups": [], "summary": "Nobody here"}, "specials": {"count": 0, "items": []}, "allowMenuUrlEdit": true, "location": {"city": "M\u00fcnchen", "cc": "DE", "country": "Deutschland", "postalCode": "80539", "state": "Bayern", "formattedAddress": ["Maximilianstr. 15", "80539 M\u00fcnchen", "Deutschland"], "address": "Maximilianstr. 15", "lat": 48.139352638873575, "lng": 11.580959524738603}, "verified": true, "id": "4b5f2098f964a520a6a729e3", "categories": [{"pluralName": "Mediterranean Restaurants", "primary": true, "name": "Mediterranean Restaurant", "shortName": "Mediterranean", "id": "4bf58dd8d48988d1c0941735", "icon": {"prefix": "https://ss3.4sqi.net/img/categories_v2/food/mediterranean_", "suffix": ".png"}}]}, {"stats": {"tipCount": 62, "checkinsCount": 1663, "usersCount": 1126}, "name": "Cafe Luitpold", "referralId": "v-1446971989", "venueChains": [], "hereNow": {"count": 0, "groups": [], "summary": "Nobody here"}, "specials": {"count": 0, "items": []}, "allowMenuUrlEdit": true, "location": {"city": "M\u00fcnchen", "cc": "DE", "country": "Deutschland", "postalCode": "80333", "state": "Bayern", "formattedAddress": ["Brienner Str. 11", "80333 M\u00fcnchen", "Deutschland"], "address": "Brienner Str. 11", "lat": 48.143137, "lng": 11.574658}, "venuePage": {"id": "103737719"}, "verified": true, "id": "4b4b3940f964a520d29426e3", "categories": [{"pluralName": "Caf\u00e9s", "primary": true, "name": "Caf\u00e9", "shortName": "Caf\u00e9", "id": "4bf58dd8d48988d16d941735", "icon": {"prefix": "https://ss3.4sqi.net/img/categories_v2/food/cafe_", "suffix": ".png"}}]}, {"stats": {"tipCount": 69, "checkinsCount": 4767, "usersCount": 2655}, "name": "Luigi Tambosi am Hofgarten", "referralId": "v-1446971989", "venueChains": [], "hereNow": {"count": 0, "groups": [], "summary": "Nobody here"}, "specials": {"count": 0, "items": []}, "allowMenuUrlEdit": true, "location": {"city": "M\u00fcnchen", "cc": "DE", "country": "Deutschland", "postalCode": "80539", "state": "Bayern", "formattedAddress": ["Odeonsplatz 18 (Ludwigstr.)", "80539 M\u00fcnchen", "Deutschland"], "crossStreet": "Ludwigstr.", "address": "Odeonsplatz 18", "lat": 48.14275651783131, "lng": 11.578008661770307}, "verified": false, "id": "4ade0c9df964a5201a6821e3", "categories": [{"pluralName": "Caf\u00e9s", "primary": true, "name": "Caf\u00e9", "shortName": "Caf\u00e9", "id": "4bf58dd8d48988d16d941735", "icon": {"prefix": "https://ss3.4sqi.net/img/categories_v2/food/cafe_", "suffix": ".png"}}]}, {"stats": {"tipCount": 17, "checkinsCount": 4386, "usersCount": 1526}, "name": "Starbucks", "referralId": "v-1446971989", "venueChains": [], "hereNow": {"count": 0, "groups": [], "summary": "Nobody here"}, "specials": {"count": 0, "items": []}, "allowMenuUrlEdit": true, "location": {"city": "M\u00fcnchen", "cc": "DE", "country": "Deutschland", "postalCode": "80802", "state": "Bayern", "formattedAddress": ["Leopoldstr. 56", "80802 M\u00fcnchen", "Deutschland"], "address": "Leopoldstr. 56", "lat": 48.158877757408646, "lng": 11.585338642769493}, "verified": false, "id": "4b519520f964a520135027e3", "categories": [{"pluralName": "Coffee Shops", "primary": true, "name": "Coffee Shop", "shortName": "Coffee Shop", "id": "4bf58dd8d48988d1e0931735", "icon": {"prefix": "https://ss3.4sqi.net/img/categories_v2/food/coffeeshop_", "suffix": ".png"}}]}, {"stats": {"tipCount": 50, "checkinsCount": 1888, "usersCount": 1260}, "name": "Hans im Gl\u00fcck", "referralId": "v-1446971989", "venueChains": [], "hereNow": {"count": 0, "groups": [], "summary": "Nobody here"}, "specials": {"count": 0, "items": []}, "allowMenuUrlEdit": true, "location": {"city": "M\u00fcnchen", "cc": "DE", "country": "Deutschland", "postalCode": "80331", "state": "Bayern", "formattedAddress": ["Isartorpl. 8", "80331 M\u00fcnchen", "Deutschland"], "address": "Isartorpl. 8", "lat": 48.13423987845573, "lng": 11.582481867474629}, "verified": false, "id": "5246e0cc11d24223cc125f78", "categories": [{"pluralName": "Burger Joints", "primary": true, "name": "Burger Joint", "shortName": "Burgers", "id": "4bf58dd8d48988d16c941735", "icon": {"prefix": "https://ss3.4sqi.net/img/categories_v2/food/burger_", "suffix": ".png"}}]}, {"stats": {"tipCount": 107, "checkinsCount": 4126, "usersCount": 1785}, "name": "Hans im Gl\u00fcck", "referralId": "v-1446971989", "venueChains": [], "hereNow": {"count": 0, "groups": [], "summary": "Nobody here"}, "specials": {"count": 0, "items": []}, "allowMenuUrlEdit": true, "location": {"city": "M\u00fcnchen", "cc": "DE", "country": "Deutschland", "postalCode": "80335", "state": "Bayern", "formattedAddress": ["Nymphenburger Str. 69 (Mailinger Str.)", "80335 M\u00fcnchen", "Deutschland"], "crossStreet": "Mailinger Str.", "address": "Nymphenburger Str. 69", "lat": 48.14949547509113, "lng": 11.546748876571655}, "verified": false, "id": "4c52999c7f6e20a17d7efbeb", "categories": [{"pluralName": "Burger Joints", "primary": true, "name": "Burger Joint", "shortName": "Burgers", "id": "4bf58dd8d48988d16c941735", "icon": {"prefix": "https://ss3.4sqi.net/img/categories_v2/food/burger_", "suffix": ".png"}}]}, {"stats": {"tipCount": 55, "checkinsCount": 6417, "usersCount": 2935}, "name": "Starbucks", "referralId": "v-1446971989", "venueChains": [], "hereNow": {"count": 0, "groups": [], "summary": "Nobody here"}, "specials": {"count": 0, "items": []}, "allowMenuUrlEdit": true, "location": {"city": "M\u00fcnchen", "cc": "DE", "country": "Deutschland", "postalCode": "80331", "state": "Bayern", "formattedAddress": ["Sendlinger Str. 27", "80331 M\u00fcnchen", "Deutschland"], "address": "Sendlinger Str. 27", "lat": 48.135205050402845, "lng": 11.570032242880146}, "verified": false, "id": "4bd5743f29eb9c749b4793e1", "categories": [{"pluralName": "Coffee Shops", "primary": true, "name": "Coffee Shop", "shortName": "Coffee Shop", "id": "4bf58dd8d48988d1e0931735", "icon": {"prefix": "https://ss3.4sqi.net/img/categories_v2/food/coffeeshop_", "suffix": ".png"}}]}, {"stats": {"tipCount": 69, "checkinsCount": 5400, "usersCount": 2811}, "name": "Vapiano", "referralId": "v-1446971989", "venueChains": [{"id": "5569febda7c8896abe7dc844"}], "hereNow": {"count": 0, "groups": [], "summary": "Nobody here"}, "specials": {"count": 0, "items": []}, "allowMenuUrlEdit": true, "location": {"city": "M\u00fcnchen", "cc": "DE", "country": "Deutschland", "postalCode": "80333", "state": "Bayern", "formattedAddress": ["Theatinerstr. 15 (F\u00fcnf H\u00f6fe)", "80333 M\u00fcnchen", "Deutschland"], "crossStreet": "F\u00fcnf H\u00f6fe", "address": "Theatinerstr. 15", "lat": 48.14044675704401, "lng": 11.575255393981934}, "verified": true, "id": "4b053bc2f964a520775722e3", "categories": [{"pluralName": "Italian Restaurants", "primary": true, "name": "Italian Restaurant", "shortName": "Italian", "id": "4bf58dd8d48988d110941735", "icon": {"prefix": "https://ss3.4sqi.net/img/categories_v2/food/italian_", "suffix": ".png"}}]}, {"stats": {"tipCount": 12, "checkinsCount": 8560, "usersCount": 243}, "name": "Ray Sono", "referralId": "v-1446971989", "venueChains": [{"id": "556e5a79bd6a82902e2933c3"}], "hereNow": {"count": 0, "groups": [], "summary": "Nobody here"}, "specials": {"count": 0, "items": []}, "allowMenuUrlEdit": true, "location": {"city": "M\u00fcnchen", "cc": "DE", "country": "Deutschland", "postalCode": "80337", "state": "Bayern", "formattedAddress": ["Tumblingerstr. 32", "80337 M\u00fcnchen", "Deutschland"], "address": "Tumblingerstr. 32", "lat": 48.12605429185834, "lng": 11.556715965270996}, "verified": true, "id": "4b4aedc0f964a520eb8f26e3", "categories": [{"pluralName": "Offices", "primary": true, "name": "Office", "shortName": "Office", "id": "4bf58dd8d48988d124941735", "icon": {"prefix": "https://ss3.4sqi.net/img/categories_v2/building/default_", "suffix": ".png"}}]}, {"stats": {"tipCount": 76, "checkinsCount": 5947, "usersCount": 2710}, "name": "Kennedy's Irish Bar & Restaurant", "referralId": "v-1446971989", "venueChains": [], "hereNow": {"count": 0, "groups": [], "summary": "Nobody here"}, "specials": {"count": 0, "items": []}, "allowMenuUrlEdit": true, "location": {"city": "M\u00fcnchen", "cc": "DE", "country": "Deutschland", "postalCode": "80336", "state": "Bayern", "formattedAddress": ["Sendlinger-Tor-Platz 11", "80336 M\u00fcnchen", "Deutschland"], "address": "Sendlinger-Tor-Platz 11", "lat": 48.13405196193047, "lng": 11.567223160713183}, "verified": false, "id": "4e9c6800f5b9d590054ec3ec", "categories": [{"pluralName": "Irish Pubs", "primary": true, "name": "Irish Pub", "shortName": "Irish", "id": "52e81612bcbc57f1066b7a06", "icon": {"prefix": "https://ss3.4sqi.net/img/categories_v2/nightlife/pub_", "suffix": ".png"}}]}, {"stats": {"tipCount": 129, "checkinsCount": 5852, "usersCount": 4469}, "name": "Weisses Br\u00e4uhaus", "referralId": "v-1446971989", "venueChains": [], "hereNow": {"count": 0, "groups": [], "summary": "Nobody here"}, "specials": {"count": 0, "items": []}, "allowMenuUrlEdit": true, "location": {"city": "M\u00fcnchen", "cc": "DE", "country": "Deutschland", "postalCode": "80331", "state": "Bayern", "formattedAddress": ["Tal 7", "80331 M\u00fcnchen", "Deutschland"], "address": "Tal 7", "lat": 48.13634120412239, "lng": 11.578242961706604}, "verified": false, "id": "4b44c33ef964a52078fb25e3", "categories": [{"pluralName": "German Restaurants", "primary": true, "name": "German Restaurant", "shortName": "German", "id": "4bf58dd8d48988d10d941735", "icon": {"prefix": "https://ss3.4sqi.net/img/categories_v2/food/german_", "suffix": ".png"}}]}, {"stats": {"tipCount": 129, "checkinsCount": 7345, "usersCount": 5865}, "name": "Zum Augustiner", "referralId": "v-1446971989", "venueChains": [], "hereNow": {"count": 0, "groups": [], "summary": "Nobody here"}, "specials": {"count": 0, "items": []}, "allowMenuUrlEdit": true, "location": {"city": "M\u00fcnchen", "cc": "DE", "country": "Deutschland", "postalCode": "80331", "state": "Bayern", "formattedAddress": ["Neuhauser Str. 27", "80331 M\u00fcnchen", "Deutschland"], "address": "Neuhauser Str. 27", "lat": 48.13836799445812, "lng": 11.568686695857172}, "verified": false, "id": "4bfa555f508c0f47c9f33f31", "categories": [{"pluralName": "German Restaurants", "primary": true, "name": "German Restaurant", "shortName": "German", "id": "4bf58dd8d48988d10d941735", "icon": {"prefix": "https://ss3.4sqi.net/img/categories_v2/food/german_", "suffix": ".png"}}]}, {"stats": {"tipCount": 52, "checkinsCount": 6073, "usersCount": 3132}, "name": "Starbucks", "referralId": "v-1446971989", "venueChains": [{"id": "556f676fbd6a75a99038d8ec"}], "hereNow": {"count": 0, "groups": [], "summary": "Nobody here"}, "specials": {"count": 0, "items": []}, "allowMenuUrlEdit": true, "location": {"city": "M\u00fcnchen", "cc": "DE", "country": "Deutschland", "postalCode": "80539", "state": "Bayern", "formattedAddress": ["Odeonsplatz 15 - 16", "80539 M\u00fcnchen", "Deutschland"], "address": "Odeonsplatz 15 - 16", "lat": 48.143049591381974, "lng": 11.57783368029638}, "verified": false, "id": "4b01843ef964a520094322e3", "categories": [{"pluralName": "Coffee Shops", "primary": true, "name": "Coffee Shop", "shortName": "Coffee Shop", "id": "4bf58dd8d48988d1e0931735", "icon": {"prefix": "https://ss3.4sqi.net/img/categories_v2/food/coffeeshop_", "suffix": ".png"}}]}, {"stats": {"tipCount": 125, "checkinsCount": 4367, "usersCount": 2823}, "name": "L'Osteria", "referralId": "v-1446971989", "venueChains": [], "hereNow": {"count": 0, "groups": [], "summary": "Nobody here"}, "specials": {"count": 0, "items": []}, "allowMenuUrlEdit": true, "location": {"city": "M\u00fcnchen", "cc": "DE", "country": "Deutschland", "postalCode": "80333", "state": "Bayern", "formattedAddress": ["Lenbachplatz 8 (im K\u00fcnstlerhaus)", "80333 M\u00fcnchen", "Deutschland"], "crossStreet": "im K\u00fcnstlerhaus", "address": "Lenbachplatz 8", "lat": 48.14043114619806, "lng": 11.567436333886706}, "verified": false, "id": "4d5d6e779c31b60ce0c0bfee", "categories": [{"pluralName": "Trattorias/Osterias", "primary": true, "name": "Trattoria/Osteria", "shortName": "Trattoria/Osteria", "id": "55a5a1ebe4b013909087cb7f", "icon": {"prefix": "https://ss3.4sqi.net/img/categories_v2/food/italian_", "suffix": ".png"}}]}, {"stats": {"tipCount": 38, "checkinsCount": 3133, "usersCount": 1607}, "name": "Cafe Cord", "referralId": "v-1446971989", "venueChains": [], "storeId": "", "hereNow": {"count": 0, "groups": [], "summary": "Nobody here"}, "specials": {"count": 0, "items": []}, "allowMenuUrlEdit": true, "location": {"city": "M\u00fcnchen", "cc": "DE", "country": "Deutschland", "postalCode": "80331", "state": "Bayern", "formattedAddress": ["Sonnenstr. 19 (Josephspitalstr.)", "80331 M\u00fcnchen", "Deutschland"], "crossStreet": "Josephspitalstr.", "address": "Sonnenstr. 19", "lat": 48.13632276148282, "lng": 11.565814018249512}, "venuePage": {"id": "122317354"}, "verified": true, "id": "4bfec473daf9c9b6533af9ef", "categories": [{"pluralName": "Bars", "primary": true, "name": "Bar", "shortName": "Bar", "id": "4bf58dd8d48988d116941735", "icon": {"prefix": "https://ss3.4sqi.net/img/categories_v2/nightlife/pub_", "suffix": ".png"}}]}, {"stats": {"tipCount": 160, "checkinsCount": 11037, "usersCount": 8161}, "name": "Hard Rock Cafe Munich", "referralId": "v-1446971989", "venueChains": [{"id": "556a337ba7c8957d73d4b6b4"}], "storeId": "", "hereNow": {"count": 0, "groups": [], "summary": "Nobody here"}, "specials": {"count": 2, "items": [{"redemption": "webview", "description": "", "unlocked": true, "photo": {"suffix": "/1519788_BxGZaYUzqsmxYAXiVsdbPHUcxt6qw1-7v2d5bYcuHpI.jpg", "height": 768, "width": 886, "prefix": "https://irs2.4sqi.net/img/general/", "id": "534e758e11d2df01d9ff3d75", "createdAt": 1397650830}, "title": "Special", "state": "unlocked", "interaction": {"entryUrl": "https://foursquare.com/device/specials/534e758f498e595bdfd7bc8a?venueId=4b2135f8f964a520503824e3"}, "provider": "foursquare", "message": "Welcome - great check in! Show your screen and receive a complimentary Hard Rock Souvenir with 30\u20ac purchase in Restaurant or Rock Shop!", "type": "frequency", "id": "534e758f498e595bdfd7bc8a", "icon": "default"}, {"redemption": "webview", "description": "", "unlocked": true, "photo": {"suffix": "/50911371_BxGZaYUzqsmxYAXiVsdbPHUcxt6qw1-7v2d5bYcuHpI.jpg", "height": 768, "width": 886, "prefix": "https://irs2.4sqi.net/img/general/", "id": "53858dad11d25e54d85057b3", "createdAt": 1401261485}, "title": "Special", "finePrint": "Upon availability only, no combination with other coupons or discounts. At Munich Location only.", "page": {"bio": "", "firstName": "Hard Rock Cafe M\u00fcnchen", "gender": "none", "lists": {"groups": [{"count": 2, "items": [], "type": "created"}]}, "homeCity": "M\u00fcnchen, Deutschland", "contact": {}, "photo": {"prefix": "https://irs3.4sqi.net/img/user/", "suffix": "/F4I1HGTJZJIDHAET.jpg"}, "tips": {"count": 5}, "type": "page", "id": "50911371"}, "state": "unlocked", "interaction": {"entryUrl": "https://foursquare.com/device/specials/53858dae498eb34a5a920548?venueId=4b2135f8f964a520503824e3"}, "provider": "foursquare", "message": "Welcome - great check in! Show your screen and receive a complimentary Hard Rock Souvenir with 30\u20ac purchase in Restaurant or Rock Shop!Sign up as Rewards Member to collect points- it is free!", "type": "frequency", "id": "53858dae498eb34a5a920548", "icon": "default"}]}, "allowMenuUrlEdit": true, "location": {"city": "M\u00fcnchen", "cc": "DE", "country": "Deutschland", "postalCode": "80331", "state": "Bayern", "formattedAddress": ["Platzl 1", "80331 M\u00fcnchen", "Deutschland"], "address": "Platzl 1", "lat": 48.137754, "lng": 11.579599}, "verified": true, "id": "4b2135f8f964a520503824e3", "categories": [{"pluralName": "American Restaurants", "primary": true, "name": "American Restaurant", "shortName": "American", "id": "4bf58dd8d48988d14e941735", "icon": {"prefix": "https://ss3.4sqi.net/img/categories_v2/food/default_", "suffix": ".png"}}]}, {"stats": {"tipCount": 75, "checkinsCount": 9572, "usersCount": 4893}, "name": "Starbucks", "referralId": "v-1446971989", "venueChains": [{"id": "556f676fbd6a75a99038d8ec"}], "hereNow": {"count": 0, "groups": [], "summary": "Nobody here"}, "specials": {"count": 0, "items": []}, "allowMenuUrlEdit": true, "location": {"city": "M\u00fcnchen", "cc": "DE", "country": "Deutschland", "postalCode": "80335", "state": "Bayern", "formattedAddress": ["Bayerstr. 10A", "80335 M\u00fcnchen", "Deutschland"], "address": "Bayerstr. 10A", "lat": 48.140475, "lng": 11.557612}, "verified": false, "id": "4bf6c6ceb182c9b68f76745a", "categories": [{"pluralName": "Coffee Shops", "primary": true, "name": "Coffee Shop", "shortName": "Coffee Shop", "id": "4bf58dd8d48988d1e0931735", "icon": {"prefix": "https://ss3.4sqi.net/img/categories_v2/food/coffeeshop_", "suffix": ".png"}}]}, {"stats": {"tipCount": 104, "checkinsCount": 3373, "usersCount": 1309}, "name": "Aroma Kaffeebar", "referralId": "v-1446971989", "venueChains": [], "hereNow": {"count": 0, "groups": [], "summary": "Nobody here"}, "specials": {"count": 0, "items": []}, "allowMenuUrlEdit": true, "location": {"city": "M\u00fcnchen", "cc": "DE", "country": "Deutschland", "postalCode": "80469", "state": "Bayern", "formattedAddress": ["Pestalozzistr. 24", "80469 M\u00fcnchen", "Deutschland"], "address": "Pestalozzistr. 24", "lat": 48.13031919089705, "lng": 11.567310444499068}, "verified": false, "id": "4ade0ca8f964a5205a6821e3", "categories": [{"pluralName": "Caf\u00e9s", "primary": true, "name": "Caf\u00e9", "shortName": "Caf\u00e9", "id": "4bf58dd8d48988d16d941735", "icon": {"prefix": "https://ss3.4sqi.net/img/categories_v2/food/cafe_", "suffix": ".png"}}]}, {"stats": {"tipCount": 47, "checkinsCount": 1627, "usersCount": 1056}, "name": "Augustiner Klosterwirt", "referralId": "v-1446971989", "venueChains": [], "hereNow": {"count": 0, "groups": [], "summary": "Nobody here"}, "specials": {"count": 0, "items": []}, "allowMenuUrlEdit": true, "location": {"city": "M\u00fcnchen", "cc": "DE", "country": "Deutschland", "postalCode": "80331", "state": "Bayern", "formattedAddress": ["Augustinerstr. 1", "80331 M\u00fcnchen", "Deutschland"], "address": "Augustinerstr. 1", "lat": 48.138617854987444, "lng": 11.572600433724569}, "verified": false, "id": "5238825911d2715c80955a54", "categories": [{"pluralName": "German Restaurants", "primary": true, "name": "German Restaurant", "shortName": "German", "id": "4bf58dd8d48988d10d941735", "icon": {"prefix": "https://ss3.4sqi.net/img/categories_v2/food/german_", "suffix": ".png"}}]}, {"stats": {"tipCount": 77, "checkinsCount": 1585, "usersCount": 949}, "name": "Hamburgerei", "referralId": "v-1446971989", "venueChains": [], "hereNow": {"count": 0, "groups": [], "summary": "Nobody here"}, "specials": {"count": 0, "items": []}, "allowMenuUrlEdit": true, "location": {"city": "M\u00fcnchen", "cc": "DE", "country": "Deutschland", "postalCode": "80333", "state": "Bayern", "formattedAddress": ["Brienner Str. 49", "80333 M\u00fcnchen", "Deutschland"], "address": "Brienner Str. 49", "lat": 48.1469924974106, "lng": 11.561123871238784}, "venuePage": {"id": "58895080"}, "verified": true, "id": "517ffcc1e4b0586176defa25", "categories": [{"pluralName": "Burger Joints", "primary": true, "name": "Burger Joint", "shortName": "Burgers", "id": "4bf58dd8d48988d16c941735", "icon": {"prefix": "https://ss3.4sqi.net/img/categories_v2/food/burger_", "suffix": ".png"}}]}, {"stats": {"tipCount": 52, "checkinsCount": 2392, "usersCount": 1480}, "name": "Paulaner Br\u00e4uhaus", "referralId": "v-1446971989", "venueChains": [], "hereNow": {"count": 0, "groups": [], "summary": "Nobody here"}, "specials": {"count": 0, "items": []}, "allowMenuUrlEdit": true, "location": {"city": "M\u00fcnchen", "cc": "DE", "country": "Deutschland", "postalCode": "80337", "state": "Bayern", "formattedAddress": ["Kapuzinerplatz 5 (Kapuzinerstr.)", "80337 M\u00fcnchen", "Deutschland"], "crossStreet": "Kapuzinerstr.", "address": "Kapuzinerplatz 5", "lat": 48.12628345723338, "lng": 11.558732986450195}, "verified": false, "id": "4b6dd3adf964a5208c932ce3", "categories": [{"pluralName": "German Restaurants", "primary": true, "name": "German Restaurant", "shortName": "German", "id": "4bf58dd8d48988d10d941735", "icon": {"prefix": "https://ss3.4sqi.net/img/categories_v2/food/german_", "suffix": ".png"}}]}, {"stats": {"tipCount": 125, "checkinsCount": 6084, "usersCount": 4087}, "name": "Augustiner Br\u00e4ustuben", "referralId": "v-1446971989", "venueChains": [], "hereNow": {"count": 0, "groups": [], "summary": "Nobody here"}, "specials": {"count": 0, "items": []}, "allowMenuUrlEdit": true, "location": {"city": "M\u00fcnchen", "cc": "DE", "country": "Deutschland", "postalCode": "80339", "state": "Bayern", "formattedAddress": ["Landsberger Str. 19 (Holzapfelstr.)", "80339 M\u00fcnchen", "Deutschland"], "crossStreet": "Holzapfelstr.", "address": "Landsberger Str. 19", "lat": 48.13939539523461, "lng": 11.545699941938137}, "verified": false, "id": "4ade0cf3f964a520f96921e3", "categories": [{"pluralName": "German Restaurants", "primary": true, "name": "German Restaurant", "shortName": "German", "id": "4bf58dd8d48988d10d941735", "icon": {"prefix": "https://ss3.4sqi.net/img/categories_v2/food/german_", "suffix": ".png"}}]}, {"stats": {"tipCount": 37, "checkinsCount": 2831, "usersCount": 1394}, "name": "Leonardo Royal Hotel Munich", "referralId": "v-1446971989", "venueChains": [{"id": "5569ee50a7c8896abe7bc621"}], "storeId": "", "hereNow": {"count": 0, "groups": [], "summary": "Nobody here"}, "specials": {"count": 0, "items": []}, "allowMenuUrlEdit": true, "location": {"city": "M\u00fcnchen", "cc": "DE", "country": "Deutschland", "postalCode": "80809", "state": "Bayern", "formattedAddress": ["Moosacher Stra\u00dfe 90", "80809 M\u00fcnchen", "Deutschland"], "address": "Moosacher Stra\u00dfe 90", "lat": 48.18699325886463, "lng": 11.543240160602814}, "verified": true, "id": "4d2b8a66c406721e620c8db6", "categories": [{"pluralName": "Hotels", "primary": true, "name": "Hotel", "shortName": "Hotel", "id": "4bf58dd8d48988d1fa931735", "icon": {"prefix": "https://ss3.4sqi.net/img/categories_v2/travel/hotel_", "suffix": ".png"}}]}, {"stats": {"tipCount": 4, "checkinsCount": 2101, "usersCount": 208}, "name": "Institute am Englischen Garten", "referralId": "v-1446971989", "venueChains": [], "hereNow": {"count": 0, "groups": [], "summary": "Nobody here"}, "specials": {"count": 0, "items": []}, "allowMenuUrlEdit": true, "location": {"city": "M\u00fcnchen", "cc": "DE", "country": "Deutschland", "postalCode": "80538", "state": "Bayern", "formattedAddress": ["Oettingenstr. 67 (Ludwig-Maximiliams-Universit\u00e4t)", "80538 M\u00fcnchen", "Deutschland"], "crossStreet": "Ludwig-Maximiliams-Universit\u00e4t", "address": "Oettingenstr. 67", "lat": 48.150179007734636, "lng": 11.594805883962284}, "verified": false, "id": "4b45ebabf964a520481226e3", "categories": [{"pluralName": "College Academic Buildings", "primary": true, "name": "College Academic Building", "shortName": "Academic Building", "id": "4bf58dd8d48988d198941735", "icon": {"prefix": "https://ss3.4sqi.net/img/categories_v2/education/academicbuilding_", "suffix": ".png"}}]}, {"stats": {"tipCount": 87, "checkinsCount": 1895, "usersCount": 1269}, "name": "MAELU", "referralId": "v-1446971989", "venueChains": [], "hereNow": {"count": 0, "groups": [], "summary": "Nobody here"}, "specials": {"count": 0, "items": []}, "allowMenuUrlEdit": true, "location": {"city": "M\u00fcnchen", "cc": "DE", "country": "Deutschland", "postalCode": "80333", "state": "Bayern", "formattedAddress": ["Theatinerstr. 32", "80333 M\u00fcnchen", "Deutschland"], "address": "Theatinerstr. 32", "lat": 48.140998029959434, "lng": 11.576735973358154}, "verified": false, "id": "4b7802fcf964a520ffb12ee3", "categories": [{"pluralName": "Caf\u00e9s", "primary": true, "name": "Caf\u00e9", "shortName": "Caf\u00e9", "id": "4bf58dd8d48988d16d941735", "icon": {"prefix": "https://ss3.4sqi.net/img/categories_v2/food/cafe_", "suffix": ".png"}}]}, {"stats": {"tipCount": 112, "checkinsCount": 12690, "usersCount": 7179}, "name": "Biergarten am Chinesischen Turm", "referralId": "v-1446971989", "venueChains": [], "hereNow": {"count": 0, "groups": [], "summary": "Nobody here"}, "specials": {"count": 0, "items": []}, "allowMenuUrlEdit": true, "location": {"city": "M\u00fcnchen", "cc": "DE", "country": "Deutschland", "postalCode": "80538", "state": "Bayern", "formattedAddress": ["Englischer Garten", "80538 M\u00fcnchen", "Deutschland"], "address": "Englischer Garten", "lat": 48.15202, "lng": 11.59249}, "verified": false, "id": "4ade0ca7f964a520586821e3", "categories": [{"pluralName": "Beer Gardens", "primary": true, "name": "Beer Garden", "shortName": "Beer Garden", "id": "4bf58dd8d48988d117941735", "icon": {"prefix": "https://ss3.4sqi.net/img/categories_v2/nightlife/beergarden_", "suffix": ".png"}}]}]}}