{"meta": {"code": 200, "requestId": "563f0a54498e88ef3e968563"}, "response": {"confident": false, "geocode": {"parents": [], "what": "", "where": "paris", "feature": {"highlightedName": "<b>Paris</b>, France", "displayName": "Paris, France", "name": "Paris", "longId": "72057594040916443", "cc": "FR", "id": "geonameid:2988507", "geometry": {"center": {"lat": 48.85341, "lng": 2.3488}, "bounds": {"sw": {"lat": 48.670322030624696, "lng": 2.1084049608796893}, "ne": {"lat": 49.03356694704047, "lng": 2.6042489194755207}}}, "matchedName": "Paris, France", "woeType": 7, "slug": "paris"}}, "venues": [{"stats": {"tipCount": 38, "checkinsCount": 396, "usersCount": 321}, "name": "Ober Mamma", "referralId": "v-1446971988", "venueChains": [], "hereNow": {"count": 0, "groups": [], "summary": "Nobody here"}, "specials": {"count": 0, "items": []}, "allowMenuUrlEdit": true, "location": {"city": "Paris", "cc": "FR", "country": "France", "postalCode": "75011", "state": "\u00cele-de-France", "formattedAddress": ["107 boulevard Richard Lenoir", "75011 Paris", "France"], "address": "107 boulevard Richard Lenoir", "lat": 48.8644387807411, "lng": 2.370527906169025}, "verified": false, "id": "5581ba79498e2d654886dbad", "categories": [{"pluralName": "Trattorias/Osterias", "primary": true, "name": "Trattoria/Osteria", "shortName": "Trattoria/Osteria", "id": "55a5a1ebe4b013909087cb7f", "icon": {"prefix": "https://ss3.4sqi.net/img/categories_v2/food/italian_", "suffix": ".png"}}]}, {"stats": {"tipCount": 527, "checkinsCount": 22034, "usersCount": 17709}, "name": "Ladur\u00e9e", "referralId": "v-1446971988", "venueChains": [{"id": "556a2481a7c8957d73d306ee"}], "hereNow": {"count": 2, "groups": [{"count": 2, "items": [], "type": "others", "name": "Other people here"}], "summary": "2 people are here"}, "specials": {"count": 0, "items": []}, "allowMenuUrlEdit": true, "location": {"city": "Paris", "cc": "FR", "country": "France", "postalCode": "75008", "state": "\u00cele-de-France", "formattedAddress": ["75 avenue des Champs-\u00c9lys\u00e9es (Rue Lincoln)", "75008 Paris", "France"], "crossStreet": "Rue Lincoln", "address": "75 avenue des Champs-\u00c9lys\u00e9es", "lat": 48.870798257763106, "lng": 2.3030734062194824}, "verified": true, "id": "4bc5e23151b376b0ce8e1a6f", "categories": [{"pluralName": "Dessert Shops", "primary": true, "name": "Dessert Shop", "shortName": "Desserts", "id": "4bf58dd8d48988d1d0941735", "icon": {"prefix": "https://ss3.4sqi.net/img/categories_v2/food/dessert_", "suffix": ".png"}}]}, {"stats": {"tipCount": 344, "checkinsCount": 15770, "usersCount": 10769}, "name": "Caf\u00e9 de Flore", "referralId": "v-1446971988", "venueChains": [], "hereNow": {"count": 1, "groups": [{"count": 1, "items": [], "type": "others", "name": "Other people here"}], "summary": "One other person is here"}, "specials": {"count": 0, "items": []}, "allowMenuUrlEdit": true, "location": {"city": "Paris", "cc": "FR", "country": "France", "postalCode": "75006", "state": "\u00cele-de-France", "formattedAddress": ["172 boulevard Saint-Germain", "75006 Paris", "France"], "address": "172 boulevard Saint-Germain", "lat": 48.85410569058372, "lng": 2.332634031772613}, "venuePage": {"id": "76110098"}, "verified": true, "id": "4adcda04f964a520323221e3", "categories": [{"pluralName": "Caf\u00e9s", "primary": true, "name": "Caf\u00e9", "shortName": "Caf\u00e9", "id": "4bf58dd8d48988d16d941735", "icon": {"prefix": "https://ss3.4sqi.net/img/categories_v2/food/cafe_", "suffix": ".png"}}]}, {"stats": {"tipCount": 232, "checkinsCount": 8344, "usersCount": 6631}, "name": "Les Deux Magots", "referralId": "v-1446971988", "venueChains": [], "hereNow": {"count": 1, "groups": [{"count": 1, "items": [], "type": "others", "name": "Other people here"}], "summary": "One other person is here"}, "specials": {"count": 0, "items": []}, "allowMenuUrlEdit": true, "location": {"city": "Paris", "cc": "FR", "country": "France", "postalCode": "75006", "state": "\u00cele-de-France", "formattedAddress": ["6 place Saint-Germain-des-Pr\u00e9s", "75006 Paris", "France"], "address": "6 place Saint-Germain-des-Pr\u00e9s", "lat": 48.85406509933349, "lng": 2.333071231842041}, "venuePage": {"id": "79891423"}, "verified": true, "id": "4adcda04f964a520273221e3", "categories": [{"pluralName": "Caf\u00e9s", "primary": true, "name": "Caf\u00e9", "shortName": "Caf\u00e9", "id": "4bf58dd8d48988d16d941735", "icon": {"prefix": "https://ss3.4sqi.net/img/categories_v2/food/cafe_", "suffix": ".png"}}]}, {"stats": {"tipCount": 171, "checkinsCount": 8832, "usersCount": 6527}, "name": "Le Fouquet's", "referralId": "v-1446971988", "venueChains": [], "hereNow": {"count": 0, "groups": [], "summary": "Nobody here"}, "specials": {"count": 0, "items": []}, "allowMenuUrlEdit": true, "location": {"city": "Paris", "neighborhood": "Champs-\u00c9lys\u00e9es, Paris, \u00cele-de-France", "cc": "FR", "country": "France", "postalCode": "75008", "state": "\u00cele-de-France", "formattedAddress": ["99 avenue des Champs-\u00c9lys\u00e9es (Avenue Georges V)", "75008 Paris", "France"], "crossStreet": "Avenue Georges V", "address": "99 avenue des Champs-\u00c9lys\u00e9es", "lat": 48.87141926910895, "lng": 2.301313877105713}, "venuePage": {"id": "75555922"}, "verified": true, "id": "4adcda11f964a520fe3521e3", "categories": [{"pluralName": "French Restaurants", "primary": true, "name": "French Restaurant", "shortName": "French", "id": "4bf58dd8d48988d10c941735", "icon": {"prefix": "https://ss3.4sqi.net/img/categories_v2/food/french_", "suffix": ".png"}}]}, {"stats": {"tipCount": 123, "checkinsCount": 6123, "usersCount": 5414}, "name": "Caf\u00e9 George V", "referralId": "v-1446971988", "venueChains": [], "hereNow": {"count": 0, "groups": [], "summary": "Nobody here"}, "specials": {"count": 0, "items": []}, "allowMenuUrlEdit": true, "location": {"city": "Paris", "cc": "FR", "country": "France", "postalCode": "75008", "state": "\u00cele-de-France", "formattedAddress": ["120 avenue des Champs-\u00c9lys\u00e9es", "75008 Paris", "France"], "address": "120 avenue des Champs-\u00c9lys\u00e9es", "lat": 48.87232415152727, "lng": 2.3002470148346825}, "verified": false, "id": "4b1bc6e7f964a52053fd23e3", "categories": [{"pluralName": "French Restaurants", "primary": true, "name": "French Restaurant", "shortName": "French", "id": "4bf58dd8d48988d10c941735", "icon": {"prefix": "https://ss3.4sqi.net/img/categories_v2/food/french_", "suffix": ".png"}}]}, {"stats": {"tipCount": 73, "checkinsCount": 1758, "usersCount": 1170}, "name": "La REcyclerie", "referralId": "v-1446971988", "venueChains": [], "hereNow": {"count": 0, "groups": [], "summary": "Nobody here"}, "specials": {"count": 0, "items": []}, "allowMenuUrlEdit": true, "location": {"city": "Paris", "cc": "FR", "country": "France", "postalCode": "75018", "state": "\u00cele-de-France", "formattedAddress": ["83 boulevard Ornano (Au croisement avec la rue Belliard)", "75018 Paris", "France"], "crossStreet": "Au croisement avec la rue Belliard", "address": "83 boulevard Ornano", "lat": 48.89760411047929, "lng": 2.34407901763916}, "verified": false, "id": "51acb88f8bbd1eaae07a2b70", "categories": [{"pluralName": "Beer Gardens", "primary": true, "name": "Beer Garden", "shortName": "Beer Garden", "id": "4bf58dd8d48988d117941735", "icon": {"prefix": "https://ss3.4sqi.net/img/categories_v2/nightlife/beergarden_", "suffix": ".png"}}]}, {"stats": {"tipCount": 31, "checkinsCount": 674, "usersCount": 532}, "name": "Brasserie Barb\u00e8s", "referralId": "v-1446971988", "venueChains": [], "hereNow": {"count": 0, "groups": [], "summary": "Nobody here"}, "specials": {"count": 0, "items": []}, "allowMenuUrlEdit": true, "location": {"city": "Paris", "cc": "FR", "country": "France", "postalCode": "75018", "state": "\u00cele-de-France", "formattedAddress": ["2 boulevard Barb\u00e8s", "75018 Paris", "France"], "address": "2 boulevard Barb\u00e8s", "lat": 48.88400588266658, "lng": 2.3496207330941767}, "verified": false, "id": "55422e6e498ef3515d551861", "categories": [{"pluralName": "Bistros", "primary": true, "name": "Bistro", "shortName": "Bistro", "id": "52e81612bcbc57f1066b79f1", "icon": {"prefix": "https://ss3.4sqi.net/img/categories_v2/food/default_", "suffix": ".png"}}]}, {"stats": {"tipCount": 237, "checkinsCount": 8095, "usersCount": 5366}, "name": "L'Avenue", "referralId": "v-1446971988", "venueChains": [], "hereNow": {"count": 0, "groups": [], "summary": "Nobody here"}, "specials": {"count": 0, "items": []}, "allowMenuUrlEdit": true, "location": {"city": "Paris", "cc": "FR", "country": "France", "postalCode": "75008", "state": "\u00cele-de-France", "formattedAddress": ["41 avenue Montaigne (\u00c0 l'angle de la rue Fran\u00e7ois Ier)", "75008 Paris", "France"], "crossStreet": "\u00c0 l'angle de la rue Fran\u00e7ois Ier", "address": "41 avenue Montaigne", "lat": 48.86715872089333, "lng": 2.3061948214694854}, "verified": false, "id": "4b71021ff964a5203a372de3", "categories": [{"pluralName": "French Restaurants", "primary": true, "name": "French Restaurant", "shortName": "French", "id": "4bf58dd8d48988d10c941735", "icon": {"prefix": "https://ss3.4sqi.net/img/categories_v2/food/french_", "suffix": ".png"}}]}, {"stats": {"tipCount": 145, "checkinsCount": 6687, "usersCount": 5426}, "name": "Ladur\u00e9e", "referralId": "v-1446971988", "venueChains": [{"id": "556a2481a7c8957d73d306ee"}], "hereNow": {"count": 0, "groups": [], "summary": "Nobody here"}, "specials": {"count": 0, "items": []}, "allowMenuUrlEdit": true, "location": {"city": "Paris", "cc": "FR", "country": "France", "postalCode": "75008", "state": "\u00cele-de-France", "formattedAddress": ["16 rue Royale (Rue Saint-Honor\u00e9)", "75008 Paris", "France"], "crossStreet": "Rue Saint-Honor\u00e9", "address": "16 rue Royale", "lat": 48.86855408432749, "lng": 2.3233723640441895}, "verified": true, "id": "4b0b4dfff964a520283023e3", "categories": [{"pluralName": "Dessert Shops", "primary": true, "name": "Dessert Shop", "shortName": "Desserts", "id": "4bf58dd8d48988d1d0941735", "icon": {"prefix": "https://ss3.4sqi.net/img/categories_v2/food/dessert_", "suffix": ".png"}}]}, {"stats": {"tipCount": 275, "checkinsCount": 8127, "usersCount": 6270}, "name": "Bouillon Chartier", "referralId": "v-1446971988", "venueChains": [], "storeId": "", "hereNow": {"count": 0, "groups": [], "summary": "Nobody here"}, "specials": {"count": 0, "items": []}, "allowMenuUrlEdit": true, "location": {"city": "Paris", "cc": "FR", "country": "France", "postalCode": "75009", "state": "\u00cele-de-France", "formattedAddress": ["7 rue du Faubourg Montmartre", "75009 Paris", "France"], "address": "7 rue du Faubourg Montmartre", "lat": 48.87183915309438, "lng": 2.3425716161727905}, "verified": true, "id": "4b335de3f964a520e51825e3", "categories": [{"pluralName": "Bistros", "primary": true, "name": "Bistro", "shortName": "Bistro", "id": "52e81612bcbc57f1066b79f1", "icon": {"prefix": "https://ss3.4sqi.net/img/categories_v2/food/default_", "suffix": ".png"}}]}, {"stats": {"tipCount": 101, "checkinsCount": 8482, "usersCount": 6378}, "name": "Starbucks", "referralId": "v-1446971988", "venueChains": [{"id": "556f676fbd6a75a99038d8ec"}], "hereNow": {"count": 0, "groups": [], "summary": "Nobody here"}, "specials": {"count": 0, "items": []}, "allowMenuUrlEdit": true, "location": {"city": "Paris", "neighborhood": "Champs-\u00c9lys\u00e9es, Paris", "cc": "FR", "country": "France", "postalCode": "75008", "state": "\u00cele-de-France", "formattedAddress": ["Galerie des Arcades (76 avenue des Champs-\u00c9lys\u00e9es)", "75008 Paris", "France"], "crossStreet": "76 avenue des Champs-\u00c9lys\u00e9es", "address": "Galerie des Arcades", "lat": 48.87142632601174, "lng": 2.3043715953826904}, "verified": true, "id": "4b066e0ff964a520c2eb22e3", "categories": [{"pluralName": "Coffee Shops", "primary": true, "name": "Coffee Shop", "shortName": "Coffee Shop", "id": "4bf58dd8d48988d1e0931735", "icon": {"prefix": "https://ss3.4sqi.net/img/categories_v2/food/coffeeshop_", "suffix": ".png"}}]}, {"stats": {"tipCount": 194, "checkinsCount": 10768, "usersCount": 5510}, "name": "Mama Shelter", "referralId": "v-1446971988", "venueChains": [{"id": "556e5a1fbd6a82902e292562"}], "storeId": "", "hereNow": {"count": 0, "groups": [], "summary": "Nobody here"}, "specials": {"count": 0, "items": []}, "allowMenuUrlEdit": true, "location": {"city": "Paris", "cc": "FR", "country": "France", "postalCode": "75020", "state": "\u00cele-de-France", "formattedAddress": ["109 rue de Bagnolet", "75020 Paris", "France"], "address": "109 rue de Bagnolet", "lat": 48.859759906601184, "lng": 2.402781844139099}, "verified": true, "id": "4afdc6cdf964a520c02a22e3", "categories": [{"pluralName": "Hotels", "primary": true, "name": "Hotel", "shortName": "Hotel", "id": "4bf58dd8d48988d1fa931735", "icon": {"prefix": "https://ss3.4sqi.net/img/categories_v2/travel/hotel_", "suffix": ".png"}}]}, {"stats": {"tipCount": 352, "checkinsCount": 7454, "usersCount": 6268}, "name": "Angelina", "referralId": "v-1446971988", "venueChains": [{"id": "556e5507bd6a82902e2873ec"}], "storeId": "", "hereNow": {"count": 0, "groups": [], "summary": "Nobody here"}, "specials": {"count": 0, "items": []}, "allowMenuUrlEdit": true, "location": {"city": "Paris", "cc": "FR", "country": "France", "postalCode": "75001", "state": "\u00cele-de-France", "formattedAddress": ["226 rue de Rivoli", "75001 Paris", "France"], "address": "226 rue de Rivoli", "lat": 48.86507823970176, "lng": 2.3284417390823364}, "verified": true, "id": "4adcda12f964a520543621e3", "categories": [{"pluralName": "Tea Rooms", "primary": true, "name": "Tea Room", "shortName": "Tea Room", "id": "4bf58dd8d48988d1dc931735", "icon": {"prefix": "https://ss3.4sqi.net/img/categories_v2/food/tearoom_", "suffix": ".png"}}]}, {"stats": {"tipCount": 73, "checkinsCount": 773, "usersCount": 540}, "name": "Holybelly", "referralId": "v-1446971988", "venueChains": [], "hereNow": {"count": 0, "groups": [], "summary": "Nobody here"}, "specials": {"count": 0, "items": []}, "allowMenuUrlEdit": true, "location": {"city": "Paris", "cc": "FR", "country": "France", "postalCode": "75010", "state": "\u00cele-de-France", "formattedAddress": ["19 rue Lucien Sampaix", "75010 Paris", "France"], "address": "19 rue Lucien Sampaix", "lat": 48.87231372360891, "lng": 2.3608240485191345}, "verified": false, "id": "53f32591498e1cd3c3ec2555", "categories": [{"pluralName": "Coffee Shops", "primary": true, "name": "Coffee Shop", "shortName": "Coffee Shop", "id": "4bf58dd8d48988d1e0931735", "icon": {"prefix": "https://ss3.4sqi.net/img/categories_v2/food/coffeeshop_", "suffix": ".png"}}]}, {"stats": {"tipCount": 205, "checkinsCount": 5244, "usersCount": 3242}, "name": "Candelaria", "referralId": "v-1446971988", "venueChains": [], "hereNow": {"count": 0, "groups": [], "summary": "Nobody here"}, "specials": {"count": 0, "items": []}, "allowMenuUrlEdit": true, "location": {"city": "Paris", "cc": "FR", "country": "France", "postalCode": "75003", "state": "\u00cele-de-France", "formattedAddress": ["56 rue de Saintonge", "75003 Paris", "France"], "address": "56 rue de Saintonge", "lat": 48.86300180895659, "lng": 2.364102469129585}, "verified": false, "id": "4d77b39caf63cbff3997be0f", "categories": [{"pluralName": "Cocktail Bars", "primary": true, "name": "Cocktail Bar", "shortName": "Cocktail", "id": "4bf58dd8d48988d11e941735", "icon": {"prefix": "https://ss3.4sqi.net/img/categories_v2/nightlife/cocktails_", "suffix": ".png"}}]}, {"stats": {"tipCount": 208, "checkinsCount": 8408, "usersCount": 7371}, "name": "Caf\u00e9 des Deux Moulins", "referralId": "v-1446971988", "venueChains": [], "hereNow": {"count": 0, "groups": [], "summary": "Nobody here"}, "specials": {"count": 0, "items": []}, "allowMenuUrlEdit": true, "location": {"city": "Paris", "cc": "FR", "country": "France", "postalCode": "75018", "state": "\u00cele-de-France", "formattedAddress": ["15 rue Lepic", "75018 Paris", "France"], "address": "15 rue Lepic", "lat": 48.88478325875453, "lng": 2.3336076736450195}, "verified": false, "id": "4adcda07f964a520363321e3", "categories": [{"pluralName": "Bistros", "primary": true, "name": "Bistro", "shortName": "Bistro", "id": "52e81612bcbc57f1066b79f1", "icon": {"prefix": "https://ss3.4sqi.net/img/categories_v2/food/default_", "suffix": ".png"}}]}, {"stats": {"tipCount": 233, "checkinsCount": 15270, "usersCount": 12512}, "name": "Hard Rock Cafe Paris", "referralId": "v-1446971988", "venueChains": [{"id": "556a337ba7c8957d73d4b6b4"}], "storeId": "", "hereNow": {"count": 0, "groups": [], "summary": "Nobody here"}, "specials": {"count": 0, "items": []}, "allowMenuUrlEdit": true, "location": {"city": "Paris", "cc": "FR", "country": "France", "postalCode": "75009", "state": "\u00cele-de-France", "formattedAddress": ["14 boulevard Montmartre", "75009 Paris", "France"], "address": "14 boulevard Montmartre", "lat": 48.871943241436476, "lng": 2.3416033387184143}, "verified": true, "id": "4b1d4f79f964a520980e24e3", "categories": [{"pluralName": "American Restaurants", "primary": true, "name": "American Restaurant", "shortName": "American", "id": "4bf58dd8d48988d14e941735", "icon": {"prefix": "https://ss3.4sqi.net/img/categories_v2/food/default_", "suffix": ".png"}}]}, {"stats": {"tipCount": 21, "checkinsCount": 1587, "usersCount": 599}, "name": "L'\u00c9ventail", "referralId": "v-1446971988", "venueChains": [], "hereNow": {"count": 0, "groups": [], "summary": "Nobody here"}, "specials": {"count": 0, "items": []}, "allowMenuUrlEdit": true, "location": {"city": "Paris", "cc": "FR", "country": "France", "postalCode": "75011", "state": "\u00cele-de-France", "formattedAddress": ["28 boulevard Voltaire", "75011 Paris", "France"], "address": "28 boulevard Voltaire", "lat": 48.86441349218536, "lng": 2.3688762526509173}, "verified": false, "id": "509198b8e4b0e6b44391641b", "categories": [{"pluralName": "Bars", "primary": true, "name": "Bar", "shortName": "Bar", "id": "4bf58dd8d48988d116941735", "icon": {"prefix": "https://ss3.4sqi.net/img/categories_v2/nightlife/pub_", "suffix": ".png"}}]}, {"stats": {"tipCount": 184, "checkinsCount": 7745, "usersCount": 6471}, "name": "Pizza Pino", "referralId": "v-1446971988", "venueChains": [], "hereNow": {"count": 0, "groups": [], "summary": "Nobody here"}, "specials": {"count": 0, "items": []}, "allowMenuUrlEdit": true, "location": {"city": "Paris", "cc": "FR", "country": "France", "postalCode": "75008", "state": "\u00cele-de-France", "formattedAddress": ["31-33 avenue des Champs-\u00c9lys\u00e9es", "75008 Paris", "France"], "address": "31-33 avenue des Champs-\u00c9lys\u00e9es", "lat": 48.869886109371414, "lng": 2.3069406043037826}, "verified": false, "id": "4adcda11f964a520173621e3", "categories": [{"pluralName": "Pizza Places", "primary": true, "name": "Pizza Place", "shortName": "Pizza", "id": "4bf58dd8d48988d1ca941735", "icon": {"prefix": "https://ss3.4sqi.net/img/categories_v2/food/pizza_", "suffix": ".png"}}]}, {"stats": {"tipCount": 148, "checkinsCount": 4187, "usersCount": 3409}, "name": "Le Relais de l'Entrec\u00f4te", "referralId": "v-1446971988", "venueChains": [], "hereNow": {"count": 0, "groups": [], "summary": "Nobody here"}, "specials": {"count": 0, "items": []}, "allowMenuUrlEdit": true, "location": {"city": "Paris", "cc": "FR", "country": "France", "postalCode": "75006", "state": "\u00cele-de-France", "formattedAddress": ["20 rue Saint-Beno\u00eet", "75006 Paris", "France"], "address": "20 rue Saint-Beno\u00eet", "lat": 48.85460337193281, "lng": 2.332797646522522}, "verified": false, "id": "4b3764d6f964a520d94025e3", "categories": [{"pluralName": "Steakhouses", "primary": true, "name": "Steakhouse", "shortName": "Steakhouse", "id": "4bf58dd8d48988d1cc941735", "icon": {"prefix": "https://ss3.4sqi.net/img/categories_v2/food/steakhouse_", "suffix": ".png"}}]}, {"stats": {"tipCount": 180, "checkinsCount": 7738, "usersCount": 5929}, "name": "Buddha Bar", "referralId": "v-1446971988", "venueChains": [], "hereNow": {"count": 0, "groups": [], "summary": "Nobody here"}, "specials": {"count": 0, "items": []}, "allowMenuUrlEdit": true, "location": {"city": "Paris", "cc": "FR", "country": "France", "postalCode": "75008", "state": "\u00cele-de-France", "formattedAddress": ["8-12 rue Boissy d'Anglas", "75008 Paris", "France"], "address": "8-12 rue Boissy d'Anglas", "lat": 48.868255209699484, "lng": 2.321522162534999}, "verified": false, "id": "4bfd2db02b83b71365a7a998", "categories": [{"pluralName": "Lounges", "primary": true, "name": "Lounge", "shortName": "Lounge", "id": "4bf58dd8d48988d121941735", "icon": {"prefix": "https://ss3.4sqi.net/img/categories_v2/nightlife/default_", "suffix": ".png"}}]}, {"stats": {"tipCount": 90, "checkinsCount": 4570, "usersCount": 2706}, "name": "Le Matignon", "referralId": "v-1446971988", "venueChains": [], "hereNow": {"count": 0, "groups": [], "summary": "Nobody here"}, "specials": {"count": 0, "items": []}, "allowMenuUrlEdit": true, "location": {"city": "Paris", "cc": "FR", "country": "France", "postalCode": "75008", "state": "\u00cele-de-France", "formattedAddress": ["3 avenue Matignon", "75008 Paris", "France"], "address": "3 avenue Matignon", "lat": 48.86966886613018, "lng": 2.311348393272122}, "verified": false, "id": "4bca515b937ca593eeb1a792", "categories": [{"pluralName": "French Restaurants", "primary": true, "name": "French Restaurant", "shortName": "French", "id": "4bf58dd8d48988d10c941735", "icon": {"prefix": "https://ss3.4sqi.net/img/categories_v2/food/french_", "suffix": ".png"}}]}, {"stats": {"tipCount": 157, "checkinsCount": 3118, "usersCount": 1920}, "name": "Coutume Caf\u00e9", "referralId": "v-1446971988", "venueChains": [], "hereNow": {"count": 0, "groups": [], "summary": "Nobody here"}, "specials": {"count": 0, "items": []}, "allowMenuUrlEdit": true, "location": {"city": "Paris", "cc": "FR", "country": "France", "postalCode": "75007", "state": "\u00cele-de-France", "formattedAddress": ["47 rue de Babylone", "75007 Paris", "France"], "address": "47 rue de Babylone", "lat": 48.851730093568264, "lng": 2.318347850079702}, "verified": false, "id": "4ce7bb33baa6a1cdd369296c", "categories": [{"pluralName": "Coffee Shops", "primary": true, "name": "Coffee Shop", "shortName": "Coffee Shop", "id": "4bf58dd8d48988d1e0931735", "icon": {"prefix": "https://ss3.4sqi.net/img/categories_v2/food/coffeeshop_", "suffix": ".png"}}]}, {"stats": {"tipCount": 176, "checkinsCount": 7870, "usersCount": 5923}, "name": "Caf\u00e9 de la Paix", "referralId": "v-1446971988", "venueChains": [], "hereNow": {"count": 0, "groups": [], "summary": "Nobody here"}, "specials": {"count": 0, "items": []}, "allowMenuUrlEdit": true, "location": {"city": "Paris", "neighborhood": "Opera, Paris", "cc": "FR", "country": "France", "postalCode": "75009", "state": "\u00cele-de-France", "formattedAddress": ["12 boulevard des Capucines (Place de l'Op\u00e9ra)", "75009 Paris", "France"], "crossStreet": "Place de l'Op\u00e9ra", "address": "12 boulevard des Capucines", "lat": 48.87077355828884, "lng": 2.331703305244446}, "verified": false, "id": "4adcda06f964a520de3221e3", "categories": [{"pluralName": "French Restaurants", "primary": true, "name": "French Restaurant", "shortName": "French", "id": "4bf58dd8d48988d10c941735", "icon": {"prefix": "https://ss3.4sqi.net/img/categories_v2/food/french_", "suffix": ".png"}}]}, {"stats": {"tipCount": 282, "checkinsCount": 6815, "usersCount": 5171}, "name": "L'As du Fallafel", "referralId": "v-1446971988", "venueChains": [], "hereNow": {"count": 0, "groups": [], "summary": "Nobody here"}, "specials": {"count": 0, "items": []}, "allowMenuUrlEdit": true, "location": {"city": "Paris", "cc": "FR", "country": "France", "postalCode": "75004", "state": "\u00cele-de-France", "formattedAddress": ["34 rue des Rosiers (Rue des Ecouffes)", "75004 Paris", "France"], "crossStreet": "Rue des Ecouffes", "address": "34 rue des Rosiers", "lat": 48.85736700174227, "lng": 2.3589491844177246}, "verified": false, "id": "4b867a97f964a520e48b31e3", "categories": [{"pluralName": "Falafel Restaurants", "primary": true, "name": "Falafel Restaurant", "shortName": "Falafel", "id": "4bf58dd8d48988d10b941735", "icon": {"prefix": "https://ss3.4sqi.net/img/categories_v2/food/falafel_", "suffix": ".png"}}]}, {"stats": {"tipCount": 117, "checkinsCount": 9809, "usersCount": 6178}, "name": "Starbucks", "referralId": "v-1446971988", "venueChains": [{"id": "556f676fbd6a75a99038d8ec"}], "hereNow": {"count": 0, "groups": [], "summary": "Nobody here"}, "specials": {"count": 0, "items": []}, "allowMenuUrlEdit": true, "location": {"city": "Paris", "cc": "FR", "country": "France", "postalCode": "75002", "state": "\u00cele-de-France", "formattedAddress": ["3 boulevard des Capucines", "75002 Paris", "France"], "address": "3 boulevard des Capucines", "lat": 48.870879, "lng": 2.333748}, "verified": true, "id": "4b6ebe2af964a520b2c82ce3", "categories": [{"pluralName": "Coffee Shops", "primary": true, "name": "Coffee Shop", "shortName": "Coffee Shop", "id": "4bf58dd8d48988d1e0931735", "icon": {"prefix": "https://ss3.4sqi.net/img/categories_v2/food/coffeeshop_", "suffix": ".png"}}]}, {"stats": {"tipCount": 80, "checkinsCount": 8447, "usersCount": 3594}, "name": "La Perle", "referralId": "v-1446971988", "venueChains": [], "hereNow": {"count": 0, "groups": [], "summary": "Nobody here"}, "specials": {"count": 0, "items": []}, "allowMenuUrlEdit": true, "location": {"city": "Paris", "neighborhood": "Marais", "cc": "FR", "country": "France", "postalCode": "75003", "state": "\u00cele-de-France", "formattedAddress": ["78 rue Vieille du Temple", "75003 Paris", "France"], "address": "78 rue Vieille du Temple", "lat": 48.85999024285714, "lng": 2.360895}, "verified": false, "id": "4af77f16f964a520970922e3", "categories": [{"pluralName": "Bars", "primary": true, "name": "Bar", "shortName": "Bar", "id": "4bf58dd8d48988d116941735", "icon": {"prefix": "https://ss3.4sqi.net/img/categories_v2/nightlife/pub_", "suffix": ".png"}}]}, {"stats": {"tipCount": 202, "checkinsCount": 4447, "usersCount": 3640}, "name": "Le Relais de l'Entrec\u00f4te", "referralId": "v-1446971988", "venueChains": [], "hereNow": {"count": 0, "groups": [], "summary": "Nobody here"}, "specials": {"count": 0, "items": []}, "allowMenuUrlEdit": true, "location": {"city": "Paris", "cc": "FR", "country": "France", "postalCode": "75008", "state": "\u00cele-de-France", "formattedAddress": ["15 rue Marbeuf", "75008 Paris", "France"], "address": "15 rue Marbeuf", "lat": 48.86808124249555, "lng": 2.302807867527008}, "verified": false, "id": "4b229d41f964a5203f4a24e3", "categories": [{"pluralName": "Steakhouses", "primary": true, "name": "Steakhouse", "shortName": "Steakhouse", "id": "4bf58dd8d48988d1cc941735", "icon": {"prefix": "https://ss3.4sqi.net/img/categories_v2/food/steakhouse_", "suffix": ".png"}}]}, {"stats": {"tipCount": 107, "checkinsCount": 4028, "usersCount": 3585}, "name": "L\u00e9on de Bruxelles", "referralId": "v-1446971988", "venueChains": [], "hereNow": {"count": 0, "groups": [], "summary": "Nobody here"}, "specials": {"count": 0, "items": []}, "allowMenuUrlEdit": true, "location": {"city": "Paris", "cc": "FR", "country": "France", "postalCode": "75008", "state": "\u00cele-de-France", "formattedAddress": ["63 avenue des Champs-\u00c9lys\u00e9es", "75008 Paris", "France"], "address": "63 avenue des Champs-\u00c9lys\u00e9es", "lat": 48.870650677666035, "lng": 2.3045603455352337}, "verified": false, "id": "4cc87b63d338236aa92b9d7c", "categories": [{"pluralName": "Belgian Restaurants", "primary": true, "name": "Belgian Restaurant", "shortName": "Belgian", "id": "52e81612bcbc57f1066b7a02", "icon": {"prefix": "https://ss3.4sqi.net/img/categories_v2/food/default_", "suffix": ".png"}}]}]}}