{"meta": {"code": 200, "requestId": "563f0a55498eb5a53985189d"}, "response": {"confident": false, "geocode": {"parents": [], "what": "", "where": "rome", "feature": {"highlightedName": "<b>Rome</b>, Latium, Italy", "displayName": "Rome, Latium, Italy", "name": "Rome", "longId": "72057594041097006", "cc": "IT", "id": "geonameid:3169070", "geometry": {"center": {"lat": 41.89193, "lng": 12.51133}, "bounds": {"sw": {"lat": 41.79461305370221, "lng": 12.379309999999998}, "ne": {"lat": 41.98942097197372, "lng": 12.615249866611695}}}, "matchedName": "Rome, Latium, Italy", "woeType": 7, "slug": "roma"}}, "venues": [{"stats": {"tipCount": 181, "checkinsCount": 2215, "usersCount": 2011}, "name": "Pompi Pasticceria", "referralId": "v-1446971989", "venueChains": [], "hereNow": {"count": 1, "groups": [{"count": 1, "items": [], "type": "others", "name": "Other people here"}], "summary": "One other person is here"}, "specials": {"count": 0, "items": []}, "allowMenuUrlEdit": true, "location": {"city": "Roma", "cc": "IT", "country": "Italia", "state": "Lazio", "formattedAddress": ["V. Della Croce, 82", "Roma Lazio", "Italia"], "address": "V. Della Croce, 82", "lat": 41.906343991879375, "lng": 12.480642671723144}, "verified": false, "id": "4eef417c93add02fce2d708c", "categories": [{"pluralName": "Dessert Shops", "primary": true, "name": "Dessert Shop", "shortName": "Desserts", "id": "4bf58dd8d48988d1d0941735", "icon": {"prefix": "https://ss3.4sqi.net/img/categories_v2/food/dessert_", "suffix": ".png"}}]}, {"stats": {"tipCount": 7, "checkinsCount": 1160, "usersCount": 927}, "name": "Area di Servizio Feronia", "referralId": "v-1446971989", "venueChains": [], "hereNow": {"count": 0, "groups": [], "summary": "Nobody here"}, "specials": {"count": 0, "items": []}, "allowMenuUrlEdit": true, "location": {"city": "Fiano Romano", "cc": "IT", "country": "Italia", "state": "Lazio", "formattedAddress": ["Autostrada A1 dir. Roma Nord", "Fiano Romano Lazio", "Italia"], "address": "Autostrada A1 dir. Roma Nord", "lat": 42.13506914650686, "lng": 12.602434854185628}, "verified": false, "id": "4bc840030050b7132102ba3b", "categories": [{"pluralName": "Rest Areas", "primary": true, "name": "Rest Area", "shortName": "Rest Areas", "id": "4d954b16a243a5684b65b473", "icon": {"prefix": "https://ss3.4sqi.net/img/categories_v2/travel/restarea_", "suffix": ".png"}}]}, {"stats": {"tipCount": 299, "checkinsCount": 6072, "usersCount": 4477}, "name": "Sant'Eustachio Il Caff\u00e8", "referralId": "v-1446971989", "venueChains": [], "hereNow": {"count": 0, "groups": [], "summary": "Nobody here"}, "specials": {"count": 0, "items": []}, "allowMenuUrlEdit": true, "location": {"city": "Roma", "cc": "IT", "country": "Italia", "postalCode": "00186", "state": "Lazio", "formattedAddress": ["Piazza di Sant'Eustachio, 82 (Via della Dogana Vecchia)", "00186 Roma Lazio", "Italia"], "crossStreet": "Via della Dogana Vecchia", "address": "Piazza di Sant'Eustachio, 82", "lat": 41.89826229925138, "lng": 12.47548520565033}, "verified": false, "id": "4af867d8f964a520f10c22e3", "categories": [{"pluralName": "Caf\u00e9s", "primary": true, "name": "Caf\u00e9", "shortName": "Caf\u00e9", "id": "4bf58dd8d48988d16d941735", "icon": {"prefix": "https://ss3.4sqi.net/img/categories_v2/food/cafe_", "suffix": ".png"}}]}, {"stats": {"tipCount": 38, "checkinsCount": 605, "usersCount": 507}, "name": "Alle Carrette", "referralId": "v-1446971989", "venueChains": [], "hereNow": {"count": 0, "groups": [], "summary": "Nobody here"}, "specials": {"count": 0, "items": []}, "allowMenuUrlEdit": true, "location": {"city": "Roma", "cc": "IT", "country": "Italia", "postalCode": "00184", "state": "Lazio", "formattedAddress": ["Via della Madonna dei Monti 95", "00184 Roma Lazio", "Italia"], "address": "Via della Madonna dei Monti 95", "lat": 41.893827540554405, "lng": 12.488560632815414}, "verified": false, "id": "4adcdacbf964a520f95421e3", "categories": [{"pluralName": "Pizza Places", "primary": true, "name": "Pizza Place", "shortName": "Pizza", "id": "4bf58dd8d48988d1ca941735", "icon": {"prefix": "https://ss3.4sqi.net/img/categories_v2/food/pizza_", "suffix": ".png"}}]}, {"stats": {"tipCount": 199, "checkinsCount": 2520, "usersCount": 2224}, "name": "Da Baffetto", "referralId": "v-1446971989", "venueChains": [], "hereNow": {"count": 0, "groups": [], "summary": "Nobody here"}, "specials": {"count": 0, "items": []}, "allowMenuUrlEdit": true, "location": {"city": "Roma", "cc": "IT", "country": "Italia", "postalCode": "00186", "state": "Lazio", "formattedAddress": ["Via del Governo Vecchio, 114", "00186 Roma Lazio", "Italia"], "address": "Via del Governo Vecchio, 114", "lat": 41.89831361353019, "lng": 12.470463244639014}, "verified": false, "id": "4adcdacbf964a520f75421e3", "categories": [{"pluralName": "Pizza Places", "primary": true, "name": "Pizza Place", "shortName": "Pizza", "id": "4bf58dd8d48988d1ca941735", "icon": {"prefix": "https://ss3.4sqi.net/img/categories_v2/food/pizza_", "suffix": ".png"}}]}, {"stats": {"tipCount": 230, "checkinsCount": 4422, "usersCount": 2887}, "name": "Open Baladin", "referralId": "v-1446971989", "venueChains": [], "hereNow": {"count": 0, "groups": [], "summary": "Nobody here"}, "specials": {"count": 0, "items": []}, "allowMenuUrlEdit": true, "location": {"city": "Roma", "cc": "IT", "country": "Italia", "postalCode": "00186", "state": "Lazio", "formattedAddress": ["Via Degli Specchi, 6", "00186 Roma Lazio", "Italia"], "address": "Via Degli Specchi, 6", "lat": 41.89370387244999, "lng": 12.474567381592774}, "verified": false, "id": "4b815a15f964a520ffa030e3", "categories": [{"pluralName": "Breweries", "primary": true, "name": "Brewery", "shortName": "Brewery", "id": "50327c8591d4c4b30a586d5d", "icon": {"prefix": "https://ss3.4sqi.net/img/categories_v2/food/brewery_", "suffix": ".png"}}]}, {"stats": {"tipCount": 149, "checkinsCount": 2865, "usersCount": 2100}, "name": "Ginger", "referralId": "v-1446971989", "venueChains": [], "storeId": "", "hereNow": {"count": 0, "groups": [], "summary": "Nobody here"}, "specials": {"count": 0, "items": []}, "allowMenuUrlEdit": true, "location": {"city": "Roma", "cc": "IT", "country": "Italia", "postalCode": "00187", "state": "Lazio", "formattedAddress": ["Via Borgognona 43 (Via del Corso)", "00187 Roma Lazio", "Italia"], "crossStreet": "Via del Corso", "address": "Via Borgognona 43", "lat": 41.904285853852556, "lng": 12.479617968732676}, "venuePage": {"id": "68308737"}, "verified": true, "id": "4f8183f4e4b0fdf50259430b", "categories": [{"pluralName": "Juice Bars", "primary": true, "name": "Juice Bar", "shortName": "Juice Bar", "id": "4bf58dd8d48988d112941735", "icon": {"prefix": "https://ss3.4sqi.net/img/categories_v2/food/juicebar_", "suffix": ".png"}}]}, {"stats": {"tipCount": 12, "checkinsCount": 1896, "usersCount": 133}, "name": "Caff\u00e8 Camerino", "referralId": "v-1446971989", "venueChains": [], "hereNow": {"count": 0, "groups": [], "summary": "Nobody here"}, "specials": {"count": 0, "items": []}, "allowMenuUrlEdit": true, "location": {"city": "Roma", "cc": "IT", "country": "Italia", "state": "Lazio", "formattedAddress": ["Largo Alessandro Toja, 1", "Roma Lazio", "Italia"], "address": "Largo Alessandro Toja, 1", "lat": 41.87735412304032, "lng": 12.467938126150305}, "verified": false, "id": "4d2c56c2b818a35d6c73b78a", "categories": [{"pluralName": "Caf\u00e9s", "primary": true, "name": "Caf\u00e9", "shortName": "Caf\u00e9", "id": "4bf58dd8d48988d16d941735", "icon": {"prefix": "https://ss3.4sqi.net/img/categories_v2/food/cafe_", "suffix": ".png"}}]}, {"stats": {"tipCount": 397, "checkinsCount": 7561, "usersCount": 6416}, "name": "Giolitti", "referralId": "v-1446971989", "venueChains": [], "hereNow": {"count": 0, "groups": [], "summary": "Nobody here"}, "specials": {"count": 0, "items": []}, "allowMenuUrlEdit": true, "location": {"city": "Roma", "cc": "IT", "country": "Italia", "postalCode": "00186", "state": "Lazio", "formattedAddress": ["Via degli Uffici del Vicario, 40", "00186 Roma Lazio", "Italia"], "address": "Via degli Uffici del Vicario, 40", "lat": 41.90109713415369, "lng": 12.477283024221427}, "verified": false, "id": "4adcdac2f964a520025221e3", "categories": [{"pluralName": "Ice Cream Shops", "primary": true, "name": "Ice Cream Shop", "shortName": "Ice Cream", "id": "4bf58dd8d48988d1c9941735", "icon": {"prefix": "https://ss3.4sqi.net/img/categories_v2/food/icecream_", "suffix": ".png"}}]}, {"stats": {"tipCount": 147, "checkinsCount": 1581, "usersCount": 1416}, "name": "Taverna Trilussa", "referralId": "v-1446971989", "venueChains": [], "hereNow": {"count": 0, "groups": [], "summary": "Nobody here"}, "specials": {"count": 0, "items": []}, "allowMenuUrlEdit": true, "location": {"city": "Roma", "cc": "IT", "country": "Italia", "postalCode": "00153", "state": "Lazio", "formattedAddress": ["Via del Politeama, 21", "00153 Roma Lazio", "Italia"], "address": "Via del Politeama, 21", "lat": 41.89068933530583, "lng": 12.47130869594597}, "verified": false, "id": "4b463a89f964a520c21a26e3", "categories": [{"pluralName": "Italian Restaurants", "primary": true, "name": "Italian Restaurant", "shortName": "Italian", "id": "4bf58dd8d48988d110941735", "icon": {"prefix": "https://ss3.4sqi.net/img/categories_v2/food/italian_", "suffix": ".png"}}]}, {"stats": {"tipCount": 83, "checkinsCount": 2045, "usersCount": 1072}, "name": "Mizzica", "referralId": "v-1446971989", "venueChains": [], "hereNow": {"count": 0, "groups": [], "summary": "Nobody here"}, "specials": {"count": 0, "items": []}, "allowMenuUrlEdit": true, "location": {"city": "Roma", "cc": "IT", "country": "Italia", "postalCode": "00161", "state": "Lazio", "formattedAddress": ["Via Catanzaro, 30/32 (Via Arezzo)", "00161 Roma Lazio", "Italia"], "crossStreet": "Via Arezzo", "address": "Via Catanzaro, 30/32", "lat": 41.9125161, "lng": 12.517942}, "verified": false, "id": "4c8268c551ada1cd1ed71b10", "categories": [{"pluralName": "Dessert Shops", "primary": true, "name": "Dessert Shop", "shortName": "Desserts", "id": "4bf58dd8d48988d1d0941735", "icon": {"prefix": "https://ss3.4sqi.net/img/categories_v2/food/dessert_", "suffix": ".png"}}]}, {"stats": {"tipCount": 145, "checkinsCount": 3007, "usersCount": 2653}, "name": "Baccano", "referralId": "v-1446971989", "venueChains": [], "hereNow": {"count": 0, "groups": [], "summary": "Nobody here"}, "specials": {"count": 0, "items": []}, "allowMenuUrlEdit": true, "location": {"city": "Roma", "cc": "IT", "country": "Italia", "postalCode": "00137", "state": "Lazio", "formattedAddress": ["Via delle Muratte, 23", "00137 Roma Lazio", "Italia"], "address": "Via delle Muratte, 23", "lat": 41.900390556722144, "lng": 12.482378528419908}, "verified": false, "id": "4fa90209e4b07584ab7fe287", "categories": [{"pluralName": "Bistros", "primary": true, "name": "Bistro", "shortName": "Bistro", "id": "52e81612bcbc57f1066b79f1", "icon": {"prefix": "https://ss3.4sqi.net/img/categories_v2/food/default_", "suffix": ".png"}}]}, {"stats": {"tipCount": 285, "checkinsCount": 16870, "usersCount": 14009}, "name": "Hard Rock Cafe Roma", "referralId": "v-1446971989", "venueChains": [{"id": "556a337ba7c8957d73d4b6b4"}], "storeId": "", "hereNow": {"count": 0, "groups": [], "summary": "Nobody here"}, "specials": {"count": 0, "items": []}, "allowMenuUrlEdit": true, "location": {"city": "Roma", "cc": "IT", "country": "Italia", "postalCode": "00187", "state": "Lazio", "formattedAddress": ["Via Vittorio Veneto, 62/A-B", "00187 Roma Lazio", "Italia"], "address": "Via Vittorio Veneto, 62/A-B", "lat": 41.90620808524426, "lng": 12.489843013477023}, "verified": true, "id": "4ba626a5f964a5205c3739e3", "categories": [{"pluralName": "American Restaurants", "primary": true, "name": "American Restaurant", "shortName": "American", "id": "4bf58dd8d48988d14e941735", "icon": {"prefix": "https://ss3.4sqi.net/img/categories_v2/food/default_", "suffix": ".png"}}]}, {"stats": {"tipCount": 215, "checkinsCount": 2018, "usersCount": 1596}, "name": "Angelino \"ai Fori\" dal 1947", "referralId": "v-1446971989", "venueChains": [], "storeId": "", "hereNow": {"count": 0, "groups": [], "summary": "Nobody here"}, "specials": {"count": 0, "items": []}, "allowMenuUrlEdit": true, "location": {"city": "Roma", "cc": "IT", "country": "Italia", "postalCode": "00184", "state": "Lazio", "formattedAddress": ["Largo Corrado Ricci, 40/43a (Via dei Fori Imperiali)", "00184 Roma Lazio", "Italia"], "crossStreet": "Via dei Fori Imperiali", "address": "Largo Corrado Ricci, 40/43a", "lat": 41.89294951560849, "lng": 12.487850189208984}, "venuePage": {"id": "37592277"}, "verified": true, "id": "4adcdacff964a520975521e3", "categories": [{"pluralName": "Italian Restaurants", "primary": true, "name": "Italian Restaurant", "shortName": "Italian", "id": "4bf58dd8d48988d110941735", "icon": {"prefix": "https://ss3.4sqi.net/img/categories_v2/food/italian_", "suffix": ".png"}}]}, {"stats": {"tipCount": 252, "checkinsCount": 2709, "usersCount": 2307}, "name": "Dar Poeta", "referralId": "v-1446971989", "venueChains": [], "hereNow": {"count": 0, "groups": [], "summary": "Nobody here"}, "specials": {"count": 0, "items": []}, "allowMenuUrlEdit": true, "location": {"city": "Roma", "cc": "IT", "country": "Italia", "postalCode": "00153", "state": "Lazio", "formattedAddress": ["Vicolo del Bologna, 45/46", "00153 Roma Lazio", "Italia"], "address": "Vicolo del Bologna, 45/46", "lat": 41.89138414670259, "lng": 12.468648254871368}, "verified": false, "id": "4adcdacbf964a5200d5521e3", "categories": [{"pluralName": "Pizza Places", "primary": true, "name": "Pizza Place", "shortName": "Pizza", "id": "4bf58dd8d48988d1ca941735", "icon": {"prefix": "https://ss3.4sqi.net/img/categories_v2/food/pizza_", "suffix": ".png"}}]}, {"stats": {"tipCount": 187, "checkinsCount": 2575, "usersCount": 1911}, "name": "Pizzarium", "referralId": "v-1446971989", "venueChains": [], "hereNow": {"count": 0, "groups": [], "summary": "Nobody here"}, "specials": {"count": 0, "items": []}, "allowMenuUrlEdit": true, "location": {"city": "Roma", "cc": "IT", "country": "Italia", "postalCode": "00136", "state": "Lazio", "formattedAddress": ["Via della Meloria, 43", "00136 Roma Lazio", "Italia"], "address": "Via della Meloria, 43", "lat": 41.90679191807162, "lng": 12.446731584305438}, "venuePage": {"id": "122940761"}, "verified": true, "id": "4bc06ec2461576b07d1b7a32", "categories": [{"pluralName": "Pizza Places", "primary": true, "name": "Pizza Place", "shortName": "Pizza", "id": "4bf58dd8d48988d1ca941735", "icon": {"prefix": "https://ss3.4sqi.net/img/categories_v2/food/pizza_", "suffix": ".png"}}]}, {"stats": {"tipCount": 134, "checkinsCount": 1725, "usersCount": 1559}, "name": "Grazia & Graziella", "referralId": "v-1446971989", "venueChains": [], "hereNow": {"count": 0, "groups": [], "summary": "Nobody here"}, "specials": {"count": 0, "items": []}, "allowMenuUrlEdit": true, "location": {"city": "Roma", "cc": "IT", "country": "Italia", "postalCode": "00153", "state": "Lazio", "formattedAddress": ["Largo Fumasoni Biondi, 5 (Via della Paglia)", "00153 Roma Lazio", "Italia"], "crossStreet": "Via della Paglia", "address": "Largo Fumasoni Biondi, 5", "lat": 41.88977045426096, "lng": 12.469259467193972}, "verified": false, "id": "51435abae4b0101df998aad6", "categories": [{"pluralName": "Italian Restaurants", "primary": true, "name": "Italian Restaurant", "shortName": "Italian", "id": "4bf58dd8d48988d110941735", "icon": {"prefix": "https://ss3.4sqi.net/img/categories_v2/food/italian_", "suffix": ".png"}}]}, {"stats": {"tipCount": 245, "checkinsCount": 4966, "usersCount": 4496}, "name": "Antico Caff\u00e8 Greco", "referralId": "v-1446971989", "venueChains": [], "hereNow": {"count": 0, "groups": [], "summary": "Nobody here"}, "specials": {"count": 0, "items": []}, "allowMenuUrlEdit": true, "location": {"city": "Roma", "cc": "IT", "country": "Italia", "postalCode": "00187", "state": "Lazio", "formattedAddress": ["Via dei Condotti, 84", "00187 Roma Lazio", "Italia"], "address": "Via dei Condotti, 84", "lat": 41.90561880649856, "lng": 12.481555044651031}, "venuePage": {"id": "85482156"}, "verified": true, "id": "4adcdac2f964a520165221e3", "categories": [{"pluralName": "Caf\u00e9s", "primary": true, "name": "Caf\u00e9", "shortName": "Caf\u00e9", "id": "4bf58dd8d48988d16d941735", "icon": {"prefix": "https://ss3.4sqi.net/img/categories_v2/food/cafe_", "suffix": ".png"}}]}, {"stats": {"tipCount": 119, "checkinsCount": 3671, "usersCount": 2016}, "name": "Porto Fluviale", "referralId": "v-1446971989", "venueChains": [], "storeId": "", "hereNow": {"count": 0, "groups": [], "summary": "Nobody here"}, "specials": {"count": 0, "items": []}, "allowMenuUrlEdit": true, "location": {"city": "Roma", "cc": "IT", "country": "Italia", "postalCode": "00154", "state": "Lazio", "formattedAddress": ["Via del Porto Fluviale, 22 (Via delle Conce)", "00154 Roma Lazio", "Italia"], "crossStreet": "Via delle Conce", "address": "Via del Porto Fluviale, 22", "lat": 41.872390123296334, "lng": 12.478257311794994}, "venuePage": {"id": "43535039"}, "verified": true, "id": "50c0c8b8e4b0b9f404949cdf", "categories": [{"pluralName": "Italian Restaurants", "primary": true, "name": "Italian Restaurant", "shortName": "Italian", "id": "4bf58dd8d48988d110941735", "icon": {"prefix": "https://ss3.4sqi.net/img/categories_v2/food/italian_", "suffix": ".png"}}]}, {"stats": {"tipCount": 106, "checkinsCount": 1518, "usersCount": 1310}, "name": "Da Francesco", "referralId": "v-1446971989", "venueChains": [], "hereNow": {"count": 0, "groups": [], "summary": "Nobody here"}, "specials": {"count": 0, "items": []}, "allowMenuUrlEdit": true, "location": {"city": "Roma", "cc": "IT", "country": "Italia", "postalCode": "00186", "state": "Lazio", "formattedAddress": ["Piazza del Fico, 29 (Via del Corallo)", "00186 Roma Lazio", "Italia"], "crossStreet": "Via del Corallo", "address": "Piazza del Fico, 29", "lat": 41.899411526644386, "lng": 12.470457645644673}, "verified": false, "id": "4be6a68b910020a13c7ed414", "categories": [{"pluralName": "Italian Restaurants", "primary": true, "name": "Italian Restaurant", "shortName": "Italian", "id": "4bf58dd8d48988d110941735", "icon": {"prefix": "https://ss3.4sqi.net/img/categories_v2/food/italian_", "suffix": ".png"}}]}, {"stats": {"tipCount": 9, "checkinsCount": 4215, "usersCount": 436}, "name": "Telecom Italia", "referralId": "v-1446971989", "venueChains": [], "hereNow": {"count": 0, "groups": [], "summary": "Nobody here"}, "specials": {"count": 0, "items": []}, "allowMenuUrlEdit": true, "location": {"city": "Roma", "cc": "IT", "country": "Italia", "postalCode": "00148", "state": "Lazio", "formattedAddress": ["Parco de' Medici 61 (Parco dei Medici)", "00148 Roma Lazio", "Italia"], "crossStreet": "Parco dei Medici", "address": "Parco de' Medici 61", "lat": 41.81844, "lng": 12.41495}, "verified": false, "id": "4b701623f964a52076062de3", "categories": [{"pluralName": "Offices", "primary": true, "name": "Office", "shortName": "Office", "id": "4bf58dd8d48988d124941735", "icon": {"prefix": "https://ss3.4sqi.net/img/categories_v2/building/default_", "suffix": ".png"}}]}, {"stats": {"tipCount": 114, "checkinsCount": 5162, "usersCount": 3343}, "name": "Bar del Fico", "referralId": "v-1446971989", "venueChains": [], "hereNow": {"count": 0, "groups": [], "summary": "Nobody here"}, "specials": {"count": 0, "items": []}, "allowMenuUrlEdit": true, "location": {"city": "Roma", "cc": "IT", "country": "Italia", "postalCode": "00186", "state": "Lazio", "formattedAddress": ["Piazza del Fico 26", "00186 Roma Lazio", "Italia"], "address": "Piazza del Fico 26", "lat": 41.899458502634836, "lng": 12.470625615594729}, "verified": false, "id": "4adcdac2f964a5200a5221e3", "categories": [{"pluralName": "Cocktail Bars", "primary": true, "name": "Cocktail Bar", "shortName": "Cocktail", "id": "4bf58dd8d48988d11e941735", "icon": {"prefix": "https://ss3.4sqi.net/img/categories_v2/nightlife/cocktails_", "suffix": ".png"}}]}, {"stats": {"tipCount": 151, "checkinsCount": 4009, "usersCount": 3017}, "name": "Gusto", "referralId": "v-1446971989", "venueChains": [], "hereNow": {"count": 0, "groups": [], "summary": "Nobody here"}, "specials": {"count": 0, "items": []}, "allowMenuUrlEdit": true, "location": {"city": "Roma", "cc": "IT", "country": "Italia", "postalCode": "00100", "state": "Lazio", "formattedAddress": ["Piazza Augusto Imperatore 9", "00100 Roma Lazio", "Italia"], "address": "Piazza Augusto Imperatore 9", "lat": 41.90645503613964, "lng": 12.476420730678418}, "verified": false, "id": "4adcdac5f964a520bf5221e3", "categories": [{"pluralName": "Wine Bars", "primary": true, "name": "Wine Bar", "shortName": "Wine Bar", "id": "4bf58dd8d48988d123941735", "icon": {"prefix": "https://ss3.4sqi.net/img/categories_v2/food/winery_", "suffix": ".png"}}]}, {"stats": {"tipCount": 158, "checkinsCount": 2924, "usersCount": 2268}, "name": "Tazza d'Oro", "referralId": "v-1446971989", "venueChains": [], "hereNow": {"count": 0, "groups": [], "summary": "Nobody here"}, "specials": {"count": 0, "items": []}, "allowMenuUrlEdit": true, "location": {"city": "Roma", "cc": "IT", "country": "Italia", "postalCode": "00186", "state": "Lazio", "formattedAddress": ["Via degli Orfani, 84", "00186 Roma Lazio", "Italia"], "address": "Via degli Orfani, 84", "lat": 41.89939590070108, "lng": 12.477193434977945}, "verified": false, "id": "4adcdac4f964a5208a5221e3", "categories": [{"pluralName": "Coffee Shops", "primary": true, "name": "Coffee Shop", "shortName": "Coffee Shop", "id": "4bf58dd8d48988d1e0931735", "icon": {"prefix": "https://ss3.4sqi.net/img/categories_v2/food/coffeeshop_", "suffix": ".png"}}]}, {"stats": {"tipCount": 64, "checkinsCount": 1640, "usersCount": 1537}, "name": "Il Vero Alfredo", "referralId": "v-1446971989", "venueChains": [], "hereNow": {"count": 0, "groups": [], "summary": "Nobody here"}, "specials": {"count": 0, "items": []}, "allowMenuUrlEdit": true, "location": {"city": "Roma", "cc": "IT", "country": "Italia", "postalCode": "00186", "state": "Lazio", "formattedAddress": ["Piazza Augusto Imperatore, 30", "00186 Roma Lazio", "Italia"], "address": "Piazza Augusto Imperatore, 30", "lat": 41.90599679393141, "lng": 12.477602186474106}, "verified": false, "id": "4adcdacff964a520995521e3", "categories": [{"pluralName": "Italian Restaurants", "primary": true, "name": "Italian Restaurant", "shortName": "Italian", "id": "4bf58dd8d48988d110941735", "icon": {"prefix": "https://ss3.4sqi.net/img/categories_v2/food/italian_", "suffix": ".png"}}]}, {"stats": {"tipCount": 115, "checkinsCount": 2018, "usersCount": 1473}, "name": "Bir & Fud", "referralId": "v-1446971989", "venueChains": [], "storeId": "", "hereNow": {"count": 0, "groups": [], "summary": "Nobody here"}, "specials": {"count": 0, "items": []}, "allowMenuUrlEdit": true, "location": {"city": "Roma", "cc": "IT", "country": "Italia", "postalCode": "00153", "state": "Lazio", "formattedAddress": ["Via Benedetta, 23", "00153 Roma Lazio", "Italia"], "address": "Via Benedetta, 23", "lat": 41.89170193807198, "lng": 12.468973921854968}, "venuePage": {"id": "67101487"}, "verified": true, "id": "4b7937a6f964a52075ef2ee3", "categories": [{"pluralName": "Gastropubs", "primary": true, "name": "Gastropub", "shortName": "Gastropub", "id": "4bf58dd8d48988d155941735", "icon": {"prefix": "https://ss3.4sqi.net/img/categories_v2/food/gastropub_", "suffix": ".png"}}]}, {"stats": {"tipCount": 209, "checkinsCount": 1847, "usersCount": 1682}, "name": "Cantina e Cucina", "referralId": "v-1446971989", "venueChains": [], "hereNow": {"count": 0, "groups": [], "summary": "Nobody here"}, "specials": {"count": 0, "items": []}, "allowMenuUrlEdit": true, "location": {"city": "Roma", "cc": "IT", "country": "Italia", "postalCode": "00186", "state": "Lazio", "formattedAddress": ["Via Del Governo Vecchio, 87", "00186 Roma Lazio", "Italia"], "address": "Via Del Governo Vecchio, 87", "lat": 41.8979821383588, "lng": 12.471594247144145}, "verified": false, "id": "4d84a28b8de9721e0fa23451", "categories": [{"pluralName": "Italian Restaurants", "primary": true, "name": "Italian Restaurant", "shortName": "Italian", "id": "4bf58dd8d48988d110941735", "icon": {"prefix": "https://ss3.4sqi.net/img/categories_v2/food/italian_", "suffix": ".png"}}]}, {"stats": {"tipCount": 171, "checkinsCount": 1546, "usersCount": 1097}, "name": "La Romana", "referralId": "v-1446971989", "venueChains": [], "hereNow": {"count": 0, "groups": [], "summary": "Nobody here"}, "specials": {"count": 0, "items": []}, "allowMenuUrlEdit": true, "location": {"city": "Roma", "cc": "IT", "country": "Italia", "postalCode": "00187", "state": "Lazio", "formattedAddress": ["Via Venti Settembre 60 (Via Piave)", "00187 Roma Lazio", "Italia"], "crossStreet": "Via Piave", "address": "Via Venti Settembre 60", "lat": 41.90791158483965, "lng": 12.498797680179003}, "verified": false, "id": "51a0bced498ee3b3eb8a6f9c", "categories": [{"pluralName": "Ice Cream Shops", "primary": true, "name": "Ice Cream Shop", "shortName": "Ice Cream", "id": "4bf58dd8d48988d1c9941735", "icon": {"prefix": "https://ss3.4sqi.net/img/categories_v2/food/icecream_", "suffix": ".png"}}]}, {"stats": {"tipCount": 244, "checkinsCount": 13938, "usersCount": 6990}, "name": "Eataly", "referralId": "v-1446971989", "venueChains": [], "hereNow": {"count": 0, "groups": [], "summary": "Nobody here"}, "specials": {"count": 0, "items": []}, "allowMenuUrlEdit": true, "location": {"city": "Roma", "cc": "IT", "country": "Italia", "postalCode": "00154", "state": "Lazio", "formattedAddress": ["Piazzale XII Ottobre, 1492", "00154 Roma Lazio", "Italia"], "address": "Piazzale XII Ottobre, 1492", "lat": 41.8711746658207, "lng": 12.486648559570312}, "verified": false, "id": "4fae42f6be7793ab8ee41bd6", "categories": [{"pluralName": "Gourmet Shops", "primary": true, "name": "Gourmet Shop", "shortName": "Gourmet", "id": "4bf58dd8d48988d1f5941735", "icon": {"prefix": "https://ss3.4sqi.net/img/categories_v2/shops/food_gourmet_", "suffix": ".png"}}]}, {"stats": {"tipCount": 95, "checkinsCount": 2919, "usersCount": 1817}, "name": "Momart Caf\u00e8", "referralId": "v-1446971989", "venueChains": [], "hereNow": {"count": 0, "groups": [], "summary": "Nobody here"}, "specials": {"count": 0, "items": []}, "allowMenuUrlEdit": true, "location": {"city": "Roma", "cc": "IT", "country": "Italia", "postalCode": "00162", "state": "Lazio", "formattedAddress": ["Viale XXI aprile, 19", "00162 Roma Lazio", "Italia"], "address": "Viale XXI aprile, 19", "lat": 41.91970399611494, "lng": 12.519778653909365}, "verified": false, "id": "4bb8cdb453649c744a5847fb", "categories": [{"pluralName": "Cocktail Bars", "primary": true, "name": "Cocktail Bar", "shortName": "Cocktail", "id": "4bf58dd8d48988d11e941735", "icon": {"prefix": "https://ss3.4sqi.net/img/categories_v2/nightlife/cocktails_", "suffix": ".png"}}]}]}}