{"meta": {"code": 200, "requestId": "563f0a57498ec4b6c9828515"}, "response": {"confident": false, "geocode": {"parents": [], "what": "", "where": "stockholm", "feature": {"highlightedName": "<b>Stockholm</b>, Sweden", "displayName": "Stockholm, Sweden", "name": "Stockholm", "longId": "72057594040601666", "cc": "SE", "id": "geonameid:2673730", "geometry": {"center": {"lat": 59.33258, "lng": 18.0649}, "bounds": {"sw": {"lat": 59.22983620344969, "lng": 17.76955621683312}, "ne": {"lat": 59.440507933824655, "lng": 18.199873888099386}}}, "matchedName": "Stockholm, Sweden", "woeType": 7, "slug": "stockholm-sweden"}}, "venues": [{"stats": {"tipCount": 8, "checkinsCount": 240, "usersCount": 119}, "name": "Paradiset", "referralId": "v-1446971991", "venueChains": [], "hereNow": {"count": 0, "groups": [], "summary": "Nobody here"}, "specials": {"count": 0, "items": []}, "allowMenuUrlEdit": true, "location": {"city": "Stockholm", "cc": "SE", "country": "Sverige", "state": "Storstockholm", "formattedAddress": ["Br\u00e4nnkyrkagatan 62", "Stockholm", "Sverige"], "address": "Br\u00e4nnkyrkagatan 62", "lat": 59.31870820985599, "lng": 18.056161892794282}, "verified": false, "id": "556ef7ec498e1b61f7e3ad60", "categories": [{"pluralName": "Health Food Stores", "primary": true, "name": "Health Food Store", "shortName": "Health Food Store", "id": "50aa9e744b90af0d42d5de0e", "icon": {"prefix": "https://ss3.4sqi.net/img/categories_v2/shops/food_grocery_", "suffix": ".png"}}]}, {"stats": {"tipCount": 13, "checkinsCount": 326, "usersCount": 189}, "name": "Cykelcaf\u00e9 Le Mond", "referralId": "v-1446971991", "venueChains": [], "hereNow": {"count": 0, "groups": [], "summary": "Nobody here"}, "specials": {"count": 0, "items": []}, "allowMenuUrlEdit": true, "location": {"city": "Stockholm", "cc": "SE", "country": "Sverige", "postalCode": "116 22", "state": "Storstockholm", "formattedAddress": ["Folkungagatan 67", "116 22 Stockholm", "Sverige"], "address": "Folkungagatan 67", "lat": 59.314774, "lng": 18.077524}, "verified": false, "id": "531b2cbf498ebf83ee802aaf", "categories": [{"pluralName": "Coffee Shops", "primary": true, "name": "Coffee Shop", "shortName": "Coffee Shop", "id": "4bf58dd8d48988d1e0931735", "icon": {"prefix": "https://ss3.4sqi.net/img/categories_v2/food/coffeeshop_", "suffix": ".png"}}]}, {"stats": {"tipCount": 16, "checkinsCount": 392, "usersCount": 196}, "name": "Prime Burger", "referralId": "v-1446971991", "venueChains": [], "hereNow": {"count": 0, "groups": [], "summary": "Nobody here"}, "specials": {"count": 0, "items": []}, "allowMenuUrlEdit": true, "location": {"city": "Stockholm", "cc": "SE", "country": "Sverige", "postalCode": "111 36", "state": "Storstockholm", "formattedAddress": ["Holl\u00e4ndargatan 8A", "111 36 Stockholm", "Sverige"], "address": "Holl\u00e4ndargatan 8A", "lat": 59.33635350182626, "lng": 18.06094584347845}, "verified": false, "id": "55031308498eed0748c04f27", "categories": [{"pluralName": "Burger Joints", "primary": true, "name": "Burger Joint", "shortName": "Burgers", "id": "4bf58dd8d48988d16c941735", "icon": {"prefix": "https://ss3.4sqi.net/img/categories_v2/food/burger_", "suffix": ".png"}}]}, {"stats": {"tipCount": 12, "checkinsCount": 423, "usersCount": 219}, "name": "Urban Deli", "referralId": "v-1446971991", "venueChains": [], "hereNow": {"count": 0, "groups": [], "summary": "Nobody here"}, "specials": {"count": 0, "items": []}, "allowMenuUrlEdit": true, "location": {"city": "Stockholm", "cc": "SE", "country": "Sverige", "postalCode": "111 34", "state": "Storstockholm", "formattedAddress": ["Sveav\u00e4gen 44", "111 34 Stockholm", "Sverige"], "address": "Sveav\u00e4gen 44", "lat": 59.336891966708265, "lng": 18.062696310953648}, "verified": false, "id": "53f8a991498e573ad1674bdb", "categories": [{"pluralName": "Delis / Bodegas", "primary": true, "name": "Deli / Bodega", "shortName": "Deli / Bodega", "id": "4bf58dd8d48988d146941735", "icon": {"prefix": "https://ss3.4sqi.net/img/categories_v2/food/deli_", "suffix": ".png"}}]}, {"stats": {"tipCount": 36, "checkinsCount": 5342, "usersCount": 2416}, "name": "Clarion Hotel Sign", "referralId": "v-1446971991", "venueChains": [], "hereNow": {"count": 1, "groups": [{"count": 1, "items": [], "type": "others", "name": "Other people here"}], "summary": "One other person is here"}, "specials": {"count": 0, "items": []}, "allowMenuUrlEdit": true, "location": {"city": "Stockholm", "cc": "SE", "country": "Sverige", "postalCode": "111 20", "state": "Storstockholm", "formattedAddress": ["\u00d6stra J\u00e4rnv\u00e4gsgatan 35", "111 20 Stockholm", "Sverige"], "address": "\u00d6stra J\u00e4rnv\u00e4gsgatan 35", "lat": 59.334625796773274, "lng": 18.05374340119644}, "verified": false, "id": "4addce61f964a520e26521e3", "categories": [{"pluralName": "Hotels", "primary": true, "name": "Hotel", "shortName": "Hotel", "id": "4bf58dd8d48988d1fa931735", "icon": {"prefix": "https://ss3.4sqi.net/img/categories_v2/travel/hotel_", "suffix": ".png"}}]}, {"stats": {"tipCount": 52, "checkinsCount": 7724, "usersCount": 3045}, "name": "Sheraton Stockholm Hotel", "referralId": "v-1446971991", "venueChains": [], "storeId": "298", "hereNow": {"count": 1, "groups": [{"count": 1, "items": [], "type": "others", "name": "Other people here"}], "summary": "One other person is here"}, "specials": {"count": 0, "items": []}, "allowMenuUrlEdit": true, "location": {"city": "Stockholm", "cc": "SE", "country": "Sverige", "postalCode": "101 23", "state": "Storstockholm", "formattedAddress": ["Tegelbacken 6", "101 23 Stockholm", "Sverige"], "address": "Tegelbacken 6", "lat": 59.32878403086703, "lng": 18.061845302581787}, "verified": true, "id": "4adcdae8f964a5203a5921e3", "categories": [{"pluralName": "Hotels", "primary": true, "name": "Hotel", "shortName": "Hotel", "id": "4bf58dd8d48988d1fa931735", "icon": {"prefix": "https://ss3.4sqi.net/img/categories_v2/travel/hotel_", "suffix": ".png"}}]}, {"stats": {"tipCount": 107, "checkinsCount": 2371, "usersCount": 1582}, "name": "Vete-Katten", "referralId": "v-1446971991", "venueChains": [], "hereNow": {"count": 0, "groups": [], "summary": "Nobody here"}, "specials": {"count": 0, "items": []}, "allowMenuUrlEdit": true, "location": {"city": "Stockholm", "cc": "SE", "country": "Sverige", "postalCode": "111 22", "state": "Storstockholm", "formattedAddress": ["Kungsgatan 55 (Klara Norra Kyrkogata)", "111 22 Stockholm", "Sverige"], "crossStreet": "Klara Norra Kyrkogata", "address": "Kungsgatan 55", "lat": 59.334104, "lng": 18.058303}, "verified": false, "id": "4adcdaf2f964a520105c21e3", "categories": [{"pluralName": "Caf\u00e9s", "primary": true, "name": "Caf\u00e9", "shortName": "Caf\u00e9", "id": "4bf58dd8d48988d16d941735", "icon": {"prefix": "https://ss3.4sqi.net/img/categories_v2/food/cafe_", "suffix": ".png"}}]}, {"stats": {"tipCount": 43, "checkinsCount": 975, "usersCount": 414}, "name": "Caf\u00e9 Pascal", "referralId": "v-1446971991", "venueChains": [], "hereNow": {"count": 0, "groups": [], "summary": "Nobody here"}, "specials": {"count": 0, "items": []}, "allowMenuUrlEdit": true, "location": {"city": "Stockholm", "cc": "SE", "country": "Sverige", "postalCode": "113 29", "state": "Storstockholm", "formattedAddress": ["Norrtullsgatan 4 (Sand\u00e5sgatan)", "113 29 Stockholm", "Sverige"], "crossStreet": "Sand\u00e5sgatan", "address": "Norrtullsgatan 4", "lat": 59.3419875630816, "lng": 18.05197477340698}, "verified": false, "id": "53062212498e13c3403aac70", "categories": [{"pluralName": "Caf\u00e9s", "primary": true, "name": "Caf\u00e9", "shortName": "Caf\u00e9", "id": "4bf58dd8d48988d16d941735", "icon": {"prefix": "https://ss3.4sqi.net/img/categories_v2/food/cafe_", "suffix": ".png"}}]}, {"stats": {"tipCount": 45, "checkinsCount": 2373, "usersCount": 1378}, "name": "Boqueria", "referralId": "v-1446971991", "venueChains": [], "hereNow": {"count": 0, "groups": [], "summary": "Nobody here"}, "specials": {"count": 0, "items": []}, "allowMenuUrlEdit": true, "location": {"city": "Stockholm", "cc": "SE", "country": "Sverige", "postalCode": "103 95", "state": "Storstockholm", "formattedAddress": ["Jakobsbergsgatan 17 (inside Mood Stockholm)", "103 95 Stockholm", "Sverige"], "crossStreet": "inside Mood Stockholm", "address": "Jakobsbergsgatan 17", "lat": 59.3345318343075, "lng": 18.06834474164849}, "verified": false, "id": "4f6a170fe4b029261f3f1f9a", "categories": [{"pluralName": "Tapas Restaurants", "primary": true, "name": "Tapas Restaurant", "shortName": "Tapas", "id": "4bf58dd8d48988d1db931735", "icon": {"prefix": "https://ss3.4sqi.net/img/categories_v2/food/tapas_", "suffix": ".png"}}]}, {"stats": {"tipCount": 6, "checkinsCount": 2931, "usersCount": 1524}, "name": "M\u00fcnchenbryggeriet", "referralId": "v-1446971991", "venueChains": [], "hereNow": {"count": 0, "groups": [], "summary": "Nobody here"}, "specials": {"count": 0, "items": []}, "allowMenuUrlEdit": true, "location": {"city": "Stockholm", "cc": "SE", "country": "Sverige", "postalCode": "118 25", "state": "Storstockholm", "formattedAddress": ["Torkel Knutssonsgatan 2 (T-bana: Mariatorget)", "118 25 Stockholm", "Sverige"], "crossStreet": "T-bana: Mariatorget", "address": "Torkel Knutssonsgatan 2", "lat": 59.32066287346606, "lng": 18.05539804309413}, "verified": false, "id": "4adcdaf4f964a520905c21e3", "categories": [{"pluralName": "Event Spaces", "primary": true, "name": "Event Space", "shortName": "Event Space", "id": "4bf58dd8d48988d171941735", "icon": {"prefix": "https://ss3.4sqi.net/img/categories_v2/building/eventspace_", "suffix": ".png"}}]}, {"stats": {"tipCount": 162, "checkinsCount": 3747, "usersCount": 2003}, "name": "Vig\u00e5rda", "referralId": "v-1446971991", "venueChains": [], "hereNow": {"count": 0, "groups": [], "summary": "Nobody here"}, "specials": {"count": 0, "items": []}, "allowMenuUrlEdit": true, "location": {"city": "Stockholm", "cc": "SE", "country": "Sverige", "postalCode": "111 43", "state": "Storstockholm", "formattedAddress": ["Norrlandsgatan 13 (at M\u00e4ster Samuelsgatan)", "111 43 Stockholm", "Sverige"], "crossStreet": "at M\u00e4ster Samuelsgatan", "address": "Norrlandsgatan 13", "lat": 59.33432762231983, "lng": 18.07098627090454}, "verified": false, "id": "4f67677de4b062549dcab7b4", "categories": [{"pluralName": "Burger Joints", "primary": true, "name": "Burger Joint", "shortName": "Burgers", "id": "4bf58dd8d48988d16c941735", "icon": {"prefix": "https://ss3.4sqi.net/img/categories_v2/food/burger_", "suffix": ".png"}}]}, {"stats": {"tipCount": 75, "checkinsCount": 5089, "usersCount": 3415}, "name": "\u00d6stermalms Saluhall", "referralId": "v-1446971991", "venueChains": [], "storeId": "", "hereNow": {"count": 0, "groups": [], "summary": "Nobody here"}, "specials": {"count": 0, "items": []}, "allowMenuUrlEdit": true, "location": {"city": "Stockholm", "cc": "SE", "country": "Sverige", "postalCode": "114 46", "formattedAddress": ["Humleg\u00e5rdsgatan 1 (\u00d6stermalmstorg)", "114 46 Stockholm", "Sverige"], "crossStreet": "\u00d6stermalmstorg", "address": "Humleg\u00e5rdsgatan 1", "lat": 59.33591446618171, "lng": 18.07774543762207}, "venuePage": {"id": "43925171"}, "verified": true, "id": "4ae16ee1f964a5201d8621e3", "categories": [{"pluralName": "Gourmet Shops", "primary": true, "name": "Gourmet Shop", "shortName": "Gourmet", "id": "4bf58dd8d48988d1f5941735", "icon": {"prefix": "https://ss3.4sqi.net/img/categories_v2/shops/food_gourmet_", "suffix": ".png"}}]}, {"stats": {"tipCount": 93, "checkinsCount": 2157, "usersCount": 1014}, "name": "Kaffeverket", "referralId": "v-1446971991", "venueChains": [], "hereNow": {"count": 0, "groups": [], "summary": "Nobody here"}, "specials": {"count": 0, "items": []}, "allowMenuUrlEdit": true, "location": {"city": "Stockholm", "cc": "SE", "country": "Sverige", "postalCode": "111 39", "state": "Storstockholm", "formattedAddress": ["Snickarbacken 7", "111 39 Stockholm", "Sverige"], "address": "Snickarbacken 7", "lat": 59.33794104458486, "lng": 18.0679698710224}, "verified": false, "id": "4e020979e4cd338f2d49e767", "categories": [{"pluralName": "Caf\u00e9s", "primary": true, "name": "Caf\u00e9", "shortName": "Caf\u00e9", "id": "4bf58dd8d48988d16d941735", "icon": {"prefix": "https://ss3.4sqi.net/img/categories_v2/food/cafe_", "suffix": ".png"}}]}, {"stats": {"tipCount": 110, "checkinsCount": 6528, "usersCount": 2253}, "name": "Akkurat", "referralId": "v-1446971991", "venueChains": [], "hereNow": {"count": 0, "groups": [], "summary": "Nobody here"}, "specials": {"count": 0, "items": []}, "allowMenuUrlEdit": true, "location": {"city": "Stockholm", "cc": "SE", "country": "Sverige", "postalCode": "118 20", "state": "Storstockholm", "formattedAddress": ["Hornsgatan 18", "118 20 Stockholm", "Sverige"], "address": "Hornsgatan 18", "lat": 59.319644425962025, "lng": 18.068883622738515}, "verified": false, "id": "4adcdaebf964a520cf5921e3", "categories": [{"pluralName": "Pubs", "primary": true, "name": "Pub", "shortName": "Pub", "id": "4bf58dd8d48988d11b941735", "icon": {"prefix": "https://ss3.4sqi.net/img/categories_v2/nightlife/pub_", "suffix": ".png"}}]}, {"stats": {"tipCount": 33, "checkinsCount": 611, "usersCount": 353}, "name": "Omnipollos hatt", "referralId": "v-1446971991", "venueChains": [], "hereNow": {"count": 0, "groups": [], "summary": "Nobody here"}, "specials": {"count": 0, "items": []}, "allowMenuUrlEdit": true, "location": {"city": "Stockholm", "cc": "SE", "country": "Sverige", "state": "Storstockholm", "formattedAddress": ["H\u00f6kens Gata 3", "Stockholm", "Sverige"], "address": "H\u00f6kens Gata 3", "lat": 59.318048654825105, "lng": 18.072153903298442}, "verified": false, "id": "54b67a81498ecfc4ba73cd88", "categories": [{"pluralName": "Bars", "primary": true, "name": "Bar", "shortName": "Bar", "id": "4bf58dd8d48988d116941735", "icon": {"prefix": "https://ss3.4sqi.net/img/categories_v2/nightlife/pub_", "suffix": ".png"}}]}, {"stats": {"tipCount": 94, "checkinsCount": 2717, "usersCount": 1240}, "name": "Johan & Nystr\u00f6m", "referralId": "v-1446971991", "venueChains": [], "hereNow": {"count": 0, "groups": [], "summary": "Nobody here"}, "specials": {"count": 0, "items": []}, "allowMenuUrlEdit": true, "location": {"city": "Stockholm", "cc": "SE", "country": "Sverige", "postalCode": "118 48", "state": "Storstockholm", "formattedAddress": ["Swedenborgsgatan 7 (Maria Pr\u00e4stg\u00e5rdsgata)", "118 48 Stockholm", "Sverige"], "crossStreet": "Maria Pr\u00e4stg\u00e5rdsgata", "address": "Swedenborgsgatan 7", "lat": 59.316209845175614, "lng": 18.063844070646958}, "verified": false, "id": "4b025696f964a520614822e3", "categories": [{"pluralName": "Coffee Shops", "primary": true, "name": "Coffee Shop", "shortName": "Coffee Shop", "id": "4bf58dd8d48988d1e0931735", "icon": {"prefix": "https://ss3.4sqi.net/img/categories_v2/food/coffeeshop_", "suffix": ".png"}}]}, {"stats": {"tipCount": 33, "checkinsCount": 655, "usersCount": 373}, "name": "Phil\u2019s Burger", "referralId": "v-1446971991", "venueChains": [], "hereNow": {"count": 0, "groups": [], "summary": "Nobody here"}, "specials": {"count": 0, "items": []}, "allowMenuUrlEdit": true, "location": {"city": "Stockholm", "cc": "SE", "country": "Sverige", "postalCode": "112 32", "state": "Storstockholm", "formattedAddress": ["Fleminggatan 49 (Polhemsgatan)", "112 32 Stockholm", "Sverige"], "crossStreet": "Polhemsgatan", "address": "Fleminggatan 49", "lat": 59.33351775619615, "lng": 18.03884267807007}, "verified": false, "id": "535e659a498e876ea3fdb21f", "categories": [{"pluralName": "Burger Joints", "primary": true, "name": "Burger Joint", "shortName": "Burgers", "id": "4bf58dd8d48988d16c941735", "icon": {"prefix": "https://ss3.4sqi.net/img/categories_v2/food/burger_", "suffix": ".png"}}]}, {"stats": {"tipCount": 7, "checkinsCount": 779, "usersCount": 560}, "name": "Starbucks", "referralId": "v-1446971991", "venueChains": [], "hereNow": {"count": 0, "groups": [], "summary": "Nobody here"}, "specials": {"count": 0, "items": []}, "allowMenuUrlEdit": true, "location": {"city": "Stockholm", "cc": "SE", "country": "Sverige", "postalCode": "111 43", "state": "Storstockholm", "formattedAddress": ["Kungsgatan 2 (Stureplan)", "111 43 Stockholm", "Sverige"], "crossStreet": "Stureplan", "address": "Kungsgatan 2", "lat": 59.33636411066381, "lng": 18.071957020715054}, "verified": false, "id": "546c678d498e0d698cc92a69", "categories": [{"pluralName": "Coffee Shops", "primary": true, "name": "Coffee Shop", "shortName": "Coffee Shop", "id": "4bf58dd8d48988d1e0931735", "icon": {"prefix": "https://ss3.4sqi.net/img/categories_v2/food/coffeeshop_", "suffix": ".png"}}]}, {"stats": {"tipCount": 129, "checkinsCount": 5848, "usersCount": 3021}, "name": "Urban Deli", "referralId": "v-1446971991", "venueChains": [], "hereNow": {"count": 0, "groups": [], "summary": "Nobody here"}, "specials": {"count": 0, "items": []}, "allowMenuUrlEdit": true, "location": {"city": "Stockholm", "cc": "SE", "country": "Sverige", "postalCode": "116 40", "state": "Storstockholm", "formattedAddress": ["Nytorget 4 (Sk\u00e5negatan)", "116 40 Stockholm", "Sverige"], "crossStreet": "Sk\u00e5negatan", "address": "Nytorget 4", "lat": 59.312476361916914, "lng": 18.082551956176758}, "verified": false, "id": "4af451d9f964a52047f121e3", "categories": [{"pluralName": "Delis / Bodegas", "primary": true, "name": "Deli / Bodega", "shortName": "Deli / Bodega", "id": "4bf58dd8d48988d146941735", "icon": {"prefix": "https://ss3.4sqi.net/img/categories_v2/food/deli_", "suffix": ".png"}}]}, {"stats": {"tipCount": 66, "checkinsCount": 2956, "usersCount": 1411}, "name": "K25", "referralId": "v-1446971991", "venueChains": [], "hereNow": {"count": 0, "groups": [], "summary": "Nobody here"}, "specials": {"count": 0, "items": []}, "allowMenuUrlEdit": true, "location": {"city": "Stockholm", "cc": "SE", "country": "Sverige", "postalCode": "111 56", "state": "Storstockholm", "formattedAddress": ["Kungsgatan 25", "111 56 Stockholm", "Sverige"], "address": "Kungsgatan 25", "lat": 59.33582691810744, "lng": 18.067617416381836}, "verified": false, "id": "5125e04b19a996cfa7019ddf", "categories": [{"pluralName": "Food Courts", "primary": true, "name": "Food Court", "shortName": "Food Court", "id": "4bf58dd8d48988d120951735", "icon": {"prefix": "https://ss3.4sqi.net/img/categories_v2/shops/food_foodcourt_", "suffix": ".png"}}]}, {"stats": {"tipCount": 27, "checkinsCount": 449, "usersCount": 393}, "name": "Meatballs - For the people", "referralId": "v-1446971991", "venueChains": [], "hereNow": {"count": 0, "groups": [], "summary": "Nobody here"}, "specials": {"count": 0, "items": []}, "allowMenuUrlEdit": true, "location": {"city": "Stockholm", "cc": "SE", "country": "Sverige", "postalCode": "116 40", "state": "Storstockholm", "formattedAddress": ["Nytorgsgatan 30 (Kocksgatan)", "116 40 Stockholm", "Sverige"], "crossStreet": "Kocksgatan", "address": "Nytorgsgatan 30", "lat": 59.31456254187587, "lng": 18.081624382136905}, "verified": false, "id": "530725e711d2fb9f13a039d6", "categories": [{"pluralName": "Scandinavian Restaurants", "primary": true, "name": "Scandinavian Restaurant", "shortName": "Scandinavian", "id": "4bf58dd8d48988d1c6941735", "icon": {"prefix": "https://ss3.4sqi.net/img/categories_v2/food/scandinavian_", "suffix": ".png"}}]}, {"stats": {"tipCount": 84, "checkinsCount": 6513, "usersCount": 3354}, "name": "Riche", "referralId": "v-1446971991", "venueChains": [], "hereNow": {"count": 0, "groups": [], "summary": "Nobody here"}, "specials": {"count": 0, "items": []}, "allowMenuUrlEdit": true, "location": {"city": "Stockholm", "cc": "SE", "country": "Sverige", "postalCode": "114 34", "state": "Storstockholm", "formattedAddress": ["Birger Jarlsgatan 4", "114 34 Stockholm", "Sverige"], "address": "Birger Jarlsgatan 4", "lat": 59.333692864020875, "lng": 18.075374364852905}, "verified": false, "id": "4adcdaebf964a520b45921e3", "categories": [{"pluralName": "Scandinavian Restaurants", "primary": true, "name": "Scandinavian Restaurant", "shortName": "Scandinavian", "id": "4bf58dd8d48988d1c6941735", "icon": {"prefix": "https://ss3.4sqi.net/img/categories_v2/food/scandinavian_", "suffix": ".png"}}]}, {"stats": {"tipCount": 125, "checkinsCount": 3968, "usersCount": 1771}, "name": "Drop Coffee", "referralId": "v-1446971991", "venueChains": [], "hereNow": {"count": 0, "groups": [], "summary": "Nobody here"}, "specials": {"count": 0, "items": []}, "allowMenuUrlEdit": true, "location": {"city": "Stockholm", "cc": "SE", "country": "Sverige", "postalCode": "118 50", "state": "Storstockholm", "formattedAddress": ["Wollmar Yxkullsgatan 10 (Swedenborgsgatan)", "118 50 Stockholm", "Sverige"], "crossStreet": "Swedenborgsgatan", "address": "Wollmar Yxkullsgatan 10", "lat": 59.316836, "lng": 18.062894}, "verified": false, "id": "4af290f1f964a520efe721e3", "categories": [{"pluralName": "Coffee Shops", "primary": true, "name": "Coffee Shop", "shortName": "Coffee Shop", "id": "4bf58dd8d48988d1e0931735", "icon": {"prefix": "https://ss3.4sqi.net/img/categories_v2/food/coffeeshop_", "suffix": ".png"}}]}, {"stats": {"tipCount": 59, "checkinsCount": 2689, "usersCount": 1453}, "name": "Taverna Brillo", "referralId": "v-1446971991", "venueChains": [], "hereNow": {"count": 0, "groups": [], "summary": "Nobody here"}, "specials": {"count": 0, "items": []}, "allowMenuUrlEdit": true, "location": {"city": "Stockholm", "cc": "SE", "country": "Sverige", "postalCode": "114 46", "state": "Storstockholm", "formattedAddress": ["Sturegatan 6 (Humleg\u00e5rdsgatan 19)", "114 46 Stockholm", "Sverige"], "crossStreet": "Humleg\u00e5rdsgatan 19", "address": "Sturegatan 6", "lat": 59.336713331936764, "lng": 18.073410987854004}, "verified": false, "id": "50be39d0e4b027c60c11c205", "categories": [{"pluralName": "Italian Restaurants", "primary": true, "name": "Italian Restaurant", "shortName": "Italian", "id": "4bf58dd8d48988d110941735", "icon": {"prefix": "https://ss3.4sqi.net/img/categories_v2/food/italian_", "suffix": ".png"}}]}, {"stats": {"tipCount": 104, "checkinsCount": 3167, "usersCount": 1370}, "name": "La Neta", "referralId": "v-1446971991", "venueChains": [], "hereNow": {"count": 0, "groups": [], "summary": "Nobody here"}, "specials": {"count": 0, "items": []}, "allowMenuUrlEdit": true, "location": {"city": "Stockholm", "cc": "SE", "country": "Sverige", "postalCode": "111 23", "state": "Storstockholm", "formattedAddress": ["Barnhusgatan 2", "111 23 Stockholm", "Sverige"], "address": "Barnhusgatan 2", "lat": 59.33653775096132, "lng": 18.058275706781124}, "verified": true, "id": "4af7f9e2f964a520a40a22e3", "categories": [{"pluralName": "Mexican Restaurants", "primary": true, "name": "Mexican Restaurant", "shortName": "Mexican", "id": "4bf58dd8d48988d1c1941735", "icon": {"prefix": "https://ss3.4sqi.net/img/categories_v2/food/mexican_", "suffix": ".png"}}]}, {"stats": {"tipCount": 7, "checkinsCount": 2979, "usersCount": 379}, "name": "Folkuniversitetet Stockholm", "referralId": "v-1446971991", "venueChains": [], "hereNow": {"count": 0, "groups": [], "summary": "Nobody here"}, "specials": {"count": 0, "items": []}, "allowMenuUrlEdit": true, "location": {"city": "Stockholm", "cc": "SE", "country": "Sverige", "state": "Storstockholm", "formattedAddress": ["Kungstensgatan 45", "Stockholm", "Sverige"], "address": "Kungstensgatan 45", "lat": 59.340610332147506, "lng": 18.055594740851674}, "verified": false, "id": "4bbae7137421a5936947c440", "categories": [{"pluralName": "College Academic Buildings", "primary": true, "name": "College Academic Building", "shortName": "Academic Building", "id": "4bf58dd8d48988d198941735", "icon": {"prefix": "https://ss3.4sqi.net/img/categories_v2/education/academicbuilding_", "suffix": ".png"}}]}, {"stats": {"tipCount": 5, "checkinsCount": 578, "usersCount": 460}, "name": "Starbucks", "referralId": "v-1446971991", "venueChains": [{"id": "556f676fbd6a75a99038d8ec"}], "hereNow": {"count": 0, "groups": [], "summary": "Nobody here"}, "specials": {"count": 0, "items": []}, "allowMenuUrlEdit": true, "location": {"city": "Stockholm", "cc": "SE", "country": "Sverige", "postalCode": "111 47", "state": "Storstockholm", "formattedAddress": ["Hamngatan 33 (Regeringsgatan)", "111 47 Stockholm", "Sverige"], "crossStreet": "Regeringsgatan", "address": "Hamngatan 33", "lat": 59.33216424060451, "lng": 18.068270293575555}, "verified": false, "id": "54bcfcc3498ea0b8417f2eb2", "categories": [{"pluralName": "Coffee Shops", "primary": true, "name": "Coffee Shop", "shortName": "Coffee Shop", "id": "4bf58dd8d48988d1e0931735", "icon": {"prefix": "https://ss3.4sqi.net/img/categories_v2/food/coffeeshop_", "suffix": ".png"}}]}, {"stats": {"tipCount": 65, "checkinsCount": 4472, "usersCount": 1269}, "name": "Oliver Twist", "referralId": "v-1446971991", "venueChains": [], "hereNow": {"count": 0, "groups": [], "summary": "Nobody here"}, "specials": {"count": 0, "items": []}, "allowMenuUrlEdit": true, "location": {"city": "Stockholm", "cc": "SE", "country": "Sverige", "postalCode": "118 46", "state": "Storstockholm", "formattedAddress": ["Repslagargatan 6 (Sankt Paulsgatan)", "118 46 Stockholm", "Sverige"], "crossStreet": "Sankt Paulsgatan", "address": "Repslagargatan 6", "lat": 59.31829086940623, "lng": 18.069870471954346}, "verified": false, "id": "4c49b0669f2ad13ae72ba353", "categories": [{"pluralName": "Pubs", "primary": true, "name": "Pub", "shortName": "Pub", "id": "4bf58dd8d48988d11b941735", "icon": {"prefix": "https://ss3.4sqi.net/img/categories_v2/nightlife/pub_", "suffix": ".png"}}]}, {"stats": {"tipCount": 129, "checkinsCount": 1660, "usersCount": 1060}, "name": "Flippin' Burgers", "referralId": "v-1446971991", "venueChains": [], "hereNow": {"count": 0, "groups": [], "summary": "Nobody here"}, "specials": {"count": 0, "items": []}, "allowMenuUrlEdit": true, "location": {"city": "Stockholm", "cc": "SE", "country": "Sverige", "postalCode": "113 29", "state": "Storstockholm", "formattedAddress": ["Observatoriegatan 8 (Upplandsgatan)", "113 29 Stockholm", "Sverige"], "crossStreet": "Upplandsgatan", "address": "Observatoriegatan 8", "lat": 59.34065266912383, "lng": 18.05077314376831}, "verified": false, "id": "528e762f11d295ab1ee6fae6", "categories": [{"pluralName": "Burger Joints", "primary": true, "name": "Burger Joint", "shortName": "Burgers", "id": "4bf58dd8d48988d16c941735", "icon": {"prefix": "https://ss3.4sqi.net/img/categories_v2/food/burger_", "suffix": ".png"}}]}, {"stats": {"tipCount": 69, "checkinsCount": 4237, "usersCount": 2559}, "name": "Vapiano", "referralId": "v-1446971991", "venueChains": [], "hereNow": {"count": 0, "groups": [], "summary": "Nobody here"}, "specials": {"count": 0, "items": []}, "allowMenuUrlEdit": true, "location": {"city": "Stockholm", "cc": "SE", "country": "Sverige", "postalCode": "114 27", "state": "Storstockholm", "formattedAddress": ["Munkbrogatan 8", "114 27 Stockholm", "Sverige"], "address": "Munkbrogatan 8", "lat": 59.323424949963645, "lng": 18.06778169717108}, "verified": false, "id": "4adcdaf1f964a520a15b21e3", "categories": [{"pluralName": "Italian Restaurants", "primary": true, "name": "Italian Restaurant", "shortName": "Italian", "id": "4bf58dd8d48988d110941735", "icon": {"prefix": "https://ss3.4sqi.net/img/categories_v2/food/italian_", "suffix": ".png"}}]}]}}