{"meta": {"code": 200, "requestId": "563f0a57498e8cb6b7326ed0"}, "response": {"confident": true, "geocode": {"parents": [], "what": "", "where": "vienna", "feature": {"highlightedName": "<b>Vienna</b>, Austria", "displayName": "Vienna, Austria", "name": "Vienna", "longId": "72057594040689305", "cc": "AT", "id": "geonameid:2761369", "geometry": {"center": {"lat": 48.20849, "lng": 16.37208}, "bounds": {"sw": {"lat": 48.12015900020249, "lng": 16.160952025013152}, "ne": {"lat": 48.326004961050515, "lng": 16.61571399473434}}}, "matchedName": "Vienna, Austria", "woeType": 7, "slug": "vienna-austria"}}, "venues": [{"stats": {"tipCount": 50, "checkinsCount": 3381, "usersCount": 2921}, "name": "Aida Caf\u00e9", "referralId": "v-1446971991", "venueChains": [], "hereNow": {"count": 0, "groups": [], "summary": "Nobody here"}, "specials": {"count": 0, "items": []}, "allowMenuUrlEdit": true, "location": {"city": "Wien", "cc": "AT", "country": "\u00d6sterreich", "postalCode": "1010", "state": "Wien", "formattedAddress": ["Singerstr. 1", "1010 Wien", "\u00d6sterreich"], "address": "Singerstr. 1", "lat": 48.20801238438377, "lng": 16.37177421380021}, "venuePage": {"id": "76924309"}, "verified": true, "id": "4b939600f964a520424934e3", "categories": [{"pluralName": "Caf\u00e9s", "primary": true, "name": "Caf\u00e9", "shortName": "Caf\u00e9", "id": "4bf58dd8d48988d16d941735", "icon": {"prefix": "https://ss3.4sqi.net/img/categories_v2/food/cafe_", "suffix": ".png"}}]}, {"stats": {"tipCount": 58, "checkinsCount": 3338, "usersCount": 2446}, "name": "Caf\u00e9 de l'Europe", "referralId": "v-1446971991", "venueChains": [], "hereNow": {"count": 0, "groups": [], "summary": "Nobody here"}, "specials": {"count": 0, "items": []}, "allowMenuUrlEdit": true, "location": {"city": "Wien", "cc": "AT", "country": "\u00d6sterreich", "postalCode": "1010", "state": "Wien", "formattedAddress": ["Graben 31", "1010 Wien", "\u00d6sterreich"], "address": "Graben 31", "lat": 48.2082620800848, "lng": 16.370970818472518}, "verified": false, "id": "4b963f8df964a52051c234e3", "categories": [{"pluralName": "Caf\u00e9s", "primary": true, "name": "Caf\u00e9", "shortName": "Caf\u00e9", "id": "4bf58dd8d48988d16d941735", "icon": {"prefix": "https://ss3.4sqi.net/img/categories_v2/food/cafe_", "suffix": ".png"}}]}, {"stats": {"tipCount": 67, "checkinsCount": 3451, "usersCount": 3001}, "name": "Hard Rock Cafe Vienna", "referralId": "v-1446971991", "venueChains": [], "hereNow": {"count": 0, "groups": [], "summary": "Nobody here"}, "specials": {"count": 0, "items": []}, "allowMenuUrlEdit": true, "location": {"city": "Wien", "cc": "AT", "country": "\u00d6sterreich", "postalCode": "1010", "state": "Wien", "formattedAddress": ["Rotenturmstr. 25", "1010 Wien", "\u00d6sterreich"], "address": "Rotenturmstr. 25", "lat": 48.21136373983279, "lng": 16.375752389431}, "verified": false, "id": "534aa8ce498ecf32f55f8d1c", "categories": [{"pluralName": "American Restaurants", "primary": true, "name": "American Restaurant", "shortName": "American", "id": "4bf58dd8d48988d14e941735", "icon": {"prefix": "https://ss3.4sqi.net/img/categories_v2/food/default_", "suffix": ".png"}}]}, {"stats": {"tipCount": 186, "checkinsCount": 11955, "usersCount": 5001}, "name": "Motto am Fluss", "referralId": "v-1446971991", "venueChains": [], "hereNow": {"count": 0, "groups": [], "summary": "Nobody here"}, "specials": {"count": 0, "items": []}, "allowMenuUrlEdit": true, "location": {"city": "Wien", "cc": "AT", "country": "\u00d6sterreich", "postalCode": "1010", "state": "Wien", "formattedAddress": ["Schwedenplatz 2", "1010 Wien", "\u00d6sterreich"], "address": "Schwedenplatz 2", "lat": 48.21223418785364, "lng": 16.377525329589844}, "verified": false, "id": "4c39dab018e72d7ffccd1af5", "categories": [{"pluralName": "Restaurants", "primary": true, "name": "Restaurant", "shortName": "Restaurant", "id": "4bf58dd8d48988d1c4941735", "icon": {"prefix": "https://ss3.4sqi.net/img/categories_v2/food/default_", "suffix": ".png"}}]}, {"stats": {"tipCount": 80, "checkinsCount": 4797, "usersCount": 2369}, "name": "Vapiano", "referralId": "v-1446971991", "venueChains": [{"id": "5569febda7c8896abe7dc844"}], "hereNow": {"count": 0, "groups": [], "summary": "Nobody here"}, "specials": {"count": 0, "items": []}, "allowMenuUrlEdit": true, "location": {"city": "Wien", "cc": "AT", "country": "\u00d6sterreich", "postalCode": "1010", "state": "Wien", "formattedAddress": ["Herrengasse 6-8", "1010 Wien", "\u00d6sterreich"], "address": "Herrengasse 6-8", "lat": 48.20959545, "lng": 16.366285}, "verified": true, "id": "4b55d69df964a52040f227e3", "categories": [{"pluralName": "Italian Restaurants", "primary": true, "name": "Italian Restaurant", "shortName": "Italian", "id": "4bf58dd8d48988d110941735", "icon": {"prefix": "https://ss3.4sqi.net/img/categories_v2/food/italian_", "suffix": ".png"}}]}, {"stats": {"tipCount": 569, "checkinsCount": 19964, "usersCount": 17464}, "name": "Caf\u00e9 Sacher", "referralId": "v-1446971991", "venueChains": [], "hereNow": {"count": 0, "groups": [], "summary": "Nobody here"}, "specials": {"count": 0, "items": []}, "allowMenuUrlEdit": true, "location": {"city": "Wien", "cc": "AT", "country": "\u00d6sterreich", "postalCode": "1010", "state": "Wien", "formattedAddress": ["Philharmonikerstr. 4", "1010 Wien", "\u00d6sterreich"], "address": "Philharmonikerstr. 4", "lat": 48.20383070959851, "lng": 16.37019947347177}, "verified": false, "id": "4b064b09f964a5206dea22e3", "categories": [{"pluralName": "Caf\u00e9s", "primary": true, "name": "Caf\u00e9", "shortName": "Caf\u00e9", "id": "4bf58dd8d48988d16d941735", "icon": {"prefix": "https://ss3.4sqi.net/img/categories_v2/food/cafe_", "suffix": ".png"}}]}, {"stats": {"tipCount": 122, "checkinsCount": 5879, "usersCount": 3300}, "name": "Zanoni & Zanoni", "referralId": "v-1446971991", "venueChains": [], "hereNow": {"count": 0, "groups": [], "summary": "Nobody here"}, "specials": {"count": 0, "items": []}, "allowMenuUrlEdit": true, "location": {"city": "Wien", "cc": "AT", "country": "\u00d6sterreich", "postalCode": "1010", "state": "Wien", "formattedAddress": ["Lugeck 7 (Rotenturmstr.)", "1010 Wien", "\u00d6sterreich"], "crossStreet": "Rotenturmstr.", "address": "Lugeck 7", "lat": 48.2100106731847, "lng": 16.374183297157288}, "verified": false, "id": "4b058890f964a520cacd22e3", "categories": [{"pluralName": "Ice Cream Shops", "primary": true, "name": "Ice Cream Shop", "shortName": "Ice Cream", "id": "4bf58dd8d48988d1c9941735", "icon": {"prefix": "https://ss3.4sqi.net/img/categories_v2/food/icecream_", "suffix": ".png"}}]}, {"stats": {"tipCount": 178, "checkinsCount": 5758, "usersCount": 4803}, "name": "Caf\u00e9 Hawelka", "referralId": "v-1446971991", "venueChains": [], "hereNow": {"count": 0, "groups": [], "summary": "Nobody here"}, "specials": {"count": 0, "items": []}, "allowMenuUrlEdit": true, "location": {"city": "Wien", "cc": "AT", "country": "\u00d6sterreich", "postalCode": "1010", "state": "Wien", "formattedAddress": ["Dorotheergasse 6", "1010 Wien", "\u00d6sterreich"], "address": "Dorotheergasse 6", "lat": 48.207894, "lng": 16.369937}, "verified": false, "id": "4b058890f964a520aecd22e3", "categories": [{"pluralName": "Caf\u00e9s", "primary": true, "name": "Caf\u00e9", "shortName": "Caf\u00e9", "id": "4bf58dd8d48988d16d941735", "icon": {"prefix": "https://ss3.4sqi.net/img/categories_v2/food/cafe_", "suffix": ".png"}}]}, {"stats": {"tipCount": 198, "checkinsCount": 7839, "usersCount": 5835}, "name": "Caf\u00e9 Landtmann", "referralId": "v-1446971991", "venueChains": [], "hereNow": {"count": 0, "groups": [], "summary": "Nobody here"}, "specials": {"count": 0, "items": []}, "allowMenuUrlEdit": true, "location": {"city": "Wien", "cc": "AT", "country": "\u00d6sterreich", "postalCode": "1010", "state": "Wien", "formattedAddress": ["Universit\u00e4tsring 4 (L\u00f6welstr.)", "1010 Wien", "\u00d6sterreich"], "crossStreet": "L\u00f6welstr.", "address": "Universit\u00e4tsring 4", "lat": 48.21150494287856, "lng": 16.36135697364807}, "verified": false, "id": "4b058890f964a520a8cd22e3", "categories": [{"pluralName": "Caf\u00e9s", "primary": true, "name": "Caf\u00e9", "shortName": "Caf\u00e9", "id": "4bf58dd8d48988d16d941735", "icon": {"prefix": "https://ss3.4sqi.net/img/categories_v2/food/cafe_", "suffix": ".png"}}]}, {"stats": {"tipCount": 151, "checkinsCount": 5285, "usersCount": 4125}, "name": "Palmenhaus", "referralId": "v-1446971991", "venueChains": [], "hereNow": {"count": 0, "groups": [], "summary": "Nobody here"}, "specials": {"count": 0, "items": []}, "allowMenuUrlEdit": true, "location": {"city": "Wien", "cc": "AT", "country": "\u00d6sterreich", "postalCode": "1010", "state": "Wien", "formattedAddress": ["Burggarten 1", "1010 Wien", "\u00d6sterreich"], "address": "Burggarten 1", "lat": 48.20494842118902, "lng": 16.36691987514496}, "verified": false, "id": "4b058890f964a520b7cd22e3", "categories": [{"pluralName": "Restaurants", "primary": true, "name": "Restaurant", "shortName": "Restaurant", "id": "4bf58dd8d48988d1c4941735", "icon": {"prefix": "https://ss3.4sqi.net/img/categories_v2/food/default_", "suffix": ".png"}}]}, {"stats": {"tipCount": 210, "checkinsCount": 7879, "usersCount": 6814}, "name": "Caf\u00e9 Mozart", "referralId": "v-1446971991", "venueChains": [], "hereNow": {"count": 0, "groups": [], "summary": "Nobody here"}, "specials": {"count": 0, "items": []}, "allowMenuUrlEdit": true, "location": {"city": "Wien", "cc": "AT", "country": "\u00d6sterreich", "postalCode": "1010", "state": "Wien", "formattedAddress": ["Albertinaplatz 2", "1010 Wien", "\u00d6sterreich"], "address": "Albertinaplatz 2", "lat": 48.20437964635808, "lng": 16.36896624141941}, "verified": false, "id": "4b058890f964a520a9cd22e3", "categories": [{"pluralName": "Caf\u00e9s", "primary": true, "name": "Caf\u00e9", "shortName": "Caf\u00e9", "id": "4bf58dd8d48988d16d941735", "icon": {"prefix": "https://ss3.4sqi.net/img/categories_v2/food/cafe_", "suffix": ".png"}}]}, {"stats": {"tipCount": 50, "checkinsCount": 4797, "usersCount": 2332}, "name": "Flanagans Irish Pub", "referralId": "v-1446971991", "venueChains": [], "hereNow": {"count": 0, "groups": [], "summary": "Nobody here"}, "specials": {"count": 0, "items": []}, "allowMenuUrlEdit": true, "location": {"city": "Wien", "cc": "AT", "country": "\u00d6sterreich", "postalCode": "1010", "state": "Wien", "formattedAddress": ["Schwarzenbergstr. 1-3", "1010 Wien", "\u00d6sterreich"], "address": "Schwarzenbergstr. 1-3", "lat": 48.203061977929735, "lng": 16.37375480645901}, "verified": false, "id": "4b058891f964a520ebcd22e3", "categories": [{"pluralName": "Irish Pubs", "primary": true, "name": "Irish Pub", "shortName": "Irish", "id": "52e81612bcbc57f1066b7a06", "icon": {"prefix": "https://ss3.4sqi.net/img/categories_v2/nightlife/pub_", "suffix": ".png"}}]}, {"stats": {"tipCount": 119, "checkinsCount": 5058, "usersCount": 3926}, "name": "SKY", "referralId": "v-1446971991", "venueChains": [], "storeId": "", "hereNow": {"count": 0, "groups": [], "summary": "Nobody here"}, "specials": {"count": 0, "items": []}, "allowMenuUrlEdit": true, "location": {"city": "Wien", "cc": "AT", "country": "\u00d6sterreich", "postalCode": "1010", "state": "Wien", "formattedAddress": ["K\u00e4rntner Str. 19", "1010 Wien", "\u00d6sterreich"], "address": "K\u00e4rntner Str. 19", "lat": 48.20650820580177, "lng": 16.37202668386856}, "venuePage": {"id": "78538271"}, "verified": true, "id": "4b058891f964a5200bce22e3", "categories": [{"pluralName": "Cocktail Bars", "primary": true, "name": "Cocktail Bar", "shortName": "Cocktail", "id": "4bf58dd8d48988d11e941735", "icon": {"prefix": "https://ss3.4sqi.net/img/categories_v2/nightlife/cocktails_", "suffix": ".png"}}]}, {"stats": {"tipCount": 100, "checkinsCount": 11886, "usersCount": 6976}, "name": "Starbucks", "referralId": "v-1446971991", "venueChains": [{"id": "556f676fbd6a75a99038d8ec"}], "hereNow": {"count": 0, "groups": [], "summary": "Nobody here"}, "specials": {"count": 0, "items": []}, "allowMenuUrlEdit": true, "location": {"city": "Wien", "cc": "AT", "country": "\u00d6sterreich", "postalCode": "1010", "state": "Wien", "formattedAddress": ["K\u00e4rntner Str. 49", "1010 Wien", "\u00d6sterreich"], "address": "K\u00e4rntner Str. 49", "lat": 48.203664903495046, "lng": 16.370455026626587}, "verified": false, "id": "4b064a90f964a52069ea22e3", "categories": [{"pluralName": "Coffee Shops", "primary": true, "name": "Coffee Shop", "shortName": "Coffee Shop", "id": "4bf58dd8d48988d1e0931735", "icon": {"prefix": "https://ss3.4sqi.net/img/categories_v2/food/coffeeshop_", "suffix": ".png"}}]}, {"stats": {"tipCount": 296, "checkinsCount": 9514, "usersCount": 8396}, "name": "Demel \u2013 K.u.K. Hofzuckerb\u00e4cker", "referralId": "v-1446971991", "venueChains": [], "hereNow": {"count": 0, "groups": [], "summary": "Nobody here"}, "specials": {"count": 0, "items": []}, "allowMenuUrlEdit": true, "location": {"city": "Wien", "cc": "AT", "country": "\u00d6sterreich", "postalCode": "1010", "state": "Wien", "formattedAddress": ["Kohlmarkt 14 (Michaelerplatz)", "1010 Wien", "\u00d6sterreich"], "crossStreet": "Michaelerplatz", "address": "Kohlmarkt 14", "lat": 48.20849801234758, "lng": 16.36729039324885}, "verified": false, "id": "4b058890f964a520b1cd22e3", "categories": [{"pluralName": "Dessert Shops", "primary": true, "name": "Dessert Shop", "shortName": "Desserts", "id": "4bf58dd8d48988d1d0941735", "icon": {"prefix": "https://ss3.4sqi.net/img/categories_v2/food/dessert_", "suffix": ".png"}}]}, {"stats": {"tipCount": 57, "checkinsCount": 1266, "usersCount": 467}, "name": "Coffee Pirates", "referralId": "v-1446971991", "venueChains": [], "hereNow": {"count": 0, "groups": [], "summary": "Nobody here"}, "specials": {"count": 0, "items": []}, "allowMenuUrlEdit": true, "location": {"city": "Wien", "cc": "AT", "country": "\u00d6sterreich", "postalCode": "1090", "state": "Wien", "formattedAddress": ["Spitalgasse 17", "1090 Wien", "\u00d6sterreich"], "address": "Spitalgasse 17", "lat": 48.217218862161786, "lng": 16.35116202036147}, "verified": false, "id": "5045f805e4b0334ed9dc9f7b", "categories": [{"pluralName": "Caf\u00e9s", "primary": true, "name": "Caf\u00e9", "shortName": "Caf\u00e9", "id": "4bf58dd8d48988d16d941735", "icon": {"prefix": "https://ss3.4sqi.net/img/categories_v2/food/cafe_", "suffix": ".png"}}]}, {"stats": {"tipCount": 9, "checkinsCount": 1164, "usersCount": 473}, "name": "Cafe Afro", "referralId": "v-1446971991", "venueChains": [], "hereNow": {"count": 0, "groups": [], "summary": "Nobody here"}, "specials": {"count": 0, "items": []}, "allowMenuUrlEdit": true, "location": {"city": "Wien", "cc": "AT", "country": "\u00d6sterreich", "postalCode": "1090", "state": "Wien", "formattedAddress": ["T\u00fcrkenstra\u00dfe 3", "1090 Wien", "\u00d6sterreich"], "address": "T\u00fcrkenstra\u00dfe 3", "lat": 48.21655370397537, "lng": 16.360382656844774}, "verified": false, "id": "4bbf3eef98f49521514ad263", "categories": [{"pluralName": "College Cafeterias", "primary": true, "name": "College Cafeteria", "shortName": "Cafeteria", "id": "4bf58dd8d48988d1a1941735", "icon": {"prefix": "https://ss3.4sqi.net/img/categories_v2/education/cafeteria_", "suffix": ".png"}}]}, {"stats": {"tipCount": 615, "checkinsCount": 17335, "usersCount": 13922}, "name": "Figlm\u00fcller", "referralId": "v-1446971991", "venueChains": [], "hereNow": {"count": 0, "groups": [], "summary": "Nobody here"}, "specials": {"count": 0, "items": []}, "allowMenuUrlEdit": true, "location": {"city": "Wien", "cc": "AT", "country": "\u00d6sterreich", "postalCode": "1010", "state": "Wien", "formattedAddress": ["Wollzeile 5", "1010 Wien", "\u00d6sterreich"], "address": "Wollzeile 5", "lat": 48.209338595087765, "lng": 16.3746178150177}, "verified": false, "id": "4b058896f964a5203ecf22e3", "categories": [{"pluralName": "Austrian Restaurants", "primary": true, "name": "Austrian Restaurant", "shortName": "Austrian", "id": "52e81612bcbc57f1066b7a01", "icon": {"prefix": "https://ss3.4sqi.net/img/categories_v2/food/austrian_", "suffix": ".png"}}]}, {"stats": {"tipCount": 162, "checkinsCount": 10193, "usersCount": 4757}, "name": "Freiraum", "referralId": "v-1446971991", "venueChains": [], "hereNow": {"count": 0, "groups": [], "summary": "Nobody here"}, "specials": {"count": 0, "items": []}, "allowMenuUrlEdit": true, "location": {"city": "Wien", "cc": "AT", "country": "\u00d6sterreich", "postalCode": "1060", "state": "Wien", "formattedAddress": ["Mariahilfer Str. 117", "1060 Wien", "\u00d6sterreich"], "address": "Mariahilfer Str. 117", "lat": 48.196331432149776, "lng": 16.343214511871338}, "verified": false, "id": "4b08150ff964a520720323e3", "categories": [{"pluralName": "Restaurants", "primary": true, "name": "Restaurant", "shortName": "Restaurant", "id": "4bf58dd8d48988d1c4941735", "icon": {"prefix": "https://ss3.4sqi.net/img/categories_v2/food/default_", "suffix": ".png"}}]}, {"stats": {"tipCount": 40, "checkinsCount": 3331, "usersCount": 1399}, "name": "Vapiano", "referralId": "v-1446971991", "venueChains": [], "hereNow": {"count": 0, "groups": [], "summary": "Nobody here"}, "specials": {"count": 0, "items": []}, "allowMenuUrlEdit": true, "location": {"city": "Wien", "cc": "AT", "country": "\u00d6sterreich", "postalCode": "1030", "state": "Wien", "formattedAddress": ["Landstra\u00dfer Hauptstr. 1d (Invalidenstr.)", "1030 Wien", "\u00d6sterreich"], "crossStreet": "Invalidenstr.", "address": "Landstra\u00dfer Hauptstr. 1d", "lat": 48.20589761229912, "lng": 16.385200594659782}, "verified": false, "id": "516d553ae4b07872cd671f23", "categories": [{"pluralName": "Italian Restaurants", "primary": true, "name": "Italian Restaurant", "shortName": "Italian", "id": "4bf58dd8d48988d110941735", "icon": {"prefix": "https://ss3.4sqi.net/img/categories_v2/food/italian_", "suffix": ".png"}}]}, {"stats": {"tipCount": 201, "checkinsCount": 4829, "usersCount": 3875}, "name": "Salm Br\u00e4u", "referralId": "v-1446971991", "venueChains": [], "hereNow": {"count": 0, "groups": [], "summary": "Nobody here"}, "specials": {"count": 0, "items": []}, "allowMenuUrlEdit": true, "location": {"city": "Wien", "cc": "AT", "country": "\u00d6sterreich", "postalCode": "1030", "state": "Wien", "formattedAddress": ["Rennweg 8", "1030 Wien", "\u00d6sterreich"], "address": "Rennweg 8", "lat": 48.196771500000004, "lng": 16.381034933333336}, "verified": false, "id": "4bd490cbcfa7b713e75824da", "categories": [{"pluralName": "Breweries", "primary": true, "name": "Brewery", "shortName": "Brewery", "id": "50327c8591d4c4b30a586d5d", "icon": {"prefix": "https://ss3.4sqi.net/img/categories_v2/food/brewery_", "suffix": ".png"}}]}, {"stats": {"tipCount": 413, "checkinsCount": 11771, "usersCount": 9667}, "name": "Caf\u00e9 Central", "referralId": "v-1446971991", "venueChains": [], "hereNow": {"count": 0, "groups": [], "summary": "Nobody here"}, "specials": {"count": 0, "items": []}, "allowMenuUrlEdit": true, "location": {"city": "Wien", "cc": "AT", "country": "\u00d6sterreich", "postalCode": "1010", "state": "Wien", "formattedAddress": ["Herrengasse 14 (Strauchg.)", "1010 Wien", "\u00d6sterreich"], "crossStreet": "Strauchg.", "address": "Herrengasse 14", "lat": 48.21028236182674, "lng": 16.365433931350708}, "verified": false, "id": "4b058890f964a520afcd22e3", "categories": [{"pluralName": "Caf\u00e9s", "primary": true, "name": "Caf\u00e9", "shortName": "Caf\u00e9", "id": "4bf58dd8d48988d16d941735", "icon": {"prefix": "https://ss3.4sqi.net/img/categories_v2/food/cafe_", "suffix": ".png"}}]}, {"stats": {"tipCount": 25, "checkinsCount": 2629, "usersCount": 1139}, "name": "Starbucks", "referralId": "v-1446971991", "venueChains": [], "hereNow": {"count": 0, "groups": [], "summary": "Nobody here"}, "specials": {"count": 0, "items": []}, "allowMenuUrlEdit": true, "location": {"city": "Wien", "cc": "AT", "country": "\u00d6sterreich", "state": "Wien", "formattedAddress": ["Schottengasse 9 (M\u00f6lker Bastei)", "Wien", "\u00d6sterreich"], "crossStreet": "M\u00f6lker Bastei", "address": "Schottengasse 9", "lat": 48.213192199782476, "lng": 16.36292338371277}, "verified": false, "id": "503240e5e4b021f7a662abf3", "categories": [{"pluralName": "Coffee Shops", "primary": true, "name": "Coffee Shop", "shortName": "Coffee Shop", "id": "4bf58dd8d48988d1e0931735", "icon": {"prefix": "https://ss3.4sqi.net/img/categories_v2/food/coffeeshop_", "suffix": ".png"}}]}, {"stats": {"tipCount": 86, "checkinsCount": 1934, "usersCount": 1066}, "name": "Ulrich", "referralId": "v-1446971991", "venueChains": [], "hereNow": {"count": 0, "groups": [], "summary": "Nobody here"}, "specials": {"count": 0, "items": []}, "allowMenuUrlEdit": true, "location": {"city": "Wien", "cc": "AT", "country": "\u00d6sterreich", "postalCode": "1070", "state": "Wien", "formattedAddress": ["St.-Ulrichs-Platz 1", "1070 Wien", "\u00d6sterreich"], "address": "St.-Ulrichs-Platz 1", "lat": 48.20445503936286, "lng": 16.35286509990692}, "verified": false, "id": "52b091f8498e7fe6ad126d04", "categories": [{"pluralName": "Restaurants", "primary": true, "name": "Restaurant", "shortName": "Restaurant", "id": "4bf58dd8d48988d1c4941735", "icon": {"prefix": "https://ss3.4sqi.net/img/categories_v2/food/default_", "suffix": ".png"}}]}, {"stats": {"tipCount": 246, "checkinsCount": 5258, "usersCount": 4284}, "name": "Plachutta", "referralId": "v-1446971991", "venueChains": [], "hereNow": {"count": 0, "groups": [], "summary": "Nobody here"}, "specials": {"count": 0, "items": []}, "allowMenuUrlEdit": true, "location": {"city": "Wien", "cc": "AT", "country": "\u00d6sterreich", "postalCode": "1010", "state": "Wien", "formattedAddress": ["Wollzeile 38", "1010 Wien", "\u00d6sterreich"], "address": "Wollzeile 38", "lat": 48.20751893512194, "lng": 16.378791332244873}, "verified": false, "id": "4b058896f964a52018cf22e3", "categories": [{"pluralName": "Austrian Restaurants", "primary": true, "name": "Austrian Restaurant", "shortName": "Austrian", "id": "52e81612bcbc57f1066b7a01", "icon": {"prefix": "https://ss3.4sqi.net/img/categories_v2/food/austrian_", "suffix": ".png"}}]}, {"stats": {"tipCount": 196, "checkinsCount": 5526, "usersCount": 5164}, "name": "Figlm\u00fcller", "referralId": "v-1446971991", "venueChains": [], "hereNow": {"count": 0, "groups": [], "summary": "Nobody here"}, "specials": {"count": 0, "items": []}, "allowMenuUrlEdit": true, "location": {"city": "Wien", "cc": "AT", "country": "\u00d6sterreich", "postalCode": "1010", "state": "Wien", "formattedAddress": ["B\u00e4ckerstra\u00dfe 6", "1010 Wien", "\u00d6sterreich"], "address": "B\u00e4ckerstra\u00dfe 6", "lat": 48.20931714564157, "lng": 16.375540494918823}, "verified": false, "id": "52f651bf498e274f7d6af263", "categories": [{"pluralName": "Austrian Restaurants", "primary": true, "name": "Austrian Restaurant", "shortName": "Austrian", "id": "52e81612bcbc57f1066b7a01", "icon": {"prefix": "https://ss3.4sqi.net/img/categories_v2/food/austrian_", "suffix": ".png"}}]}, {"stats": {"tipCount": 67, "checkinsCount": 3652, "usersCount": 2013}, "name": "Vapiano Moulin Rouge", "referralId": "v-1446971991", "venueChains": [], "hereNow": {"count": 0, "groups": [], "summary": "Nobody here"}, "specials": {"count": 0, "items": []}, "allowMenuUrlEdit": true, "location": {"city": "Wien", "cc": "AT", "country": "\u00d6sterreich", "postalCode": "1010", "state": "Wien", "formattedAddress": ["Walfischgasse 11 (Akademiestra\u00dfe)", "1010 Wien", "\u00d6sterreich"], "crossStreet": "Akademiestra\u00dfe", "address": "Walfischgasse 11", "lat": 48.20340161464225, "lng": 16.37153414868391}, "verified": false, "id": "50e5c5f4e4b0bb011d18d0d5", "categories": [{"pluralName": "Italian Restaurants", "primary": true, "name": "Italian Restaurant", "shortName": "Italian", "id": "4bf58dd8d48988d110941735", "icon": {"prefix": "https://ss3.4sqi.net/img/categories_v2/food/italian_", "suffix": ".png"}}]}, {"stats": {"tipCount": 148, "checkinsCount": 12517, "usersCount": 9900}, "name": "Albertina", "referralId": "v-1446971991", "venueChains": [], "hereNow": {"count": 0, "groups": [], "summary": "Nobody here"}, "specials": {"count": 0, "items": []}, "allowMenuUrlEdit": true, "location": {"city": "Wien", "cc": "AT", "country": "\u00d6sterreich", "postalCode": "1010", "state": "Wien", "formattedAddress": ["Albertinaplatz 1", "1010 Wien", "\u00d6sterreich"], "address": "Albertinaplatz 1", "lat": 48.20452829305903, "lng": 16.368544564182006}, "verified": false, "id": "4b058894f964a520c4ce22e3", "categories": [{"pluralName": "Museums", "primary": true, "name": "Museum", "shortName": "Museum", "id": "4bf58dd8d48988d181941735", "icon": {"prefix": "https://ss3.4sqi.net/img/categories_v2/arts_entertainment/museum_", "suffix": ".png"}}]}, {"stats": {"tipCount": 81, "checkinsCount": 8280, "usersCount": 4246}, "name": "Starbucks", "referralId": "v-1446971991", "venueChains": [{"id": "556f676fbd6a75a99038d8ec"}], "hereNow": {"count": 0, "groups": [], "summary": "Nobody here"}, "specials": {"count": 0, "items": []}, "allowMenuUrlEdit": true, "location": {"city": "Wien", "cc": "AT", "country": "\u00d6sterreich", "postalCode": "1060", "state": "Wien", "formattedAddress": ["Mariahilfer Stra\u00dfe 23 - 25", "1060 Wien", "\u00d6sterreich"], "address": "Mariahilfer Stra\u00dfe 23 - 25", "lat": 48.20095878352103, "lng": 16.358510615188504}, "verified": false, "id": "4b065a39f964a5200deb22e3", "categories": [{"pluralName": "Coffee Shops", "primary": true, "name": "Coffee Shop", "shortName": "Coffee Shop", "id": "4bf58dd8d48988d1e0931735", "icon": {"prefix": "https://ss3.4sqi.net/img/categories_v2/food/coffeeshop_", "suffix": ".png"}}]}, {"stats": {"tipCount": 138, "checkinsCount": 3891, "usersCount": 2073}, "name": "phil", "referralId": "v-1446971991", "venueChains": [{"id": "556e5175bd6a82902e281df9"}], "storeId": "", "hereNow": {"count": 0, "groups": [], "summary": "Nobody here"}, "specials": {"count": 0, "items": []}, "allowMenuUrlEdit": true, "location": {"city": "Wien", "cc": "AT", "country": "\u00d6sterreich", "postalCode": "1060", "state": "Wien", "formattedAddress": ["Gumpendorfer Str. 10-12", "1060 Wien", "\u00d6sterreich"], "address": "Gumpendorfer Str. 10-12", "lat": 48.200244, "lng": 16.361222299999998}, "verified": true, "id": "4af9b000f964a520561322e3", "categories": [{"pluralName": "Caf\u00e9s", "primary": true, "name": "Caf\u00e9", "shortName": "Caf\u00e9", "id": "4bf58dd8d48988d16d941735", "icon": {"prefix": "https://ss3.4sqi.net/img/categories_v2/food/cafe_", "suffix": ".png"}}]}]}}