{"meta": {"code": 200, "requestId": "563ef8b0498eb5a53905a4d6"}, "response": {"confident": true, "geocode": {"parents": [], "what": "", "where": "berlin", "feature": {"highlightedName": "<b>Berlin</b>, Germany", "displayName": "Berlin, Germany", "name": "Berlin", "longId": "72057594040878095", "cc": "DE", "id": "geonameid:2950159", "geometry": {"center": {"lat": 52.52437, "lng": 13.41053}, "bounds": {"sw": {"lat": 52.33858497674041, "lng": 13.088542091271195}, "ne": {"lat": 52.675075983544005, "lng": 13.757081929101975}}}, "matchedName": "Berlin, Germany", "woeType": 7, "slug": "berlin"}}, "venues": [{"stats": {"tipCount": 105, "checkinsCount": 6074, "usersCount": 3318}, "name": "Park Inn by Radisson Berlin Alexanderplatz", "referralId": "v-1446967472", "venueChains": [{"id": "5569f417a7c8896abe7c7698"}], "storeId": "BGER", "hereNow": {"count": 0, "groups": [], "summary": "Nobody here"}, "specials": {"count": 0, "items": []}, "allowMenuUrlEdit": true, "location": {"city": "Berlin", "cc": "DE", "country": "Deutschland", "postalCode": "10178", "state": "Berlin", "formattedAddress": ["Alexanderplatz 7", "10178 Berlin", "Deutschland"], "address": "Alexanderplatz 7", "lat": 52.52276232628325, "lng": 13.412772417068481}, "verified": true, "id": "4adcda72f964a520434521e3", "categories": [{"pluralName": "Hotels", "primary": true, "name": "Hotel", "shortName": "Hotel", "id": "4bf58dd8d48988d1fa931735", "icon": {"prefix": "https://ss3.4sqi.net/img/categories_v2/travel/hotel_", "suffix": ".png"}}]}, {"stats": {"tipCount": 5, "checkinsCount": 163, "usersCount": 99}, "name": "Hotel Amano Grand Central", "referralId": "v-1446967472", "venueChains": [], "hereNow": {"count": 0, "groups": [], "summary": "Nobody here"}, "specials": {"count": 0, "items": []}, "allowMenuUrlEdit": true, "location": {"city": "Berlin", "cc": "DE", "country": "Deutschland", "postalCode": "10557", "state": "Berlin", "formattedAddress": ["Heidestr. 62", "10557 Berlin", "Deutschland"], "address": "Heidestr. 62", "lat": 52.52710918614925, "lng": 13.370455463908947}, "verified": false, "id": "55a02598498ebf3dbd6cb07c", "categories": [{"pluralName": "Hotels", "primary": true, "name": "Hotel", "shortName": "Hotel", "id": "4bf58dd8d48988d1fa931735", "icon": {"prefix": "https://ss3.4sqi.net/img/categories_v2/travel/hotel_", "suffix": ".png"}}]}, {"stats": {"tipCount": 42, "checkinsCount": 2660, "usersCount": 1008}, "name": "Hampton by Hilton Berlin City West", "referralId": "v-1446967472", "venueChains": [], "storeId": "44290", "hereNow": {"count": 1, "groups": [{"count": 1, "items": [], "type": "others", "name": "Other people here"}], "summary": "One other person is here"}, "specials": {"count": 0, "items": []}, "allowMenuUrlEdit": true, "location": {"city": "Berlin", "cc": "DE", "country": "Deutschland", "postalCode": "10623", "state": "Berlin", "formattedAddress": ["Uhlandstr. 188-189", "10623 Berlin", "Deutschland"], "address": "Uhlandstr. 188-189", "lat": 52.50487141526092, "lng": 13.325899265075368}, "verified": false, "id": "4cacf3f22f08236af9289061", "categories": [{"pluralName": "Hotels", "primary": true, "name": "Hotel", "shortName": "Hotel", "id": "4bf58dd8d48988d1fa931735", "icon": {"prefix": "https://ss3.4sqi.net/img/categories_v2/travel/hotel_", "suffix": ".png"}}]}, {"stats": {"tipCount": 65, "checkinsCount": 6605, "usersCount": 2986}, "name": "Hilton Berlin", "referralId": "v-1446967472", "venueChains": [{"id": "556e146fa7c82e6b725097d5"}], "storeId": "BERHITW", "hereNow": {"count": 1, "groups": [{"count": 1, "items": [], "type": "others", "name": "Other people here"}], "summary": "One other person is here"}, "specials": {"count": 0, "items": []}, "allowMenuUrlEdit": true, "location": {"city": "Berlin", "cc": "DE", "country": "Deutschland", "postalCode": "10117", "state": "Berlin", "formattedAddress": ["Mohrenstr. 30 (Gendarmenmarkt)", "10117 Berlin", "Deutschland"], "crossStreet": "Gendarmenmarkt", "address": "Mohrenstr. 30", "lat": 52.51226770768346, "lng": 13.392589368604591}, "verified": true, "id": "4adcda72f964a5202a4521e3", "categories": [{"pluralName": "Hotels", "primary": true, "name": "Hotel", "shortName": "Hotel", "id": "4bf58dd8d48988d1fa931735", "icon": {"prefix": "https://ss3.4sqi.net/img/categories_v2/travel/hotel_", "suffix": ".png"}}]}, {"stats": {"tipCount": 81, "checkinsCount": 6694, "usersCount": 3469}, "name": "Radisson Blu Hotel Berlin", "referralId": "v-1446967472", "venueChains": [{"id": "556c9c7ca7c87f637869f5c1"}], "storeId": "BGMY", "hereNow": {"count": 1, "groups": [{"count": 1, "items": [], "type": "others", "name": "Other people here"}], "summary": "One other person is here"}, "specials": {"count": 0, "items": []}, "allowMenuUrlEdit": true, "location": {"city": "Berlin", "cc": "DE", "country": "Deutschland", "postalCode": "10178", "state": "Berlin", "formattedAddress": ["Karl-Liebknecht-Str. 3", "10178 Berlin", "Deutschland"], "address": "Karl-Liebknecht-Str. 3", "lat": 52.519315449552046, "lng": 13.402934074401855}, "verified": true, "id": "4b24db17f964a5202f6a24e3", "categories": [{"pluralName": "Hotels", "primary": true, "name": "Hotel", "shortName": "Hotel", "id": "4bf58dd8d48988d1fa931735", "icon": {"prefix": "https://ss3.4sqi.net/img/categories_v2/travel/hotel_", "suffix": ".png"}}]}, {"stats": {"tipCount": 21, "checkinsCount": 2488, "usersCount": 1147}, "name": "Pullman Berlin Schweizerhof", "referralId": "v-1446967472", "venueChains": [], "hereNow": {"count": 0, "groups": [], "summary": "Nobody here"}, "specials": {"count": 0, "items": []}, "allowMenuUrlEdit": true, "location": {"city": "Berlin", "cc": "DE", "country": "Deutschland", "postalCode": "10787", "state": "Berlin", "formattedAddress": ["Budapester Str. 25", "10787 Berlin", "Deutschland"], "address": "Budapester Str. 25", "lat": 52.50591706514499, "lng": 13.343946933746338}, "verified": false, "id": "4adcda71f964a520144521e3", "categories": [{"pluralName": "Hotels", "primary": true, "name": "Hotel", "shortName": "Hotel", "id": "4bf58dd8d48988d1fa931735", "icon": {"prefix": "https://ss3.4sqi.net/img/categories_v2/travel/hotel_", "suffix": ".png"}}]}, {"stats": {"tipCount": 37, "checkinsCount": 2053, "usersCount": 969}, "name": "Leonardo Royal Hotel", "referralId": "v-1446967472", "venueChains": [{"id": "5569ee50a7c8896abe7bc621"}], "hereNow": {"count": 0, "groups": [], "summary": "Nobody here"}, "specials": {"count": 0, "items": []}, "allowMenuUrlEdit": true, "location": {"city": "Berlin", "cc": "DE", "country": "Deutschland", "postalCode": "10249", "state": "Berlin", "formattedAddress": ["Otto-Braun-Str. 90", "10249 Berlin", "Deutschland"], "address": "Otto-Braun-Str. 90", "lat": 52.52725664348485, "lng": 13.423185392439493}, "verified": true, "id": "4b29fab2f964a52088a424e3", "categories": [{"pluralName": "Hotels", "primary": true, "name": "Hotel", "shortName": "Hotel", "id": "4bf58dd8d48988d1fa931735", "icon": {"prefix": "https://ss3.4sqi.net/img/categories_v2/travel/hotel_", "suffix": ".png"}}]}, {"stats": {"tipCount": 33, "checkinsCount": 2804, "usersCount": 1306}, "name": "Crowne Plaza Berlin City Centre", "referralId": "v-1446967472", "venueChains": [{"id": "556ce747aceaff43eb056899"}], "storeId": "BERCC", "hereNow": {"count": 0, "groups": [], "summary": "Nobody here"}, "specials": {"count": 1, "items": [{"redemption": "webview", "description": "", "unlocked": true, "photo": {"suffix": "/29043111_yf-NVg5911unEtY8-K8NcWyaHflmFoWmNviuwAu33-4.jpg", "height": 1712, "width": 2288, "prefix": "https://irs1.4sqi.net/img/general/", "id": "52b498ba498edba6baf0c7f7", "createdAt": 1387567290}, "title": "Special", "state": "unlocked", "interaction": {"entryUrl": "https://foursquare.com/device/specials/52b498ba498e535ee907a499?venueId=4adcda70f964a520f24421e3"}, "provider": "foursquare", "message": "Danke f\u00fcr Deinen Check-in bei uns. Genie\u00dfe einen kostenfreien Kaffee an unserer Lobby Bar.\n +++++++++++++++++++++ \nThanks for checking in. Enjoy a free coffee at our Lobby Bar.", "type": "frequency", "id": "52b498ba498e535ee907a499", "icon": "default"}]}, "allowMenuUrlEdit": true, "location": {"city": "Berlin", "cc": "DE", "country": "Deutschland", "postalCode": "10787", "state": "Berlin", "formattedAddress": ["N\u00fcrnberger Stra\u00dfe 65", "10787 Berlin", "Deutschland"], "address": "N\u00fcrnberger Stra\u00dfe 65", "lat": 52.50396116008892, "lng": 13.340870440006256}, "verified": true, "id": "4adcda70f964a520f24421e3", "categories": [{"pluralName": "Hotels", "primary": true, "name": "Hotel", "shortName": "Hotel", "id": "4bf58dd8d48988d1fa931735", "icon": {"prefix": "https://ss3.4sqi.net/img/categories_v2/travel/hotel_", "suffix": ".png"}}]}, {"stats": {"tipCount": 21, "checkinsCount": 2514, "usersCount": 1419}, "name": "Novotel Berlin am Tiergarten", "referralId": "v-1446967472", "venueChains": [], "hereNow": {"count": 0, "groups": [], "summary": "Nobody here"}, "specials": {"count": 0, "items": []}, "allowMenuUrlEdit": true, "location": {"city": "Berlin", "cc": "DE", "country": "Deutschland", "postalCode": "10623", "state": "Berlin", "formattedAddress": ["Strasse des 17. Juni 106-108 (Bachstr.)", "10623 Berlin", "Deutschland"], "crossStreet": "Bachstr.", "address": "Strasse des 17. Juni 106-108", "lat": 52.514101751096305, "lng": 13.335357496472485}, "verified": false, "id": "4bc7795893bdeee12c6c37ae", "categories": [{"pluralName": "Hotels", "primary": true, "name": "Hotel", "shortName": "Hotel", "id": "4bf58dd8d48988d1fa931735", "icon": {"prefix": "https://ss3.4sqi.net/img/categories_v2/travel/hotel_", "suffix": ".png"}}]}, {"stats": {"tipCount": 32, "checkinsCount": 2617, "usersCount": 1245}, "name": "Motel One Berlin-Hauptbahnhof", "referralId": "v-1446967472", "venueChains": [], "hereNow": {"count": 0, "groups": [], "summary": "Nobody here"}, "specials": {"count": 0, "items": []}, "allowMenuUrlEdit": true, "location": {"city": "Berlin", "cc": "DE", "country": "Deutschland", "postalCode": "10557", "state": "Berlin", "formattedAddress": ["Invalidenstr. 54", "10557 Berlin", "Deutschland"], "address": "Invalidenstr. 54", "lat": 52.52559293158345, "lng": 13.36592243024794}, "verified": false, "id": "4dd6f909cc3f75159f1cd1c3", "categories": [{"pluralName": "Hotels", "primary": true, "name": "Hotel", "shortName": "Hotel", "id": "4bf58dd8d48988d1fa931735", "icon": {"prefix": "https://ss3.4sqi.net/img/categories_v2/travel/hotel_", "suffix": ".png"}}]}, {"stats": {"tipCount": 46, "checkinsCount": 3352, "usersCount": 1901}, "name": "one80\u00b0 Hostel", "referralId": "v-1446967472", "venueChains": [], "hereNow": {"count": 0, "groups": [], "summary": "Nobody here"}, "specials": {"count": 0, "items": []}, "allowMenuUrlEdit": true, "location": {"city": "Berlin", "cc": "DE", "country": "Deutschland", "postalCode": "10178", "state": "Berlin", "formattedAddress": ["Otto-Braun-Str. 65", "10178 Berlin", "Deutschland"], "address": "Otto-Braun-Str. 65", "lat": 52.52389199430842, "lng": 13.417711700516273}, "verified": false, "id": "4fa4de89e4b0ac15cf4a8cf4", "categories": [{"pluralName": "Hostels", "primary": true, "name": "Hostel", "shortName": "Hostel", "id": "4bf58dd8d48988d1ee931735", "icon": {"prefix": "https://ss3.4sqi.net/img/categories_v2/travel/hostel_", "suffix": ".png"}}]}, {"stats": {"tipCount": 40, "checkinsCount": 2340, "usersCount": 1254}, "name": "Titanic Comfort Mitte", "referralId": "v-1446967472", "venueChains": [{"id": "556f3fe5bd6a007c77382c96"}], "storeId": "", "hereNow": {"count": 0, "groups": [], "summary": "Nobody here"}, "specials": {"count": 0, "items": []}, "allowMenuUrlEdit": true, "location": {"city": "Berlin", "cc": "DE", "country": "Deutschland", "postalCode": "10117", "state": "Berlin", "formattedAddress": ["Elisabeth-Mara-Str. 4", "10117 Berlin", "Deutschland"], "address": "Elisabeth-Mara-Str. 4", "lat": 52.51021428035045, "lng": 13.40401845573207}, "verified": true, "id": "4d921ee49d0f721eebee2573", "categories": [{"pluralName": "Hotels", "primary": true, "name": "Hotel", "shortName": "Hotel", "id": "4bf58dd8d48988d1fa931735", "icon": {"prefix": "https://ss3.4sqi.net/img/categories_v2/travel/hotel_", "suffix": ".png"}}]}, {"stats": {"tipCount": 42, "checkinsCount": 6238, "usersCount": 2502}, "name": "Grand Hyatt", "referralId": "v-1446967472", "venueChains": [{"id": "5569f59aa7c8896abe7ca34c"}], "storeId": "BERGH", "hereNow": {"count": 0, "groups": [], "summary": "Nobody here"}, "specials": {"count": 0, "items": []}, "allowMenuUrlEdit": true, "location": {"city": "Berlin", "cc": "DE", "country": "Deutschland", "postalCode": "10785", "state": "Berlin", "formattedAddress": ["Marlene-Dietrich-Platz 2", "10785 Berlin", "Deutschland"], "address": "Marlene-Dietrich-Platz 2", "lat": 52.50788267836, "lng": 13.37253928184}, "verified": true, "id": "4adcda70f964a520f14421e3", "categories": [{"pluralName": "Hotels", "primary": true, "name": "Hotel", "shortName": "Hotel", "id": "4bf58dd8d48988d1fa931735", "icon": {"prefix": "https://ss3.4sqi.net/img/categories_v2/travel/hotel_", "suffix": ".png"}}]}, {"stats": {"tipCount": 33, "checkinsCount": 2848, "usersCount": 1456}, "name": "NH Berlin Mitte", "referralId": "v-1446967472", "venueChains": [{"id": "556ce426aceaff43eb04e8a4"}], "storeId": "190", "hereNow": {"count": 0, "groups": [], "summary": "Nobody here"}, "specials": {"count": 0, "items": []}, "allowMenuUrlEdit": true, "location": {"city": "Berlin", "neighborhood": "Mitte, Berlin", "cc": "DE", "country": "Deutschland", "postalCode": "10117", "state": "Berlin", "formattedAddress": ["Leipziger Str. 106-111", "10117 Berlin", "Deutschland"], "address": "Leipziger Str. 106-111", "lat": 52.51033006, "lng": 13.38869894}, "verified": true, "id": "4b58465ff964a520835028e3", "categories": [{"pluralName": "Hotels", "primary": true, "name": "Hotel", "shortName": "Hotel", "id": "4bf58dd8d48988d1fa931735", "icon": {"prefix": "https://ss3.4sqi.net/img/categories_v2/travel/hotel_", "suffix": ".png"}}]}, {"stats": {"tipCount": 75, "checkinsCount": 5717, "usersCount": 3044}, "name": "nhow Berlin", "referralId": "v-1446967472", "venueChains": [{"id": "556ce426aceaff43eb04e8a4"}], "storeId": "458", "hereNow": {"count": 0, "groups": [], "summary": "Nobody here"}, "specials": {"count": 0, "items": []}, "allowMenuUrlEdit": true, "location": {"city": "Berlin", "cc": "DE", "country": "Deutschland", "postalCode": "10245", "state": "Berlin", "formattedAddress": ["Stralauer Allee 3", "10245 Berlin", "Deutschland"], "address": "Stralauer Allee 3", "lat": 52.50130203, "lng": 13.45075141}, "verified": true, "id": "4c2884dc9eb19521f9862959", "categories": [{"pluralName": "Hotels", "primary": true, "name": "Hotel", "shortName": "Hotel", "id": "4bf58dd8d48988d1fa931735", "icon": {"prefix": "https://ss3.4sqi.net/img/categories_v2/travel/hotel_", "suffix": ".png"}}]}, {"stats": {"tipCount": 14, "checkinsCount": 1163, "usersCount": 445}, "name": "Golden Tulip Berlin - Hotel Hamburg", "referralId": "v-1446967472", "venueChains": [], "storeId": "", "hereNow": {"count": 0, "groups": [], "summary": "Nobody here"}, "specials": {"count": 0, "items": []}, "allowMenuUrlEdit": true, "location": {"city": "Berlin", "cc": "DE", "country": "Deutschland", "postalCode": "10787", "state": "Berlin", "formattedAddress": ["Landgrafenstr. 4", "10787 Berlin", "Deutschland"], "address": "Landgrafenstr. 4", "lat": 52.5041786810356, "lng": 13.348739145363277}, "venuePage": {"id": "43749082"}, "verified": true, "id": "4be1d8daedbb0f47b0e2a615", "categories": [{"pluralName": "Hotels", "primary": true, "name": "Hotel", "shortName": "Hotel", "id": "4bf58dd8d48988d1fa931735", "icon": {"prefix": "https://ss3.4sqi.net/img/categories_v2/travel/hotel_", "suffix": ".png"}}]}, {"stats": {"tipCount": 51, "checkinsCount": 2215, "usersCount": 1271}, "name": "Generator Hostel Berlin Mitte", "referralId": "v-1446967472", "venueChains": [{"id": "556f40b3bd6a007c7738482d"}], "storeId": "", "hereNow": {"count": 0, "groups": [], "summary": "Nobody here"}, "specials": {"count": 0, "items": []}, "allowMenuUrlEdit": true, "location": {"city": "Berlin", "cc": "DE", "country": "Deutschland", "postalCode": "10117", "state": "Berlin", "formattedAddress": ["Oranienburger Str. 65", "10117 Berlin", "Deutschland"], "address": "Oranienburger Str. 65", "lat": 52.52500592173804, "lng": 13.391249920026594}, "verified": true, "id": "51369b11e4b04f7259d9854e", "categories": [{"pluralName": "Hostels", "primary": true, "name": "Hostel", "shortName": "Hostel", "id": "4bf58dd8d48988d1ee931735", "icon": {"prefix": "https://ss3.4sqi.net/img/categories_v2/travel/hostel_", "suffix": ".png"}}]}, {"stats": {"tipCount": 74, "checkinsCount": 7364, "usersCount": 3247}, "name": "The Ritz-Carlton, Berlin", "referralId": "v-1446967472", "venueChains": [{"id": "556f4350bd6a007c773894a9"}], "storeId": "BERZT", "hereNow": {"count": 0, "groups": [], "summary": "Nobody here"}, "specials": {"count": 0, "items": []}, "allowMenuUrlEdit": true, "location": {"city": "Berlin", "cc": "DE", "country": "Deutschland", "postalCode": "10785", "state": "Berlin", "formattedAddress": ["Potsdamer Platz 3", "10785 Berlin", "Deutschland"], "address": "Potsdamer Platz 3", "lat": 52.51009960175125, "lng": 13.375495076179504}, "verified": true, "id": "4adcda72f964a520414521e3", "categories": [{"pluralName": "Hotels", "primary": true, "name": "Hotel", "shortName": "Hotel", "id": "4bf58dd8d48988d1fa931735", "icon": {"prefix": "https://ss3.4sqi.net/img/categories_v2/travel/hotel_", "suffix": ".png"}}]}, {"stats": {"tipCount": 125, "checkinsCount": 9039, "usersCount": 3818}, "name": "Michelberger Hotel", "referralId": "v-1446967472", "venueChains": [], "hereNow": {"count": 0, "groups": [], "summary": "Nobody here"}, "specials": {"count": 0, "items": []}, "allowMenuUrlEdit": true, "location": {"city": "Berlin", "cc": "DE", "country": "Deutschland", "postalCode": "10243", "state": "Berlin", "formattedAddress": ["Warschauer Str. 39-40", "10243 Berlin", "Deutschland"], "address": "Warschauer Str. 39-40", "lat": 52.50463708369732, "lng": 13.447922766208649}, "venuePage": {"id": "79322455"}, "verified": true, "id": "4aeae4aef964a52074bc21e3", "categories": [{"pluralName": "Hotels", "primary": true, "name": "Hotel", "shortName": "Hotel", "id": "4bf58dd8d48988d1fa931735", "icon": {"prefix": "https://ss3.4sqi.net/img/categories_v2/travel/hotel_", "suffix": ".png"}}]}, {"stats": {"tipCount": 45, "checkinsCount": 4157, "usersCount": 2008}, "name": "Berlin Marriott Hotel", "referralId": "v-1446967472", "venueChains": [], "storeId": "BERMC", "hereNow": {"count": 0, "groups": [], "summary": "Nobody here"}, "specials": {"count": 0, "items": []}, "allowMenuUrlEdit": true, "location": {"city": "Berlin", "cc": "DE", "country": "Deutschland", "postalCode": "10785", "state": "Berlin", "formattedAddress": ["Inge-Beisheim-Platz 1, BE", "10785 Berlin", "Deutschland"], "address": "Inge-Beisheim-Platz 1, BE", "lat": 52.51125862616153, "lng": 13.375774025917053}, "venuePage": {"id": "131925870"}, "verified": true, "id": "4b4e26f2f964a52020e326e3", "categories": [{"pluralName": "Hotels", "primary": true, "name": "Hotel", "shortName": "Hotel", "id": "4bf58dd8d48988d1fa931735", "icon": {"prefix": "https://ss3.4sqi.net/img/categories_v2/travel/hotel_", "suffix": ".png"}}]}, {"stats": {"tipCount": 85, "checkinsCount": 5808, "usersCount": 3949}, "name": "Bikini Berlin", "referralId": "v-1446967472", "venueChains": [], "storeId": "", "hereNow": {"count": 0, "groups": [], "summary": "Nobody here"}, "specials": {"count": 0, "items": []}, "allowMenuUrlEdit": true, "location": {"city": "Berlin", "cc": "DE", "country": "Deutschland", "postalCode": "10787", "state": "Berlin", "formattedAddress": ["Budapester Str. 38-50", "10787 Berlin", "Deutschland"], "address": "Budapester Str. 38-50", "lat": 52.50572115203315, "lng": 13.334698677062988}, "venuePage": {"id": "82829186"}, "verified": true, "id": "4c2ca45ff7acef3b9e9eed0c", "categories": [{"pluralName": "Malls", "primary": true, "name": "Mall", "shortName": "Mall", "id": "4bf58dd8d48988d1fd941735", "icon": {"prefix": "https://ss3.4sqi.net/img/categories_v2/shops/mall_", "suffix": ".png"}}]}, {"stats": {"tipCount": 27, "checkinsCount": 2347, "usersCount": 1270}, "name": "Hotel Meli\u00e1 Berlin", "referralId": "v-1446967472", "venueChains": [], "hereNow": {"count": 0, "groups": [], "summary": "Nobody here"}, "specials": {"count": 0, "items": []}, "allowMenuUrlEdit": true, "location": {"city": "Berlin", "cc": "DE", "country": "Deutschland", "postalCode": "10117", "state": "Berlin", "formattedAddress": ["Friedrichstr. 103 (Reichstagufer)", "10117 Berlin", "Deutschland"], "crossStreet": "Reichstagufer", "address": "Friedrichstr. 103", "lat": 52.52140071932526, "lng": 13.387935646532533}, "verified": false, "id": "4bd7d6155cf276b0bd209c00", "categories": [{"pluralName": "Hotels", "primary": true, "name": "Hotel", "shortName": "Hotel", "id": "4bf58dd8d48988d1fa931735", "icon": {"prefix": "https://ss3.4sqi.net/img/categories_v2/travel/hotel_", "suffix": ".png"}}]}, {"stats": {"tipCount": 42, "checkinsCount": 5298, "usersCount": 2507}, "name": "Estrel Hotel Berlin", "referralId": "v-1446967472", "venueChains": [], "storeId": "", "hereNow": {"count": 0, "groups": [], "summary": "Nobody here"}, "specials": {"count": 1, "items": [{"redemption": "webview", "description": "", "unlocked": true, "title": "Special", "state": "unlocked", "interaction": {"entryUrl": "https://foursquare.com/device/specials/4fec2f2939506eff02187203?venueId=4adcda6ef964a520d34421e3"}, "provider": "foursquare", "message": "Als Dankesch\u00f6n f\u00fcr Ihr Foursquare-CheckIn erhalten Sie von uns an der Rezeption - gegen Vorlage Ihrer Zimmerkarte - einen Gutschein f\u00fcr einen Welcome-Drink an der Atriumbar! Wir freuen uns auf Sie!", "type": "frequency", "id": "4fec2f2939506eff02187203", "icon": "default"}]}, "allowMenuUrlEdit": true, "location": {"city": "Berlin", "cc": "DE", "country": "Deutschland", "postalCode": "12057", "state": "Berlin", "formattedAddress": ["Sonnenallee 225", "12057 Berlin", "Deutschland"], "address": "Sonnenallee 225", "lat": 52.47373619613763, "lng": 13.459069521453715}, "venuePage": {"id": "33076914"}, "verified": true, "id": "4adcda6ef964a520d34421e3", "categories": [{"pluralName": "Hotels", "primary": true, "name": "Hotel", "shortName": "Hotel", "id": "4bf58dd8d48988d1fa931735", "icon": {"prefix": "https://ss3.4sqi.net/img/categories_v2/travel/hotel_", "suffix": ".png"}}]}, {"stats": {"tipCount": 60, "checkinsCount": 7438, "usersCount": 3170}, "name": "InterContinental Berlin", "referralId": "v-1446967472", "venueChains": [{"id": "556a48c3a7c8957d73d66814"}], "storeId": "BERHA", "hereNow": {"count": 0, "groups": [], "summary": "Nobody here"}, "specials": {"count": 0, "items": []}, "allowMenuUrlEdit": true, "location": {"city": "Berlin", "cc": "DE", "country": "Deutschland", "postalCode": "10787", "state": "Berlin", "formattedAddress": ["Budapester Stra\u00dfe 2", "10787 Berlin", "Deutschland"], "address": "Budapester Stra\u00dfe 2", "lat": 52.50741250645963, "lng": 13.345293402671814}, "verified": true, "id": "4adcda72f964a520284521e3", "categories": [{"pluralName": "Hotels", "primary": true, "name": "Hotel", "shortName": "Hotel", "id": "4bf58dd8d48988d1fa931735", "icon": {"prefix": "https://ss3.4sqi.net/img/categories_v2/travel/hotel_", "suffix": ".png"}}]}, {"stats": {"tipCount": 36, "checkinsCount": 3910, "usersCount": 1945}, "name": "andel's Hotel", "referralId": "v-1446967472", "venueChains": [{"id": "556e5c6fbd6a82902e2977ec"}], "storeId": "", "hereNow": {"count": 0, "groups": [], "summary": "Nobody here"}, "specials": {"count": 0, "items": []}, "allowMenuUrlEdit": true, "location": {"city": "Berlin", "cc": "DE", "country": "Deutschland", "postalCode": "10369", "state": "Berlin", "formattedAddress": ["Landsberger Allee 106", "10369 Berlin", "Deutschland"], "address": "Landsberger Allee 106", "lat": 52.528441249153516, "lng": 13.457350730895996}, "verified": true, "id": "4b910d7ef964a52022a133e3", "categories": [{"pluralName": "Hotels", "primary": true, "name": "Hotel", "shortName": "Hotel", "id": "4bf58dd8d48988d1fa931735", "icon": {"prefix": "https://ss3.4sqi.net/img/categories_v2/travel/hotel_", "suffix": ".png"}}]}, {"stats": {"tipCount": 14, "checkinsCount": 1604, "usersCount": 812}, "name": "A&O Berlin Hauptbahnhof", "referralId": "v-1446967472", "venueChains": [], "hereNow": {"count": 0, "groups": [], "summary": "Nobody here"}, "specials": {"count": 0, "items": []}, "allowMenuUrlEdit": true, "location": {"city": "Berlin", "cc": "DE", "country": "Deutschland", "postalCode": "10557", "state": "Berlin", "formattedAddress": ["Lehrter Str. 12", "10557 Berlin", "Deutschland"], "address": "Lehrter Str. 12", "lat": 52.52922895679954, "lng": 13.36373643944064}, "verified": false, "id": "4cd9bfacccf060fcb765ec83", "categories": [{"pluralName": "Hostels", "primary": true, "name": "Hostel", "shortName": "Hostel", "id": "4bf58dd8d48988d1ee931735", "icon": {"prefix": "https://ss3.4sqi.net/img/categories_v2/travel/hostel_", "suffix": ".png"}}]}, {"stats": {"tipCount": 71, "checkinsCount": 7736, "usersCount": 4142}, "name": "Hotel Adlon Kempinski Berlin", "referralId": "v-1446967472", "venueChains": [], "hereNow": {"count": 0, "groups": [], "summary": "Nobody here"}, "specials": {"count": 1, "items": [{"redemption": "webview", "description": "", "unlocked": true, "photo": {"suffix": "/78119702_4q9tobCgBg51GfSnrLXcUPxolDZJVzuSFxNAKt85yuw.jpg", "height": 996, "width": 1500, "prefix": "https://irs2.4sqi.net/img/general/", "id": "558fc509498ed41fc88067c0", "createdAt": 1435485449}, "title": "Special", "page": {"bio": "", "firstName": "Hotel Adlon Kempinski Berlin", "gender": "none", "venue": {"id": "4adcda72f964a520274521e3"}, "lists": {"groups": [{"count": 2, "items": [], "type": "created"}]}, "homeCity": "Berlin", "contact": {"twitter": "hoteladlon"}, "photo": {"prefix": "https://irs0.4sqi.net/img/user/", "suffix": "/78119702-GJDAKLXZKS1EW04M.png"}, "tips": {"count": 1}, "type": "venuePage", "id": "78119702"}, "state": "unlocked", "interaction": {"entryUrl": "https://foursquare.com/device/specials/558fc509498e0e638e66c745?venueId=4adcda72f964a520274521e3"}, "provider": "foursquare", "message": "Lassen Sie sich wie eine K\u00f6nigin oder ein K\u00f6nig verw\u00f6hnen.\nZelebrieren Sie unseren Royalen Afternoon Tea sowohl in der Lobby Lounge & Bar als auch auf der Bel Etage bei uns im Hotel Adlon Kempinski.", "type": "frequency", "id": "558fc509498e0e638e66c745", "icon": "default"}]}, "allowMenuUrlEdit": true, "location": {"city": "Berlin", "cc": "DE", "country": "Deutschland", "postalCode": "10117", "state": "Berlin", "formattedAddress": ["Unter den Linden 77", "10117 Berlin", "Deutschland"], "address": "Unter den Linden 77", "lat": 52.516175161666, "lng": 13.380264043807983}, "venuePage": {"id": "78119702"}, "verified": true, "id": "4adcda72f964a520274521e3", "categories": [{"pluralName": "Hotels", "primary": true, "name": "Hotel", "shortName": "Hotel", "id": "4bf58dd8d48988d1fa931735", "icon": {"prefix": "https://ss3.4sqi.net/img/categories_v2/travel/hotel_", "suffix": ".png"}}]}, {"stats": {"tipCount": 135, "checkinsCount": 20390, "usersCount": 5316}, "name": "Soho House", "referralId": "v-1446967472", "venueChains": [], "hereNow": {"count": 0, "groups": [], "summary": "Nobody here"}, "specials": {"count": 0, "items": []}, "allowMenuUrlEdit": true, "location": {"city": "Berlin", "cc": "DE", "country": "Deutschland", "postalCode": "10119", "state": "Berlin", "formattedAddress": ["Torstr. 1 (Prenzlauer Allee)", "10119 Berlin", "Deutschland"], "crossStreet": "Prenzlauer Allee", "address": "Torstr. 1", "lat": 52.527298996072496, "lng": 13.41566115617752}, "venuePage": {"id": "70512799"}, "verified": true, "id": "4bd889afe914a593ef7d53fa", "categories": [{"pluralName": "Hotels", "primary": true, "name": "Hotel", "shortName": "Hotel", "id": "4bf58dd8d48988d1fa931735", "icon": {"prefix": "https://ss3.4sqi.net/img/categories_v2/travel/hotel_", "suffix": ".png"}}]}, {"stats": {"tipCount": 75, "checkinsCount": 4669, "usersCount": 2114}, "name": "Hotel Berlin, Berlin", "referralId": "v-1446967472", "venueChains": [], "storeId": "1678969", "hereNow": {"count": 0, "groups": [], "summary": "Nobody here"}, "specials": {"count": 0, "items": []}, "allowMenuUrlEdit": true, "location": {"city": "Berlin", "cc": "DE", "country": "Deutschland", "postalCode": "10785", "state": "Berlin", "formattedAddress": ["L\u00fctzowplatz 17", "10785 Berlin", "Deutschland"], "address": "L\u00fctzowplatz 17", "lat": 52.503951364018214, "lng": 13.352047204971313}, "venuePage": {"id": "32859294"}, "verified": true, "id": "4b9f4095f964a520c71937e3", "categories": [{"pluralName": "Hotels", "primary": true, "name": "Hotel", "shortName": "Hotel", "id": "4bf58dd8d48988d1fa931735", "icon": {"prefix": "https://ss3.4sqi.net/img/categories_v2/travel/hotel_", "suffix": ".png"}}]}, {"stats": {"tipCount": 65, "checkinsCount": 5909, "usersCount": 2481}, "name": "The Westin Grand Berlin", "referralId": "v-1446967472", "venueChains": [{"id": "5569f417a7c8896abe7c7698"}], "storeId": "1105", "hereNow": {"count": 0, "groups": [], "summary": "Nobody here"}, "specials": {"count": 0, "items": []}, "allowMenuUrlEdit": true, "location": {"city": "Berlin", "cc": "DE", "country": "Deutschland", "postalCode": "10117", "state": "Berlin", "formattedAddress": ["Friedrichstr. 158-164 (Unter den Linden)", "10117 Berlin", "Deutschland"], "crossStreet": "Unter den Linden", "address": "Friedrichstr. 158-164", "lat": 52.51577689706123, "lng": 13.38860034942627}, "verified": true, "id": "4adcda72f964a520424521e3", "categories": [{"pluralName": "Hotels", "primary": true, "name": "Hotel", "shortName": "Hotel", "id": "4bf58dd8d48988d1fa931735", "icon": {"prefix": "https://ss3.4sqi.net/img/categories_v2/travel/hotel_", "suffix": ".png"}}]}]}}