{"meta": {"code": 200, "requestId": "563ef8b3498e3a6c01668520"}, "response": {"confident": true, "geocode": {"parents": [], "what": "", "where": "hamburg", "feature": {"highlightedName": "<b>Hamburg</b>, Germany", "displayName": "Hamburg, Germany", "name": "Hamburg", "longId": "72057594040839234", "cc": "DE", "id": "geonameid:2911298", "geometry": {"center": {"lat": 53.57532, "lng": 10.01534}, "bounds": {"sw": {"lat": 53.39622721654364, "lng": 9.696484518198359}, "ne": {"lat": 53.739755762060675, "lng": 10.405310521147769}}}, "matchedName": "Hamburg, Germany", "woeType": 7, "slug": "hamburg-germany"}}, "venues": [{"stats": {"tipCount": 9, "checkinsCount": 2485, "usersCount": 259}, "name": "Aspria Hamburg Uhlenhorst", "referralId": "v-1446967475", "venueChains": [{"id": "556e5d81bd6a82902e299aa0"}], "storeId": "", "hereNow": {"count": 0, "groups": [], "summary": "Nobody here"}, "specials": {"count": 0, "items": []}, "allowMenuUrlEdit": true, "location": {"city": "Hamburg", "cc": "DE", "country": "Deutschland", "postalCode": "22085", "state": "Hamburg", "formattedAddress": ["Hofweg 40", "22085 Hamburg", "Deutschland"], "address": "Hofweg 40", "lat": 53.5716321496211, "lng": 10.016498101823537}, "verified": true, "id": "4ef18f9e29c2e7e6d1745b24", "categories": [{"pluralName": "Spas", "primary": true, "name": "Spa", "shortName": "Spa", "id": "4bf58dd8d48988d1ed941735", "icon": {"prefix": "https://ss3.4sqi.net/img/categories_v2/shops/spa_", "suffix": ".png"}}]}, {"stats": {"tipCount": 2, "checkinsCount": 149, "usersCount": 70}, "name": "IntercityHotel Hamburg Dammtor-Messe", "referralId": "v-1446967475", "venueChains": [], "hereNow": {"count": 0, "groups": [], "summary": "Nobody here"}, "specials": {"count": 0, "items": []}, "allowMenuUrlEdit": true, "location": {"city": "Hamburg", "cc": "DE", "country": "Deutschland", "postalCode": "20355", "state": "Hamburg", "formattedAddress": ["St. Petersburger Str. 1", "20355 Hamburg", "Deutschland"], "address": "St. Petersburger Str. 1", "lat": 53.56012375023772, "lng": 9.981338673410368}, "venuePage": {"id": "107013881"}, "verified": true, "id": "548aced6498eb5ef0551b392", "categories": [{"pluralName": "Hotels", "primary": true, "name": "Hotel", "shortName": "Hotel", "id": "4bf58dd8d48988d1fa931735", "icon": {"prefix": "https://ss3.4sqi.net/img/categories_v2/travel/hotel_", "suffix": ".png"}}]}, {"stats": {"tipCount": 8, "checkinsCount": 318, "usersCount": 178}, "name": "Jugendherberge Auf dem Stintfang", "referralId": "v-1446967475", "venueChains": [], "hereNow": {"count": 0, "groups": [], "summary": "Nobody here"}, "specials": {"count": 0, "items": []}, "allowMenuUrlEdit": true, "location": {"city": "Hamburg", "cc": "DE", "country": "Deutschland", "postalCode": "20459", "state": "Hamburg", "formattedAddress": ["5 Alfred Wegener Weg", "20459 Hamburg", "Deutschland"], "address": "5 Alfred Wegener Weg", "lat": 53.54652340639748, "lng": 9.971756062629778}, "verified": false, "id": "4b058857f964a52044bf22e3", "categories": [{"pluralName": "Hostels", "primary": true, "name": "Hostel", "shortName": "Hostel", "id": "4bf58dd8d48988d1ee931735", "icon": {"prefix": "https://ss3.4sqi.net/img/categories_v2/travel/hostel_", "suffix": ".png"}}]}, {"stats": {"tipCount": 3, "checkinsCount": 154, "usersCount": 72}, "name": "Reichshof Hamburg, Curio Collection by Hilton", "referralId": "v-1446967475", "venueChains": [{"id": "5569f417a7c8896abe7c7698"}], "storeId": "RH", "hereNow": {"count": 0, "groups": [], "summary": "Nobody here"}, "specials": {"count": 0, "items": []}, "allowMenuUrlEdit": true, "location": {"city": "Hamburg", "cc": "DE", "country": "Deutschland", "postalCode": "20099", "state": "Hamburg", "formattedAddress": ["Kirchenallee 34-36", "20099 Hamburg", "Deutschland"], "address": "Kirchenallee 34-36", "lat": 53.554800035195434, "lng": 10.008459091186523}, "verified": true, "id": "5538fd3d498ee0f83592e5ed", "categories": [{"pluralName": "Hotels", "primary": true, "name": "Hotel", "shortName": "Hotel", "id": "4bf58dd8d48988d1fa931735", "icon": {"prefix": "https://ss3.4sqi.net/img/categories_v2/travel/hotel_", "suffix": ".png"}}]}, {"stats": {"tipCount": 32, "checkinsCount": 2555, "usersCount": 1078}, "name": "Motel One Hamburg-Alster", "referralId": "v-1446967475", "venueChains": [], "hereNow": {"count": 2, "groups": [{"count": 2, "items": [], "type": "others", "name": "Other people here"}], "summary": "2 people are here"}, "specials": {"count": 0, "items": []}, "allowMenuUrlEdit": true, "location": {"city": "Hamburg", "cc": "DE", "country": "Deutschland", "postalCode": "20099", "state": "Hamburg", "formattedAddress": ["Steindamm 96-102", "20099 Hamburg", "Deutschland"], "address": "Steindamm 96-102", "lat": 53.556728771397, "lng": 10.020153072801714}, "verified": false, "id": "4be16f3a8dd062b52f473e3c", "categories": [{"pluralName": "Hotels", "primary": true, "name": "Hotel", "shortName": "Hotel", "id": "4bf58dd8d48988d1fa931735", "icon": {"prefix": "https://ss3.4sqi.net/img/categories_v2/travel/hotel_", "suffix": ".png"}}]}, {"stats": {"tipCount": 23, "checkinsCount": 2687, "usersCount": 1453}, "name": "Radisson Blu Hotel Hamburg Airport", "referralId": "v-1446967475", "venueChains": [{"id": "556c9c7ca7c87f637869f5c1"}], "storeId": "HMBG", "hereNow": {"count": 1, "groups": [{"count": 1, "items": [], "type": "others", "name": "Other people here"}], "summary": "One other person is here"}, "specials": {"count": 1, "items": [{"redemption": "webview", "description": "", "unlocked": true, "photo": {"suffix": "/58078749_oZwMAWcaPk3kDigjnYEl9rGTpiZvMoWELf7EUAQCU6s.png", "height": 640, "width": 640, "prefix": "https://irs1.4sqi.net/img/general/", "id": "5603d6c6498ed234f64c92d7", "createdAt": 1443092166}, "title": "Special", "state": "unlocked", "interaction": {"entryUrl": "https://foursquare.com/device/specials/5603d6c6498e9fdf894930f2?venueId=4b78fca4f964a52030e82ee3"}, "provider": "foursquare", "message": "Join Club Carlson Rewards program and receive discounts on food and beverage purchases at Filini Restaurant! For more information please ask your waiter or at hotel reception.", "type": "frequency", "id": "5603d6c6498e9fdf894930f2", "icon": "default"}]}, "allowMenuUrlEdit": true, "location": {"city": "Hamburg", "cc": "DE", "country": "Deutschland", "postalCode": "22335", "state": "Hamburg", "formattedAddress": ["Flughafenstr. 1-3 (HAM Airport)", "22335 Hamburg", "Deutschland"], "crossStreet": "HAM Airport", "address": "Flughafenstr. 1-3", "lat": 53.63240804683101, "lng": 10.007711880177087}, "verified": true, "id": "4b78fca4f964a52030e82ee3", "categories": [{"pluralName": "Hotels", "primary": true, "name": "Hotel", "shortName": "Hotel", "id": "4bf58dd8d48988d1fa931735", "icon": {"prefix": "https://ss3.4sqi.net/img/categories_v2/travel/hotel_", "suffix": ".png"}}]}, {"stats": {"tipCount": 32, "checkinsCount": 2675, "usersCount": 1045}, "name": "Park Hyatt Hamburg", "referralId": "v-1446967475", "venueChains": [{"id": "5569f334a7c8896abe7c5867"}], "storeId": "HAMPH", "hereNow": {"count": 1, "groups": [{"count": 1, "items": [], "type": "others", "name": "Other people here"}], "summary": "One other person is here"}, "specials": {"count": 0, "items": []}, "allowMenuUrlEdit": true, "location": {"city": "Hamburg", "cc": "DE", "country": "Deutschland", "postalCode": "20095", "state": "Hamburg", "formattedAddress": ["Bugenhagenstrasse 8", "20095 Hamburg", "Deutschland"], "address": "Bugenhagenstrasse 8", "lat": 53.55073992, "lng": 10.00304639}, "verified": true, "id": "4b484b9bf964a520474b26e3", "categories": [{"pluralName": "Hotels", "primary": true, "name": "Hotel", "shortName": "Hotel", "id": "4bf58dd8d48988d1fa931735", "icon": {"prefix": "https://ss3.4sqi.net/img/categories_v2/travel/hotel_", "suffix": ".png"}}]}, {"stats": {"tipCount": 15, "checkinsCount": 1015, "usersCount": 556}, "name": "Motel One", "referralId": "v-1446967475", "venueChains": [], "hereNow": {"count": 0, "groups": [], "summary": "Nobody here"}, "specials": {"count": 0, "items": []}, "allowMenuUrlEdit": true, "location": {"city": "Hamburg", "cc": "DE", "country": "Deutschland", "postalCode": "22525", "state": "Hamburg", "formattedAddress": ["Kieler Str. 171", "22525 Hamburg", "Deutschland"], "address": "Kieler Str. 171", "lat": 53.574907, "lng": 9.938949}, "verified": false, "id": "4b51e56bf964a520325a27e3", "categories": [{"pluralName": "Hotels", "primary": true, "name": "Hotel", "shortName": "Hotel", "id": "4bf58dd8d48988d1fa931735", "icon": {"prefix": "https://ss3.4sqi.net/img/categories_v2/travel/hotel_", "suffix": ".png"}}]}, {"stats": {"tipCount": 8, "checkinsCount": 1048, "usersCount": 378}, "name": "Kogge Rock'n'Roll Hotel & Bar", "referralId": "v-1446967475", "venueChains": [], "hereNow": {"count": 0, "groups": [], "summary": "Nobody here"}, "specials": {"count": 0, "items": []}, "allowMenuUrlEdit": true, "location": {"city": "Hamburg", "cc": "DE", "country": "Deutschland", "postalCode": "20359", "state": "Hamburg", "formattedAddress": ["Bernhard-Nocht-Str. 59", "20359 Hamburg", "Deutschland"], "address": "Bernhard-Nocht-Str. 59", "lat": 53.54687596666667, "lng": 9.960847}, "verified": false, "id": "4aee12bbf964a520d5d121e3", "categories": [{"pluralName": "Bars", "primary": true, "name": "Bar", "shortName": "Bar", "id": "4bf58dd8d48988d116941735", "icon": {"prefix": "https://ss3.4sqi.net/img/categories_v2/nightlife/pub_", "suffix": ".png"}}]}, {"stats": {"tipCount": 18, "checkinsCount": 2355, "usersCount": 934}, "name": "Hamburg Marriott Hotel", "referralId": "v-1446967475", "venueChains": [], "storeId": "HAMDT", "hereNow": {"count": 0, "groups": [], "summary": "Nobody here"}, "specials": {"count": 0, "items": []}, "allowMenuUrlEdit": true, "location": {"city": "Hamburg", "cc": "DE", "country": "Deutschland", "postalCode": "20354", "state": "Hamburg", "formattedAddress": ["ABC Strasse 52", "20354 Hamburg", "Deutschland"], "address": "ABC Strasse 52", "lat": 53.55477772792394, "lng": 9.987350106239319}, "venuePage": {"id": "131918832"}, "verified": true, "id": "4c3c17b65418897cf1600803", "categories": [{"pluralName": "Hotels", "primary": true, "name": "Hotel", "shortName": "Hotel", "id": "4bf58dd8d48988d1fa931735", "icon": {"prefix": "https://ss3.4sqi.net/img/categories_v2/travel/hotel_", "suffix": ".png"}}]}, {"stats": {"tipCount": 42, "checkinsCount": 4353, "usersCount": 2002}, "name": "Radisson Blu Hotel Hamburg", "referralId": "v-1446967475", "venueChains": [{"id": "556c9c7ca7c87f637869f5c1"}], "storeId": "HAMB", "hereNow": {"count": 0, "groups": [], "summary": "Nobody here"}, "specials": {"count": 0, "items": []}, "allowMenuUrlEdit": true, "location": {"city": "Hamburg", "cc": "DE", "country": "Deutschland", "postalCode": "20355", "state": "Hamburg", "formattedAddress": ["Marseiller Str. 2 (Planten un Blomen)", "20355 Hamburg", "Deutschland"], "crossStreet": "Planten un Blomen", "address": "Marseiller Str. 2", "lat": 53.5612877652951, "lng": 9.98744666576385}, "verified": true, "id": "4b058857f964a52041bf22e3", "categories": [{"pluralName": "Hotels", "primary": true, "name": "Hotel", "shortName": "Hotel", "id": "4bf58dd8d48988d1fa931735", "icon": {"prefix": "https://ss3.4sqi.net/img/categories_v2/travel/hotel_", "suffix": ".png"}}]}, {"stats": {"tipCount": 19, "checkinsCount": 1710, "usersCount": 802}, "name": "Scandic Hamburg Emporio", "referralId": "v-1446967475", "venueChains": [], "hereNow": {"count": 0, "groups": [], "summary": "Nobody here"}, "specials": {"count": 0, "items": []}, "allowMenuUrlEdit": true, "location": {"city": "Hamburg", "cc": "DE", "country": "Deutschland", "postalCode": "20355", "state": "Hamburg", "formattedAddress": ["Dammtorwall 19", "20355 Hamburg", "Deutschland"], "address": "Dammtorwall 19", "lat": 53.55588855084181, "lng": 9.982641383382292}, "venuePage": {"id": "34215567"}, "verified": true, "id": "4f450568e4b0ba16939251b1", "categories": [{"pluralName": "Hotels", "primary": true, "name": "Hotel", "shortName": "Hotel", "id": "4bf58dd8d48988d1fa931735", "icon": {"prefix": "https://ss3.4sqi.net/img/categories_v2/travel/hotel_", "suffix": ".png"}}]}, {"stats": {"tipCount": 52, "checkinsCount": 3989, "usersCount": 1499}, "name": "Le M\u00e9ridien Hamburg", "referralId": "v-1446967475", "venueChains": [], "storeId": "1857", "hereNow": {"count": 0, "groups": [], "summary": "Nobody here"}, "specials": {"count": 0, "items": []}, "allowMenuUrlEdit": true, "location": {"city": "Hamburg", "cc": "DE", "country": "Deutschland", "postalCode": "20099", "state": "Hamburg", "formattedAddress": ["An der Alster 52-56", "20099 Hamburg", "Deutschland"], "address": "An der Alster 52-56", "lat": 53.5584950250416, "lng": 10.007629140736427}, "verified": true, "id": "4b0e7c3ff964a520e95723e3", "categories": [{"pluralName": "Hotels", "primary": true, "name": "Hotel", "shortName": "Hotel", "id": "4bf58dd8d48988d1fa931735", "icon": {"prefix": "https://ss3.4sqi.net/img/categories_v2/travel/hotel_", "suffix": ".png"}}]}, {"stats": {"tipCount": 12, "checkinsCount": 1408, "usersCount": 630}, "name": "Holiday Inn Hamburg", "referralId": "v-1446967475", "venueChains": [{"id": "556e0690a7c82e6b724e70a3"}], "storeId": "HAMHB", "hereNow": {"count": 0, "groups": [], "summary": "Nobody here"}, "specials": {"count": 0, "items": []}, "allowMenuUrlEdit": true, "location": {"city": "Hamburg", "cc": "DE", "country": "Deutschland", "postalCode": "20539", "state": "Hamburg", "formattedAddress": ["Billwerder Neuer Deich 14", "20539 Hamburg", "Deutschland"], "address": "Billwerder Neuer Deich 14", "lat": 53.536109247197, "lng": 10.03056989974084}, "verified": true, "id": "4ba2719af964a52088f937e3", "categories": [{"pluralName": "Hotels", "primary": true, "name": "Hotel", "shortName": "Hotel", "id": "4bf58dd8d48988d1fa931735", "icon": {"prefix": "https://ss3.4sqi.net/img/categories_v2/travel/hotel_", "suffix": ".png"}}]}, {"stats": {"tipCount": 19, "checkinsCount": 1700, "usersCount": 909}, "name": "M\u00f6venpick Hotel", "referralId": "v-1446967475", "venueChains": [{"id": "556f4530bd6a007c7738e4e0"}], "hereNow": {"count": 0, "groups": [], "summary": "Nobody here"}, "specials": {"count": 0, "items": []}, "allowMenuUrlEdit": true, "location": {"city": "Hamburg", "cc": "DE", "country": "Deutschland", "postalCode": "20357", "state": "Hamburg", "formattedAddress": ["Sternschanze 6", "20357 Hamburg", "Deutschland"], "address": "Sternschanze 6", "lat": 53.564602014743, "lng": 9.97079756266503}, "verified": true, "id": "4b2e5770f964a52085de24e3", "categories": [{"pluralName": "Hotels", "primary": true, "name": "Hotel", "shortName": "Hotel", "id": "4bf58dd8d48988d1fa931735", "icon": {"prefix": "https://ss3.4sqi.net/img/categories_v2/travel/hotel_", "suffix": ".png"}}]}, {"stats": {"tipCount": 18, "checkinsCount": 3059, "usersCount": 1472}, "name": "Grand Elys\u00e9e", "referralId": "v-1446967475", "venueChains": [], "hereNow": {"count": 0, "groups": [], "summary": "Nobody here"}, "specials": {"count": 0, "items": []}, "allowMenuUrlEdit": true, "location": {"city": "Hamburg", "cc": "DE", "country": "Deutschland", "postalCode": "20148", "state": "Hamburg", "formattedAddress": ["Rothenbaumchaussee 10", "20148 Hamburg", "Deutschland"], "address": "Rothenbaumchaussee 10", "lat": 53.56348304394085, "lng": 9.990348815917969}, "venuePage": {"id": "137158950"}, "verified": true, "id": "4b058857f964a52045bf22e3", "categories": [{"pluralName": "Hotels", "primary": true, "name": "Hotel", "shortName": "Hotel", "id": "4bf58dd8d48988d1fa931735", "icon": {"prefix": "https://ss3.4sqi.net/img/categories_v2/travel/hotel_", "suffix": ".png"}}]}, {"stats": {"tipCount": 31, "checkinsCount": 2521, "usersCount": 1177}, "name": "Sofitel Hamburg Alter Wall", "referralId": "v-1446967475", "venueChains": [{"id": "556ce2a7aceaff43eb04b490"}], "storeId": "", "hereNow": {"count": 0, "groups": [], "summary": "Nobody here"}, "specials": {"count": 0, "items": []}, "allowMenuUrlEdit": true, "location": {"city": "Hamburg", "cc": "DE", "country": "Deutschland", "postalCode": "20457", "state": "Hamburg", "formattedAddress": ["Alter Wall 40", "20457 Hamburg", "Deutschland"], "address": "Alter Wall 40", "lat": 53.54960212305864, "lng": 9.987967014312744}, "verified": true, "id": "4bd7a18d304fce72aec733ab", "categories": [{"pluralName": "Hotels", "primary": true, "name": "Hotel", "shortName": "Hotel", "id": "4bf58dd8d48988d1fa931735", "icon": {"prefix": "https://ss3.4sqi.net/img/categories_v2/travel/hotel_", "suffix": ".png"}}]}, {"stats": {"tipCount": 26, "checkinsCount": 1806, "usersCount": 758}, "name": "25hours Hotel Hamburg Number One", "referralId": "v-1446967475", "venueChains": [{"id": "556f3dd6bd6a007c7737ff19"}], "storeId": "", "hereNow": {"count": 0, "groups": [], "summary": "Nobody here"}, "specials": {"count": 0, "items": []}, "allowMenuUrlEdit": true, "location": {"city": "Hamburg", "cc": "DE", "country": "Deutschland", "postalCode": "22761", "state": "Hamburg", "formattedAddress": ["Paul-Dessau-Str. 2 (Mendelssohnstra\u00dfe)", "22761 Hamburg", "Deutschland"], "crossStreet": "Mendelssohnstra\u00dfe", "address": "Paul-Dessau-Str. 2", "lat": 53.563100710425225, "lng": 9.91590142250061}, "verified": true, "id": "4b1badcff964a52095fc23e3", "categories": [{"pluralName": "Hotels", "primary": true, "name": "Hotel", "shortName": "Hotel", "id": "4bf58dd8d48988d1fa931735", "icon": {"prefix": "https://ss3.4sqi.net/img/categories_v2/travel/hotel_", "suffix": ".png"}}]}, {"stats": {"tipCount": 30, "checkinsCount": 2574, "usersCount": 1486}, "name": "Hotel Atlantic Kempinski", "referralId": "v-1446967475", "venueChains": [], "hereNow": {"count": 0, "groups": [], "summary": "Nobody here"}, "specials": {"count": 0, "items": []}, "allowMenuUrlEdit": true, "location": {"city": "Hamburg", "cc": "DE", "country": "Deutschland", "postalCode": "20099", "state": "Hamburg", "formattedAddress": ["An der Alster 72-79", "20099 Hamburg", "Deutschland"], "address": "An der Alster 72-79", "lat": 53.55708487485428, "lng": 10.004768371582031}, "venuePage": {"id": "77440487"}, "verified": true, "id": "4b058857f964a5203cbf22e3", "categories": [{"pluralName": "Hotels", "primary": true, "name": "Hotel", "shortName": "Hotel", "id": "4bf58dd8d48988d1fa931735", "icon": {"prefix": "https://ss3.4sqi.net/img/categories_v2/travel/hotel_", "suffix": ".png"}}]}, {"stats": {"tipCount": 21, "checkinsCount": 1464, "usersCount": 624}, "name": "Crowne Plaza Hamburg - City Alster", "referralId": "v-1446967475", "venueChains": [{"id": "556ce747aceaff43eb056899"}], "storeId": "HAMGE", "hereNow": {"count": 0, "groups": [], "summary": "Nobody here"}, "specials": {"count": 0, "items": []}, "allowMenuUrlEdit": true, "location": {"city": "Hamburg", "cc": "DE", "country": "Deutschland", "postalCode": "22087", "state": "Hamburg", "formattedAddress": ["Graumannsweg 10", "22087 Hamburg", "Deutschland"], "address": "Graumannsweg 10", "lat": 53.5628530692746, "lng": 10.019722093254131}, "verified": true, "id": "4b058858f964a5205bbf22e3", "categories": [{"pluralName": "Hotels", "primary": true, "name": "Hotel", "shortName": "Hotel", "id": "4bf58dd8d48988d1fa931735", "icon": {"prefix": "https://ss3.4sqi.net/img/categories_v2/travel/hotel_", "suffix": ".png"}}]}, {"stats": {"tipCount": 10, "checkinsCount": 1171, "usersCount": 637}, "name": "A&O Hamburg City", "referralId": "v-1446967475", "venueChains": [], "hereNow": {"count": 0, "groups": [], "summary": "Nobody here"}, "specials": {"count": 0, "items": []}, "allowMenuUrlEdit": true, "location": {"city": "Hamburg", "cc": "DE", "country": "Deutschland", "postalCode": "20097", "state": "Hamburg", "formattedAddress": ["Spaldingstr. 160", "20097 Hamburg", "Deutschland"], "address": "Spaldingstr. 160", "lat": 53.55089253593779, "lng": 10.022912543140643}, "verified": false, "id": "4fc0d83ae4b07ac9fc647a08", "categories": [{"pluralName": "Hostels", "primary": true, "name": "Hostel", "shortName": "Hostel", "id": "4bf58dd8d48988d1ee931735", "icon": {"prefix": "https://ss3.4sqi.net/img/categories_v2/travel/hostel_", "suffix": ".png"}}]}, {"stats": {"tipCount": 27, "checkinsCount": 1654, "usersCount": 702}, "name": "Superbude St. Pauli", "referralId": "v-1446967475", "venueChains": [], "hereNow": {"count": 0, "groups": [], "summary": "Nobody here"}, "specials": {"count": 0, "items": []}, "allowMenuUrlEdit": true, "location": {"city": "Hamburg", "cc": "DE", "country": "Deutschland", "postalCode": "22769", "state": "Hamburg", "formattedAddress": ["Juliusstr. 1-7", "22769 Hamburg", "Deutschland"], "address": "Juliusstr. 1-7", "lat": 53.56041096208806, "lng": 9.959926793698253}, "verified": false, "id": "4f3e21b6e4b03dd023d9412e", "categories": [{"pluralName": "Hostels", "primary": true, "name": "Hostel", "shortName": "Hostel", "id": "4bf58dd8d48988d1ee931735", "icon": {"prefix": "https://ss3.4sqi.net/img/categories_v2/travel/hostel_", "suffix": ".png"}}]}, {"stats": {"tipCount": 44, "checkinsCount": 3094, "usersCount": 1545}, "name": "25hours Hotel Hamburg HafenCity", "referralId": "v-1446967475", "venueChains": [{"id": "556f3dd6bd6a007c7737ff19"}], "storeId": "", "hereNow": {"count": 0, "groups": [], "summary": "Nobody here"}, "specials": {"count": 0, "items": []}, "allowMenuUrlEdit": true, "location": {"city": "Hamburg", "cc": "DE", "country": "Deutschland", "postalCode": "20457", "state": "Hamburg", "formattedAddress": ["\u00dcberseeallee 5", "20457 Hamburg", "Deutschland"], "address": "\u00dcberseeallee 5", "lat": 53.541659015633236, "lng": 9.997934103012085}, "verified": true, "id": "4e14e12e922ef028593933aa", "categories": [{"pluralName": "Hotels", "primary": true, "name": "Hotel", "shortName": "Hotel", "id": "4bf58dd8d48988d1fa931735", "icon": {"prefix": "https://ss3.4sqi.net/img/categories_v2/travel/hotel_", "suffix": ".png"}}]}, {"stats": {"tipCount": 29, "checkinsCount": 2768, "usersCount": 1223}, "name": "Motel One", "referralId": "v-1446967475", "venueChains": [], "hereNow": {"count": 0, "groups": [], "summary": "Nobody here"}, "specials": {"count": 0, "items": []}, "allowMenuUrlEdit": true, "location": {"city": "Hamburg", "cc": "DE", "country": "Deutschland", "postalCode": "20355", "state": "Hamburg", "formattedAddress": ["Ludwig-Erhard-Str. 26", "20355 Hamburg", "Deutschland"], "address": "Ludwig-Erhard-Str. 26", "lat": 53.54972415212144, "lng": 9.974728110939392}, "verified": false, "id": "4c85ce9fd92ea093df3c6972", "categories": [{"pluralName": "Hotels", "primary": true, "name": "Hotel", "shortName": "Hotel", "id": "4bf58dd8d48988d1fa931735", "icon": {"prefix": "https://ss3.4sqi.net/img/categories_v2/travel/hotel_", "suffix": ".png"}}]}, {"stats": {"tipCount": 7, "checkinsCount": 607, "usersCount": 318}, "name": "NH Collection Hamburg City", "referralId": "v-1446967475", "venueChains": [{"id": "556ce426aceaff43eb04e8a4"}], "storeId": "260", "hereNow": {"count": 0, "groups": [], "summary": "Nobody here"}, "specials": {"count": 0, "items": []}, "allowMenuUrlEdit": true, "location": {"city": "Hamburg", "cc": "DE", "country": "Deutschland", "postalCode": "20357", "state": "Hamburg", "formattedAddress": ["Feldstr. 53-58", "20357 Hamburg", "Deutschland"], "address": "Feldstr. 53-58", "lat": 53.556838, "lng": 9.974007}, "verified": true, "id": "4b8d8db2f964a520bc0033e3", "categories": [{"pluralName": "Hotels", "primary": true, "name": "Hotel", "shortName": "Hotel", "id": "4bf58dd8d48988d1fa931735", "icon": {"prefix": "https://ss3.4sqi.net/img/categories_v2/travel/hotel_", "suffix": ".png"}}]}, {"stats": {"tipCount": 30, "checkinsCount": 2305, "usersCount": 1198}, "name": "The George", "referralId": "v-1446967475", "venueChains": [], "storeId": "", "hereNow": {"count": 0, "groups": [], "summary": "Nobody here"}, "specials": {"count": 0, "items": []}, "allowMenuUrlEdit": true, "location": {"city": "Hamburg", "cc": "DE", "country": "Deutschland", "postalCode": "22087", "state": "Hamburg", "formattedAddress": ["Barcastr. 3", "22087 Hamburg", "Deutschland"], "address": "Barcastr. 3", "lat": 53.56097020493139, "lng": 10.015044032417862}, "venuePage": {"id": "82473336"}, "verified": true, "id": "4b1ab9f5f964a52066f023e3", "categories": [{"pluralName": "Hotels", "primary": true, "name": "Hotel", "shortName": "Hotel", "id": "4bf58dd8d48988d1fa931735", "icon": {"prefix": "https://ss3.4sqi.net/img/categories_v2/travel/hotel_", "suffix": ".png"}}]}, {"stats": {"tipCount": 36, "checkinsCount": 3280, "usersCount": 1676}, "name": "Empire Riverside Hotel", "referralId": "v-1446967475", "venueChains": [], "hereNow": {"count": 0, "groups": [], "summary": "Nobody here"}, "specials": {"count": 0, "items": []}, "allowMenuUrlEdit": true, "location": {"city": "Hamburg", "cc": "DE", "country": "Deutschland", "postalCode": "20359", "state": "Hamburg", "formattedAddress": ["Bernhard-Nocht-Str. 97", "20359 Hamburg", "Deutschland"], "address": "Bernhard-Nocht-Str. 97", "lat": 53.54735220959202, "lng": 9.963441674978577}, "verified": false, "id": "4b336960f964a520381925e3", "categories": [{"pluralName": "Hotels", "primary": true, "name": "Hotel", "shortName": "Hotel", "id": "4bf58dd8d48988d1fa931735", "icon": {"prefix": "https://ss3.4sqi.net/img/categories_v2/travel/hotel_", "suffix": ".png"}}]}, {"stats": {"tipCount": 16, "checkinsCount": 1079, "usersCount": 388}, "name": "Novotel Hamburg City Alster", "referralId": "v-1446967475", "venueChains": [], "hereNow": {"count": 0, "groups": [], "summary": "Nobody here"}, "specials": {"count": 0, "items": []}, "allowMenuUrlEdit": true, "location": {"city": "Hamburg", "cc": "DE", "country": "Deutschland", "postalCode": "22087", "state": "Hamburg", "formattedAddress": ["L\u00fcbecker Str. 3 (Sechslingspforte)", "22087 Hamburg", "Deutschland"], "crossStreet": "Sechslingspforte", "address": "L\u00fcbecker Str. 3", "lat": 53.55913339399663, "lng": 10.024479275300603}, "verified": false, "id": "4b8fa1c6f964a520c45a33e3", "categories": [{"pluralName": "Hotels", "primary": true, "name": "Hotel", "shortName": "Hotel", "id": "4bf58dd8d48988d1fa931735", "icon": {"prefix": "https://ss3.4sqi.net/img/categories_v2/travel/hotel_", "suffix": ".png"}}]}, {"stats": {"tipCount": 36, "checkinsCount": 4100, "usersCount": 2304}, "name": "East Hotel Hamburg", "referralId": "v-1446967475", "venueChains": [], "hereNow": {"count": 0, "groups": [], "summary": "Nobody here"}, "specials": {"count": 0, "items": []}, "allowMenuUrlEdit": true, "location": {"city": "Hamburg", "cc": "DE", "country": "Deutschland", "postalCode": "20359", "state": "Hamburg", "formattedAddress": ["Simon-von-Utrecht-Str. 31", "20359 Hamburg", "Deutschland"], "address": "Simon-von-Utrecht-Str. 31", "lat": 53.55123390917572, "lng": 9.96633768081665}, "venuePage": {"id": "42429806"}, "verified": true, "id": "4b058859f964a520c2bf22e3", "categories": [{"pluralName": "Hotels", "primary": true, "name": "Hotel", "shortName": "Hotel", "id": "4bf58dd8d48988d1fa931735", "icon": {"prefix": "https://ss3.4sqi.net/img/categories_v2/travel/hotel_", "suffix": ".png"}}]}, {"stats": {"tipCount": 42, "checkinsCount": 2567, "usersCount": 1339}, "name": "Generator Hostel Hamburg", "referralId": "v-1446967475", "venueChains": [{"id": "556f40b3bd6a007c7738482d"}], "storeId": "", "hereNow": {"count": 0, "groups": [], "summary": "Nobody here"}, "specials": {"count": 0, "items": []}, "allowMenuUrlEdit": true, "location": {"city": "Hamburg", "cc": "DE", "country": "Deutschland", "postalCode": "20099", "state": "Hamburg", "formattedAddress": ["Steintorplatz 3", "20099 Hamburg", "Deutschland"], "address": "Steintorplatz 3", "lat": 53.552742816780906, "lng": 10.009139712308427}, "verified": true, "id": "4e04b5d7483b6f89f47ec706", "categories": [{"pluralName": "Hostels", "primary": true, "name": "Hostel", "shortName": "Hostel", "id": "4bf58dd8d48988d1ee931735", "icon": {"prefix": "https://ss3.4sqi.net/img/categories_v2/travel/hostel_", "suffix": ".png"}}]}]}}