{"meta": {"code": 200, "requestId": "563ef8af498e19e2a9032add"}, "response": {"confident": true, "geocode": {"parents": [], "what": "", "where": "helsinki", "feature": {"highlightedName": "<b>Helsinki</b>, Finland", "displayName": "Helsinki, Finland", "name": "Helsinki", "longId": "72057594038586161", "cc": "FI", "id": "geonameid:658225", "geometry": {"center": {"lat": 60.16952, "lng": 24.93545}, "bounds": {"sw": {"lat": 60.12648197436881, "lng": 24.8240229894074}, "ne": {"lat": 60.29788198177167, "lng": 25.2415192349548}}}, "matchedName": "Helsinki, Finland", "woeType": 7, "slug": "helsinki-finland"}}, "venues": [{"stats": {"tipCount": 29, "checkinsCount": 7630, "usersCount": 3727}, "name": "Scandic Simonkentt\u00e4", "referralId": "v-1446967471", "venueChains": [], "hereNow": {"count": 0, "groups": [], "summary": "Nobody here"}, "specials": {"count": 0, "items": []}, "allowMenuUrlEdit": true, "location": {"city": "Helsinki", "cc": "FI", "country": "Suomi", "postalCode": "00100", "state": "Uusimaa", "formattedAddress": ["Simonkatu 9", "00100 Helsinki", "Suomi"], "address": "Simonkatu 9", "lat": 60.169033745694826, "lng": 24.935059547424316}, "verified": false, "id": "4adcdb1ff964a520825f21e3", "categories": [{"pluralName": "Hotels", "primary": true, "name": "Hotel", "shortName": "Hotel", "id": "4bf58dd8d48988d1fa931735", "icon": {"prefix": "https://ss3.4sqi.net/img/categories_v2/travel/hotel_", "suffix": ".png"}}]}, {"stats": {"tipCount": 4, "checkinsCount": 246, "usersCount": 123}, "name": "Hotel Indigo", "referralId": "v-1446967471", "venueChains": [], "hereNow": {"count": 1, "groups": [{"count": 1, "items": [], "type": "others", "name": "Other people here"}], "summary": "One other person is here"}, "specials": {"count": 0, "items": []}, "allowMenuUrlEdit": true, "location": {"city": "Helsinki", "cc": "FI", "country": "Suomi", "state": "Uusimaa", "formattedAddress": ["Bulevardi 26", "Helsinki", "Suomi"], "address": "Bulevardi 26", "lat": 60.16371745986235, "lng": 24.936669939963334}, "verified": false, "id": "54f6d5e0498e81bd54d93ed0", "categories": [{"pluralName": "Hotels", "primary": true, "name": "Hotel", "shortName": "Hotel", "id": "4bf58dd8d48988d1fa931735", "icon": {"prefix": "https://ss3.4sqi.net/img/categories_v2/travel/hotel_", "suffix": ".png"}}]}, {"stats": {"tipCount": 5, "checkinsCount": 129, "usersCount": 102}, "name": "Lilla Roberts", "referralId": "v-1446967471", "venueChains": [], "hereNow": {"count": 0, "groups": [], "summary": "Nobody here"}, "specials": {"count": 0, "items": []}, "allowMenuUrlEdit": true, "location": {"city": "Helsinki", "cc": "FI", "country": "Suomi", "postalCode": "00130", "state": "Uusimaa", "formattedAddress": ["Pieni Roobertinkatu 1-3", "00130 Helsinki", "Suomi"], "address": "Pieni Roobertinkatu 1-3", "lat": 60.16434686748158, "lng": 24.947127661476355}, "verified": false, "id": "55c9a7f0498ebc3c626f5c9f", "categories": [{"pluralName": "Hotels", "primary": true, "name": "Hotel", "shortName": "Hotel", "id": "4bf58dd8d48988d1fa931735", "icon": {"prefix": "https://ss3.4sqi.net/img/categories_v2/travel/hotel_", "suffix": ".png"}}]}, {"stats": {"tipCount": 46, "checkinsCount": 5316, "usersCount": 2730}, "name": "Hilton Helsinki Airport Hotel", "referralId": "v-1446967471", "venueChains": [{"id": "556e146fa7c82e6b725097d5"}], "storeId": "HELAIHI", "hereNow": {"count": 1, "groups": [{"count": 1, "items": [], "type": "others", "name": "Other people here"}], "summary": "One other person is here"}, "specials": {"count": 0, "items": []}, "allowMenuUrlEdit": true, "location": {"city": "Vantaa", "cc": "FI", "country": "Suomi", "postalCode": "01530", "state": "Uusimaa", "formattedAddress": ["Lent\u00e4j\u00e4nkuja 1", "01530 Vantaa", "Suomi"], "address": "Lent\u00e4j\u00e4nkuja 1", "lat": 60.316211930190384, "lng": 24.964255198092786}, "verified": true, "id": "4b1cae8ef964a520030924e3", "categories": [{"pluralName": "Hotels", "primary": true, "name": "Hotel", "shortName": "Hotel", "id": "4bf58dd8d48988d1fa931735", "icon": {"prefix": "https://ss3.4sqi.net/img/categories_v2/travel/hotel_", "suffix": ".png"}}]}, {"stats": {"tipCount": 53, "checkinsCount": 3868, "usersCount": 1914}, "name": "Radisson Blu Hotel", "referralId": "v-1446967471", "venueChains": [{"id": "556c9c7ca7c87f637869f5c1"}], "storeId": "ESPO", "hereNow": {"count": 1, "groups": [{"count": 1, "items": [], "type": "others", "name": "Other people here"}], "summary": "One other person is here"}, "specials": {"count": 0, "items": []}, "allowMenuUrlEdit": true, "location": {"city": "Espoo", "cc": "FI", "country": "Suomi", "postalCode": "2150", "state": "Uusimaa", "formattedAddress": ["Otaranta 2", "2150 Espoo", "Suomi"], "address": "Otaranta 2", "lat": 60.18380387963751, "lng": 24.836610044999908}, "verified": true, "id": "4c99ac1f971676b06e8850e2", "categories": [{"pluralName": "Hotels", "primary": true, "name": "Hotel", "shortName": "Hotel", "id": "4bf58dd8d48988d1fa931735", "icon": {"prefix": "https://ss3.4sqi.net/img/categories_v2/travel/hotel_", "suffix": ".png"}}]}, {"stats": {"tipCount": 55, "checkinsCount": 10501, "usersCount": 5958}, "name": "Original Sokos Hotel Presidentti", "referralId": "v-1446967471", "venueChains": [], "hereNow": {"count": 1, "groups": [{"count": 1, "items": [], "type": "others", "name": "Other people here"}], "summary": "One other person is here"}, "specials": {"count": 0, "items": []}, "allowMenuUrlEdit": true, "location": {"city": "Helsinki", "cc": "FI", "country": "Suomi", "postalCode": "00100", "state": "Uusimaa", "formattedAddress": ["Etel\u00e4inen Rautatiekatu 4", "00100 Helsinki", "Suomi"], "address": "Etel\u00e4inen Rautatiekatu 4", "lat": 60.1707788, "lng": 24.9321721}, "verified": true, "id": "4adcdb1ef964a520555f21e3", "categories": [{"pluralName": "Hotels", "primary": true, "name": "Hotel", "shortName": "Hotel", "id": "4bf58dd8d48988d1fa931735", "icon": {"prefix": "https://ss3.4sqi.net/img/categories_v2/travel/hotel_", "suffix": ".png"}}]}, {"stats": {"tipCount": 63, "checkinsCount": 7870, "usersCount": 2921}, "name": "Klaus K Hotel", "referralId": "v-1446967471", "venueChains": [], "hereNow": {"count": 0, "groups": [], "summary": "Nobody here"}, "specials": {"count": 0, "items": []}, "allowMenuUrlEdit": true, "location": {"city": "Helsinki", "cc": "FI", "country": "Suomi", "postalCode": "00120", "formattedAddress": ["Bulevardi 2-4", "00120 Helsinki", "Suomi"], "address": "Bulevardi 2-4", "lat": 60.166187571092024, "lng": 24.942933726871082}, "verified": false, "id": "4adcdb1ef964a5204a5f21e3", "categories": [{"pluralName": "Hotels", "primary": true, "name": "Hotel", "shortName": "Hotel", "id": "4bf58dd8d48988d1fa931735", "icon": {"prefix": "https://ss3.4sqi.net/img/categories_v2/travel/hotel_", "suffix": ".png"}}]}, {"stats": {"tipCount": 13, "checkinsCount": 2686, "usersCount": 1513}, "name": "L\u00e5ngvik Congress Wellness Hotel", "referralId": "v-1446967471", "venueChains": [], "hereNow": {"count": 0, "groups": [], "summary": "Nobody here"}, "specials": {"count": 0, "items": []}, "allowMenuUrlEdit": true, "location": {"city": "Kirkkonummi", "cc": "FI", "country": "Suomi", "postalCode": "02420", "state": "Uusimaa", "formattedAddress": ["Tanskarlantie 9", "02420 Kirkkonummi", "Suomi"], "address": "Tanskarlantie 9", "lat": 60.10843520362473, "lng": 24.574141502380368}, "verified": false, "id": "4b769998f964a520db532ee3", "categories": [{"pluralName": "Hotels", "primary": true, "name": "Hotel", "shortName": "Hotel", "id": "4bf58dd8d48988d1fa931735", "icon": {"prefix": "https://ss3.4sqi.net/img/categories_v2/travel/hotel_", "suffix": ".png"}}]}, {"stats": {"tipCount": 35, "checkinsCount": 3939, "usersCount": 2048}, "name": "GLO Hotel Kluuvi", "referralId": "v-1446967471", "venueChains": [{"id": "556e5c90bd6a82902e297c88"}], "storeId": "", "hereNow": {"count": 0, "groups": [], "summary": "Nobody here"}, "specials": {"count": 0, "items": []}, "allowMenuUrlEdit": true, "location": {"city": "Helsinki", "cc": "FI", "country": "Suomi", "postalCode": "00100", "state": "Uusimaa", "formattedAddress": ["Kluuvikatu 4", "00100 Helsinki", "Suomi"], "address": "Kluuvikatu 4", "lat": 60.1686591381369, "lng": 24.947244794195512}, "verified": true, "id": "4adcdb1ff964a520845f21e3", "categories": [{"pluralName": "Hotels", "primary": true, "name": "Hotel", "shortName": "Hotel", "id": "4bf58dd8d48988d1fa931735", "icon": {"prefix": "https://ss3.4sqi.net/img/categories_v2/travel/hotel_", "suffix": ".png"}}]}, {"stats": {"tipCount": 11, "checkinsCount": 3639, "usersCount": 1541}, "name": "Original Sokos Hotel Pasila", "referralId": "v-1446967471", "venueChains": [], "hereNow": {"count": 0, "groups": [], "summary": "Nobody here"}, "specials": {"count": 0, "items": []}, "allowMenuUrlEdit": true, "location": {"city": "Helsinki", "cc": "FI", "country": "Suomi", "postalCode": "00240", "state": "Uusimaa", "formattedAddress": ["Maistraatinportti 3", "00240 Helsinki", "Suomi"], "address": "Maistraatinportti 3", "lat": 60.19873920000001, "lng": 24.9259038}, "verified": true, "id": "4adcdb1ef964a5204b5f21e3", "categories": [{"pluralName": "Hotels", "primary": true, "name": "Hotel", "shortName": "Hotel", "id": "4bf58dd8d48988d1fa931735", "icon": {"prefix": "https://ss3.4sqi.net/img/categories_v2/travel/hotel_", "suffix": ".png"}}]}, {"stats": {"tipCount": 28, "checkinsCount": 2324, "usersCount": 1085}, "name": "Best Western PLUS Hotel Haaga", "referralId": "v-1446967471", "venueChains": [], "hereNow": {"count": 0, "groups": [], "summary": "Nobody here"}, "specials": {"count": 0, "items": []}, "allowMenuUrlEdit": true, "location": {"city": "Helsinki", "cc": "FI", "country": "Suomi", "postalCode": "00320", "state": "Uusimaa", "formattedAddress": ["Nuijamiestentie 10", "00320 Helsinki", "Suomi"], "address": "Nuijamiestentie 10", "lat": 60.21846308024879, "lng": 24.906933720239426}, "verified": false, "id": "4adcdb1ef964a5205d5f21e3", "categories": [{"pluralName": "Hotels", "primary": true, "name": "Hotel", "shortName": "Hotel", "id": "4bf58dd8d48988d1fa931735", "icon": {"prefix": "https://ss3.4sqi.net/img/categories_v2/travel/hotel_", "suffix": ".png"}}]}, {"stats": {"tipCount": 33, "checkinsCount": 7467, "usersCount": 2889}, "name": "Hotel K\u00e4mp", "referralId": "v-1446967471", "venueChains": [], "storeId": "1157", "hereNow": {"count": 0, "groups": [], "summary": "Nobody here"}, "specials": {"count": 0, "items": []}, "allowMenuUrlEdit": true, "location": {"city": "Helsinki", "cc": "FI", "country": "Suomi", "postalCode": "00100", "state": "Uusimaa", "formattedAddress": ["Pohjoisesplanadi 29", "00100 Helsinki", "Suomi"], "address": "Pohjoisesplanadi 29", "lat": 60.168078013556396, "lng": 24.947118638607634}, "verified": true, "id": "4adcdb1ef964a520565f21e3", "categories": [{"pluralName": "Hotels", "primary": true, "name": "Hotel", "shortName": "Hotel", "id": "4bf58dd8d48988d1fa931735", "icon": {"prefix": "https://ss3.4sqi.net/img/categories_v2/travel/hotel_", "suffix": ".png"}}]}, {"stats": {"tipCount": 19, "checkinsCount": 1448, "usersCount": 684}, "name": "Hotel Fabian", "referralId": "v-1446967471", "venueChains": [], "hereNow": {"count": 0, "groups": [], "summary": "Nobody here"}, "specials": {"count": 0, "items": []}, "allowMenuUrlEdit": true, "location": {"cc": "FI", "country": "Suomi", "state": "Uusimaa", "formattedAddress": ["Fabianinkatu 7", "00130", "Suomi"], "address": "Fabianinkatu 7", "lat": 60.16410761636024, "lng": 24.95020632391017}, "verified": false, "id": "4c6e8f93f338236a1db90a1b", "categories": [{"pluralName": "Hotels", "primary": true, "name": "Hotel", "shortName": "Hotel", "id": "4bf58dd8d48988d1fa931735", "icon": {"prefix": "https://ss3.4sqi.net/img/categories_v2/travel/hotel_", "suffix": ".png"}}]}, {"stats": {"tipCount": 18, "checkinsCount": 1100, "usersCount": 655}, "name": "Airport Hotel Bonus Inn", "referralId": "v-1446967471", "venueChains": [], "hereNow": {"count": 0, "groups": [], "summary": "Nobody here"}, "specials": {"count": 0, "items": []}, "allowMenuUrlEdit": true, "location": {"city": "Vantaa", "cc": "FI", "country": "Suomi", "postalCode": "01510", "state": "Uusimaa", "formattedAddress": ["Elannontie 9", "01510 Vantaa", "Suomi"], "address": "Elannontie 9", "lat": 60.2890327, "lng": 24.9502063}, "verified": false, "id": "4adcdb1ff964a520735f21e3", "categories": [{"pluralName": "Hotels", "primary": true, "name": "Hotel", "shortName": "Hotel", "id": "4bf58dd8d48988d1fa931735", "icon": {"prefix": "https://ss3.4sqi.net/img/categories_v2/travel/hotel_", "suffix": ".png"}}]}, {"stats": {"tipCount": 42, "checkinsCount": 5937, "usersCount": 2672}, "name": "Hilton Helsinki Kalastajatorppa Hotel", "referralId": "v-1446967471", "venueChains": [{"id": "556e146fa7c82e6b725097d5"}], "storeId": "HELKJHI", "hereNow": {"count": 0, "groups": [], "summary": "Nobody here"}, "specials": {"count": 0, "items": []}, "allowMenuUrlEdit": true, "location": {"city": "Helsinki", "cc": "FI", "country": "Suomi", "postalCode": "00330", "state": "Uusimaa", "formattedAddress": ["Kalastajatorpantie 1", "00330 Helsinki", "Suomi"], "address": "Kalastajatorpantie 1", "lat": 60.19248674813237, "lng": 24.873218536376953}, "verified": true, "id": "4b00fb00f964a520914122e3", "categories": [{"pluralName": "Hotels", "primary": true, "name": "Hotel", "shortName": "Hotel", "id": "4bf58dd8d48988d1fa931735", "icon": {"prefix": "https://ss3.4sqi.net/img/categories_v2/travel/hotel_", "suffix": ".png"}}]}, {"stats": {"tipCount": 19, "checkinsCount": 3756, "usersCount": 1933}, "name": "Original Sokos Hotel Vaakuna", "referralId": "v-1446967471", "venueChains": [], "storeId": "", "hereNow": {"count": 0, "groups": [], "summary": "Nobody here"}, "specials": {"count": 0, "items": []}, "allowMenuUrlEdit": true, "location": {"city": "Helsinki", "cc": "FI", "country": "Suomi", "postalCode": "00100", "state": "Uusimaa", "formattedAddress": ["Asema-aukio 2", "00100 Helsinki", "Suomi"], "address": "Asema-aukio 2", "lat": 60.1704574, "lng": 24.9393699}, "venuePage": {"id": "70564612"}, "verified": true, "id": "4adcdb1ef964a520495f21e3", "categories": [{"pluralName": "Hotels", "primary": true, "name": "Hotel", "shortName": "Hotel", "id": "4bf58dd8d48988d1fa931735", "icon": {"prefix": "https://ss3.4sqi.net/img/categories_v2/travel/hotel_", "suffix": ".png"}}]}, {"stats": {"tipCount": 41, "checkinsCount": 7872, "usersCount": 3215}, "name": "Scandic Park", "referralId": "v-1446967471", "venueChains": [], "hereNow": {"count": 0, "groups": [], "summary": "Nobody here"}, "specials": {"count": 0, "items": []}, "allowMenuUrlEdit": true, "location": {"city": "Helsinki", "cc": "FI", "country": "Suomi", "postalCode": "00260", "state": "Uusimaa", "formattedAddress": ["Mannerheimintie 46 (Dunckerinkatu)", "00260 Helsinki", "Suomi"], "crossStreet": "Dunckerinkatu", "address": "Mannerheimintie 46", "lat": 60.17904440062326, "lng": 24.928150177001953}, "verified": false, "id": "4adcdb1ff964a520815f21e3", "categories": [{"pluralName": "Hotels", "primary": true, "name": "Hotel", "shortName": "Hotel", "id": "4bf58dd8d48988d1fa931735", "icon": {"prefix": "https://ss3.4sqi.net/img/categories_v2/travel/hotel_", "suffix": ".png"}}]}, {"stats": {"tipCount": 85, "checkinsCount": 8386, "usersCount": 4333}, "name": "Radisson Blu Seaside Hotel", "referralId": "v-1446967471", "venueChains": [{"id": "556c9c7ca7c87f637869f5c1"}], "storeId": "HEFI", "hereNow": {"count": 0, "groups": [], "summary": "Nobody here"}, "specials": {"count": 0, "items": []}, "allowMenuUrlEdit": true, "location": {"city": "Helsinki", "cc": "FI", "country": "Suomi", "postalCode": "00180", "state": "Uusimaa", "formattedAddress": ["Ruoholahdenranta 3", "00180 Helsinki", "Suomi"], "address": "Ruoholahdenranta 3", "lat": 60.1620949349965, "lng": 24.9241590499877}, "verified": true, "id": "4b04208bf964a520835122e3", "categories": [{"pluralName": "Hotels", "primary": true, "name": "Hotel", "shortName": "Hotel", "id": "4bf58dd8d48988d1fa931735", "icon": {"prefix": "https://ss3.4sqi.net/img/categories_v2/travel/hotel_", "suffix": ".png"}}]}, {"stats": {"tipCount": 43, "checkinsCount": 5631, "usersCount": 2902}, "name": "Scandic Hotel Marski", "referralId": "v-1446967471", "venueChains": [], "hereNow": {"count": 0, "groups": [], "summary": "Nobody here"}, "specials": {"count": 0, "items": []}, "allowMenuUrlEdit": true, "location": {"city": "Helsinki", "cc": "FI", "country": "Suomi", "postalCode": "00100", "state": "Uusimaa", "formattedAddress": ["Mannerheimintie 10", "00100 Helsinki", "Suomi"], "address": "Mannerheimintie 10", "lat": 60.167571379768596, "lng": 24.941260814666748}, "verified": false, "id": "4adcdb1ef964a520585f21e3", "categories": [{"pluralName": "Hotels", "primary": true, "name": "Hotel", "shortName": "Hotel", "id": "4bf58dd8d48988d1fa931735", "icon": {"prefix": "https://ss3.4sqi.net/img/categories_v2/travel/hotel_", "suffix": ".png"}}]}, {"stats": {"tipCount": 30, "checkinsCount": 1547, "usersCount": 928}, "name": "Eurohostel", "referralId": "v-1446967471", "venueChains": [], "storeId": "", "hereNow": {"count": 0, "groups": [], "summary": "Nobody here"}, "specials": {"count": 0, "items": []}, "allowMenuUrlEdit": true, "location": {"city": "Helsinki", "cc": "FI", "country": "Suomi", "postalCode": "00160", "state": "Uusimaa", "formattedAddress": ["Linnankatu 9 (Vy\u00f6katu)", "00160 Helsinki", "Suomi"], "crossStreet": "Vy\u00f6katu", "address": "Linnankatu 9", "lat": 60.16572751732677, "lng": 24.969794769031783}, "venuePage": {"id": "85543872"}, "verified": true, "id": "4adcdb1ef964a5205a5f21e3", "categories": [{"pluralName": "Hostels", "primary": true, "name": "Hostel", "shortName": "Hostel", "id": "4bf58dd8d48988d1ee931735", "icon": {"prefix": "https://ss3.4sqi.net/img/categories_v2/travel/hostel_", "suffix": ".png"}}]}, {"stats": {"tipCount": 18, "checkinsCount": 3158, "usersCount": 1261}, "name": "Holiday Inn", "referralId": "v-1446967471", "venueChains": [{"id": "556e0690a7c82e6b724e70a3"}], "storeId": "HELWE", "hereNow": {"count": 0, "groups": [], "summary": "Nobody here"}, "specials": {"count": 0, "items": []}, "allowMenuUrlEdit": true, "location": {"city": "Helsinki", "cc": "FI", "country": "Suomi", "postalCode": "00180", "state": "Uusimaa", "formattedAddress": ["Sulhasenkuja 3", "00180 Helsinki", "Suomi"], "address": "Sulhasenkuja 3", "lat": 60.164881310423496, "lng": 24.90999698638916}, "verified": true, "id": "4ba6748ef964a520505439e3", "categories": [{"pluralName": "Hotels", "primary": true, "name": "Hotel", "shortName": "Hotel", "id": "4bf58dd8d48988d1fa931735", "icon": {"prefix": "https://ss3.4sqi.net/img/categories_v2/travel/hotel_", "suffix": ".png"}}]}, {"stats": {"tipCount": 66, "checkinsCount": 5934, "usersCount": 2972}, "name": "Radisson Blu Plaza Hotel", "referralId": "v-1446967471", "venueChains": [{"id": "556c9c7ca7c87f637869f5c1"}], "storeId": "HSFI", "hereNow": {"count": 0, "groups": [], "summary": "Nobody here"}, "specials": {"count": 0, "items": []}, "allowMenuUrlEdit": true, "location": {"city": "Helsinki", "cc": "FI", "country": "Suomi", "postalCode": "100", "state": "Uusimaa", "formattedAddress": ["Mikonkatu 23 (Vilhonkatu)", "100 Helsinki", "Suomi"], "crossStreet": "Vilhonkatu", "address": "Mikonkatu 23", "lat": 60.17236748118443, "lng": 24.94558859489654}, "verified": true, "id": "4adcdb1ef964a520535f21e3", "categories": [{"pluralName": "Hotels", "primary": true, "name": "Hotel", "shortName": "Hotel", "id": "4bf58dd8d48988d1fa931735", "icon": {"prefix": "https://ss3.4sqi.net/img/categories_v2/travel/hotel_", "suffix": ".png"}}]}, {"stats": {"tipCount": 46, "checkinsCount": 6150, "usersCount": 4092}, "name": "Ateljee Bar", "referralId": "v-1446967471", "venueChains": [], "hereNow": {"count": 0, "groups": [], "summary": "Nobody here"}, "specials": {"count": 0, "items": []}, "allowMenuUrlEdit": true, "location": {"city": "Helsinki", "cc": "FI", "country": "Suomi", "postalCode": "00100", "state": "Uusimaa", "formattedAddress": ["Hotel Torni", "00100 Helsinki", "Suomi"], "address": "Hotel Torni", "lat": 60.167795542273105, "lng": 24.938514232635498}, "verified": false, "id": "4adcdb21f964a520e05f21e3", "categories": [{"pluralName": "Hotel Bars", "primary": true, "name": "Hotel Bar", "shortName": "Hotel Bar", "id": "4bf58dd8d48988d1d5941735", "icon": {"prefix": "https://ss3.4sqi.net/img/categories_v2/travel/hotel_bar_", "suffix": ".png"}}]}, {"stats": {"tipCount": 55, "checkinsCount": 5998, "usersCount": 3208}, "name": "Scandic Grand Marina", "referralId": "v-1446967471", "venueChains": [], "hereNow": {"count": 0, "groups": [], "summary": "Nobody here"}, "specials": {"count": 0, "items": []}, "allowMenuUrlEdit": true, "location": {"city": "Helsinki", "cc": "FI", "country": "Suomi", "postalCode": "00160", "state": "Uusimaa", "formattedAddress": ["Katajanokanlaituri 7", "00160 Helsinki", "Suomi"], "address": "Katajanokanlaituri 7", "lat": 60.16575530031057, "lng": 24.964208347299813}, "verified": false, "id": "4b25e8cef964a520737724e3", "categories": [{"pluralName": "Hotels", "primary": true, "name": "Hotel", "shortName": "Hotel", "id": "4bf58dd8d48988d1fa931735", "icon": {"prefix": "https://ss3.4sqi.net/img/categories_v2/travel/hotel_", "suffix": ".png"}}]}, {"stats": {"tipCount": 23, "checkinsCount": 3908, "usersCount": 1934}, "name": "Rantasipi Airport Hotel & Congress Center", "referralId": "v-1446967471", "venueChains": [], "hereNow": {"count": 0, "groups": [], "summary": "Nobody here"}, "specials": {"count": 0, "items": []}, "allowMenuUrlEdit": true, "location": {"city": "Vantaa", "cc": "FI", "country": "Suomi", "postalCode": "01510", "state": "Uusimaa", "formattedAddress": ["Robert Huberintie 4", "01510 Vantaa", "Suomi"], "address": "Robert Huberintie 4", "lat": 60.2962856326519, "lng": 24.96179355534122}, "verified": false, "id": "4c6cbfb9d0869521e16409ea", "categories": [{"pluralName": "Hotels", "primary": true, "name": "Hotel", "shortName": "Hotel", "id": "4bf58dd8d48988d1fa931735", "icon": {"prefix": "https://ss3.4sqi.net/img/categories_v2/travel/hotel_", "suffix": ".png"}}]}, {"stats": {"tipCount": 10, "checkinsCount": 16909, "usersCount": 6100}, "name": "Viihdekeskus Flamingo", "referralId": "v-1446967471", "venueChains": [], "hereNow": {"count": 0, "groups": [], "summary": "Nobody here"}, "specials": {"count": 0, "items": []}, "allowMenuUrlEdit": true, "location": {"city": "Vantaa", "cc": "FI", "country": "Suomi", "postalCode": "01510", "state": "Uusimaa", "formattedAddress": ["Tasetie 8", "01510 Vantaa", "Suomi"], "address": "Tasetie 8", "lat": 60.29055561773404, "lng": 24.968748092651367}, "verified": false, "id": "4ae9f54af964a520ffb721e3", "categories": [{"pluralName": "Malls", "primary": true, "name": "Mall", "shortName": "Mall", "id": "4bf58dd8d48988d1fd941735", "icon": {"prefix": "https://ss3.4sqi.net/img/categories_v2/shops/mall_", "suffix": ".png"}}]}, {"stats": {"tipCount": 17, "checkinsCount": 3723, "usersCount": 1864}, "name": "Holiday Inn", "referralId": "v-1446967471", "venueChains": [{"id": "556e0690a7c82e6b724e70a3"}], "storeId": "HELCC", "hereNow": {"count": 0, "groups": [], "summary": "Nobody here"}, "specials": {"count": 0, "items": []}, "allowMenuUrlEdit": true, "location": {"city": "Helsinki", "cc": "FI", "country": "Suomi", "postalCode": "00520", "state": "Uusimaa", "formattedAddress": ["Messuaukio 1", "00520 Helsinki", "Suomi"], "address": "Messuaukio 1", "lat": 60.201722504043424, "lng": 24.9369478225708}, "verified": true, "id": "4adcdb1ff964a5207b5f21e3", "categories": [{"pluralName": "Hotels", "primary": true, "name": "Hotel", "shortName": "Hotel", "id": "4bf58dd8d48988d1fa931735", "icon": {"prefix": "https://ss3.4sqi.net/img/categories_v2/travel/hotel_", "suffix": ".png"}}]}, {"stats": {"tipCount": 59, "checkinsCount": 7934, "usersCount": 4048}, "name": "Radisson Blu Royal Hotel", "referralId": "v-1446967471", "venueChains": [{"id": "556c9c7ca7c87f637869f5c1"}], "storeId": "HELS", "hereNow": {"count": 0, "groups": [], "summary": "Nobody here"}, "specials": {"count": 0, "items": []}, "allowMenuUrlEdit": true, "location": {"city": "Helsinki", "cc": "FI", "country": "Suomi", "postalCode": "00100", "state": "Uusimaa", "formattedAddress": ["Runeberginkatu 2 (Malminkatu)", "00100 Helsinki", "Suomi"], "crossStreet": "Malminkatu", "address": "Runeberginkatu 2", "lat": 60.1681216929978, "lng": 24.92920483621895}, "verified": true, "id": "4e45a5c57d8b91a0658466e8", "categories": [{"pluralName": "Hotels", "primary": true, "name": "Hotel", "shortName": "Hotel", "id": "4bf58dd8d48988d1fa931735", "icon": {"prefix": "https://ss3.4sqi.net/img/categories_v2/travel/hotel_", "suffix": ".png"}}]}, {"stats": {"tipCount": 26, "checkinsCount": 5637, "usersCount": 2959}, "name": "Crowne Plaza", "referralId": "v-1446967471", "venueChains": [{"id": "556ce747aceaff43eb056899"}], "storeId": "HELMH", "hereNow": {"count": 0, "groups": [], "summary": "Nobody here"}, "specials": {"count": 0, "items": []}, "allowMenuUrlEdit": true, "location": {"city": "Helsinki", "cc": "FI", "country": "Suomi", "postalCode": "00260", "state": "Uusimaa", "formattedAddress": ["Mannerheimintie 50", "00260 Helsinki", "Suomi"], "address": "Mannerheimintie 50", "lat": 60.179852840324855, "lng": 24.92768363681415}, "verified": true, "id": "4b07dc1ef964a5208f0023e3", "categories": [{"pluralName": "Hotels", "primary": true, "name": "Hotel", "shortName": "Hotel", "id": "4bf58dd8d48988d1fa931735", "icon": {"prefix": "https://ss3.4sqi.net/img/categories_v2/travel/hotel_", "suffix": ".png"}}]}, {"stats": {"tipCount": 13, "checkinsCount": 2800, "usersCount": 1213}, "name": "Holiday Inn", "referralId": "v-1446967471", "venueChains": [{"id": "556e0690a7c82e6b724e70a3"}], "storeId": "HELFI", "hereNow": {"count": 0, "groups": [], "summary": "Nobody here"}, "specials": {"count": 0, "items": []}, "allowMenuUrlEdit": true, "location": {"city": "Vantaa", "cc": "FI", "country": "Suomi", "postalCode": "01530", "state": "Uusimaa", "formattedAddress": ["R\u00e4lssitie 2 (Helsinki Airport)", "01530 Vantaa", "Suomi"], "crossStreet": "Helsinki Airport", "address": "R\u00e4lssitie 2", "lat": 60.29525571198544, "lng": 24.97140884399414}, "verified": true, "id": "4adcdb1ef964a5205b5f21e3", "categories": [{"pluralName": "Hotels", "primary": true, "name": "Hotel", "shortName": "Hotel", "id": "4bf58dd8d48988d1fa931735", "icon": {"prefix": "https://ss3.4sqi.net/img/categories_v2/travel/hotel_", "suffix": ".png"}}]}]}}