{"meta": {"code": 200, "requestId": "563ef8b1498e8f414f5eae78"}, "response": {"confident": false, "geocode": {"parents": [], "what": "", "where": "milan", "feature": {"highlightedName": "<b>Milan</b>, Lombardy, Italy", "displayName": "Milan, Lombardy, Italy", "name": "Milan", "longId": "72057594041101371", "cc": "IT", "id": "geonameid:3173435", "geometry": {"center": {"lat": 45.46427, "lng": 9.18951}, "bounds": {"sw": {"lat": 45.38920202383928, "lng": 9.039837068386658}, "ne": {"lat": 45.53644193307576, "lng": 9.278070963403922}}}, "matchedName": "Milan, Lombardy, Italy", "woeType": 7, "slug": "milano-italy"}}, "venues": [{"stats": {"tipCount": 40, "checkinsCount": 5469, "usersCount": 2291}, "name": "The Westin Palace Milan", "referralId": "v-1446967473", "venueChains": [], "storeId": "", "hereNow": {"count": 1, "groups": [{"count": 1, "items": [], "type": "others", "name": "Other people here"}], "summary": "One other person is here"}, "specials": {"count": 0, "items": []}, "allowMenuUrlEdit": true, "location": {"city": "Milano", "cc": "IT", "country": "Italia", "postalCode": "20124", "state": "Lombardia", "formattedAddress": ["Piazza della Repubblica 20", "20124 Milano Lombardia", "Italia"], "address": "Piazza della Repubblica 20", "lat": 45.47893313566857, "lng": 9.19906497001648}, "verified": true, "id": "4b058877f964a5205bc722e3", "categories": [{"pluralName": "Hotels", "primary": true, "name": "Hotel", "shortName": "Hotel", "id": "4bf58dd8d48988d1fa931735", "icon": {"prefix": "https://ss3.4sqi.net/img/categories_v2/travel/hotel_", "suffix": ".png"}}]}, {"stats": {"tipCount": 46, "checkinsCount": 2710, "usersCount": 1757}, "name": "Armani Hotel Milano", "referralId": "v-1446967473", "venueChains": [], "hereNow": {"count": 1, "groups": [{"count": 1, "items": [], "type": "others", "name": "Other people here"}], "summary": "One other person is here"}, "specials": {"count": 0, "items": []}, "allowMenuUrlEdit": true, "location": {"city": "Milano", "cc": "IT", "country": "Italia", "postalCode": "20121", "state": "Lombardia", "formattedAddress": ["Via A. Manzoni 31", "20121 Milano Lombardia", "Italia"], "address": "Via A. Manzoni 31", "lat": 45.470500373094836, "lng": 9.192900958162802}, "verified": false, "id": "4f140f84e4b000502ea0f350", "categories": [{"pluralName": "Hotels", "primary": true, "name": "Hotel", "shortName": "Hotel", "id": "4bf58dd8d48988d1fa931735", "icon": {"prefix": "https://ss3.4sqi.net/img/categories_v2/travel/hotel_", "suffix": ".png"}}]}, {"stats": {"tipCount": 5, "checkinsCount": 644, "usersCount": 85}, "name": "Camplus City Heart Rubattino", "referralId": "v-1446967473", "venueChains": [], "hereNow": {"count": 0, "groups": [], "summary": "Nobody here"}, "specials": {"count": 0, "items": []}, "allowMenuUrlEdit": true, "location": {"lat": 45.480111832191795, "cc": "IT", "lng": 9.247475703998223, "formattedAddress": ["Italia"], "country": "Italia"}, "verified": false, "id": "4dc4084ad4c0ad9c0f6393f9", "categories": [{"pluralName": "Hotels", "primary": true, "name": "Hotel", "shortName": "Hotel", "id": "4bf58dd8d48988d1fa931735", "icon": {"prefix": "https://ss3.4sqi.net/img/categories_v2/travel/hotel_", "suffix": ".png"}}]}, {"stats": {"tipCount": 45, "checkinsCount": 2225, "usersCount": 1237}, "name": "Radisson Blu Hotel, Milan", "referralId": "v-1446967473", "venueChains": [{"id": "556c9c7ca7c87f637869f5c1"}], "storeId": "MLNO", "hereNow": {"count": 0, "groups": [], "summary": "Nobody here"}, "specials": {"count": 0, "items": []}, "allowMenuUrlEdit": true, "location": {"city": "Milano", "cc": "IT", "country": "Italia", "postalCode": "20156", "state": "Lombardia", "formattedAddress": ["Via Villapizzone 24", "20156 Milano Lombardia", "Italia"], "address": "Via Villapizzone 24", "lat": 45.5006668384539, "lng": 9.14445333734999}, "verified": true, "id": "4c45852d74ffc92804fc76cc", "categories": [{"pluralName": "Hotels", "primary": true, "name": "Hotel", "shortName": "Hotel", "id": "4bf58dd8d48988d1fa931735", "icon": {"prefix": "https://ss3.4sqi.net/img/categories_v2/travel/hotel_", "suffix": ".png"}}]}, {"stats": {"tipCount": 30, "checkinsCount": 2495, "usersCount": 1494}, "name": "Four Seasons Hotel", "referralId": "v-1446967473", "venueChains": [{"id": "556ce9b1aceaff43eb05acb7"}], "storeId": "", "hereNow": {"count": 0, "groups": [], "summary": "Nobody here"}, "specials": {"count": 0, "items": []}, "allowMenuUrlEdit": true, "location": {"city": "Milano", "cc": "IT", "country": "Italia", "postalCode": "20121", "state": "Lombardia", "formattedAddress": ["Via Ges\u00f9 6/8 (Via della Spiga)", "20121 Milano Lombardia", "Italia"], "crossStreet": "Via della Spiga", "address": "Via Ges\u00f9 6/8", "lat": 45.468994701642714, "lng": 9.194945096969604}, "verified": true, "id": "4b058877f964a52043c722e3", "categories": [{"pluralName": "Hotels", "primary": true, "name": "Hotel", "shortName": "Hotel", "id": "4bf58dd8d48988d1fa931735", "icon": {"prefix": "https://ss3.4sqi.net/img/categories_v2/travel/hotel_", "suffix": ".png"}}]}, {"stats": {"tipCount": 15, "checkinsCount": 2355, "usersCount": 1182}, "name": "Grand Visconti Palace", "referralId": "v-1446967473", "venueChains": [], "hereNow": {"count": 0, "groups": [], "summary": "Nobody here"}, "specials": {"count": 0, "items": []}, "allowMenuUrlEdit": true, "location": {"city": "Milano", "cc": "IT", "country": "Italia", "postalCode": "20135", "state": "Lombardia", "formattedAddress": ["Viale Isonzo 14", "20135 Milano Lombardia", "Italia"], "address": "Viale Isonzo 14", "lat": 45.447235387465554, "lng": 9.206808027904518}, "venuePage": {"id": "87538250"}, "verified": true, "id": "4bc886cfdc55eee17c87e8ac", "categories": [{"pluralName": "Hotels", "primary": true, "name": "Hotel", "shortName": "Hotel", "id": "4bf58dd8d48988d1fa931735", "icon": {"prefix": "https://ss3.4sqi.net/img/categories_v2/travel/hotel_", "suffix": ".png"}}]}, {"stats": {"tipCount": 66, "checkinsCount": 3972, "usersCount": 2237}, "name": "Starhotels Rosa Grand", "referralId": "v-1446967473", "venueChains": [{"id": "5568f746a7c8a9cf8ec4e24f"}], "storeId": "", "hereNow": {"count": 0, "groups": [], "summary": "Nobody here"}, "specials": {"count": 0, "items": []}, "allowMenuUrlEdit": true, "location": {"city": "Milano", "cc": "IT", "country": "Italia", "postalCode": "20122", "state": "Lombardia", "formattedAddress": ["Piazza Fontana, 3", "20122 Milano Lombardia", "Italia"], "address": "Piazza Fontana, 3", "lat": 45.463863045153346, "lng": 9.194183349609375}, "verified": true, "id": "4b058877f964a52049c722e3", "categories": [{"pluralName": "Hotels", "primary": true, "name": "Hotel", "shortName": "Hotel", "id": "4bf58dd8d48988d1fa931735", "icon": {"prefix": "https://ss3.4sqi.net/img/categories_v2/travel/hotel_", "suffix": ".png"}}]}, {"stats": {"tipCount": 9, "checkinsCount": 724, "usersCount": 366}, "name": "Starhotels Tourist", "referralId": "v-1446967473", "venueChains": [{"id": "5568f746a7c8a9cf8ec4e24f"}], "storeId": "", "hereNow": {"count": 0, "groups": [], "summary": "Nobody here"}, "specials": {"count": 0, "items": []}, "allowMenuUrlEdit": true, "location": {"city": "Milano", "cc": "IT", "country": "Italia", "postalCode": "20126", "state": "Lombardia", "formattedAddress": ["Viale Fulvio Testi 300", "20126 Milano Lombardia", "Italia"], "address": "Viale Fulvio Testi 300", "lat": 45.52666013362385, "lng": 9.212852946480165}, "verified": true, "id": "4b058877f964a5204cc722e3", "categories": [{"pluralName": "Hotels", "primary": true, "name": "Hotel", "shortName": "Hotel", "id": "4bf58dd8d48988d1fa931735", "icon": {"prefix": "https://ss3.4sqi.net/img/categories_v2/travel/hotel_", "suffix": ".png"}}]}, {"stats": {"tipCount": 51, "checkinsCount": 3073, "usersCount": 1843}, "name": "Bulgari Hotels & Resorts Milano", "referralId": "v-1446967473", "venueChains": [], "hereNow": {"count": 0, "groups": [], "summary": "Nobody here"}, "specials": {"count": 0, "items": []}, "allowMenuUrlEdit": true, "location": {"city": "Milano", "cc": "IT", "country": "Italia", "postalCode": "20121", "state": "Lombardia", "formattedAddress": ["Via Privata Fratelli Gabba 7/b", "20121 Milano Lombardia", "Italia"], "address": "Via Privata Fratelli Gabba 7/b", "lat": 45.470033122174804, "lng": 9.18919773813018}, "verified": false, "id": "4b9fae8ef964a5207a3437e3", "categories": [{"pluralName": "Hotels", "primary": true, "name": "Hotel", "shortName": "Hotel", "id": "4bf58dd8d48988d1fa931735", "icon": {"prefix": "https://ss3.4sqi.net/img/categories_v2/travel/hotel_", "suffix": ".png"}}]}, {"stats": {"tipCount": 20, "checkinsCount": 3117, "usersCount": 961}, "name": "DoubleTree by Hilton Hotel Milan", "referralId": "v-1446967473", "venueChains": [{"id": "556cdd65aceaff43eb03dde1"}], "storeId": "DTMilan", "hereNow": {"count": 0, "groups": [], "summary": "Nobody here"}, "specials": {"count": 0, "items": []}, "allowMenuUrlEdit": true, "location": {"city": "Milano", "cc": "IT", "country": "Italia", "postalCode": "20156", "state": "Lombardia", "formattedAddress": ["Via Ludovico di Breme 77", "20156 Milano Lombardia", "Italia"], "address": "Via Ludovico di Breme 77", "lat": 45.500292015525204, "lng": 9.138039504824116}, "verified": true, "id": "4bd7b219304fce7248e933ab", "categories": [{"pluralName": "Hotels", "primary": true, "name": "Hotel", "shortName": "Hotel", "id": "4bf58dd8d48988d1fa931735", "icon": {"prefix": "https://ss3.4sqi.net/img/categories_v2/travel/hotel_", "suffix": ".png"}}]}, {"stats": {"tipCount": 58, "checkinsCount": 1266, "usersCount": 551}, "name": "Hotel Manin", "referralId": "v-1446967473", "venueChains": [], "storeId": "", "hereNow": {"count": 0, "groups": [], "summary": "Nobody here"}, "specials": {"count": 0, "items": []}, "allowMenuUrlEdit": true, "location": {"city": "Milano", "neighborhood": "Centro", "cc": "IT", "country": "Italia", "postalCode": "20121", "state": "Lombardia", "formattedAddress": ["Via Daniele Manin 7", "20121 Milano Lombardia", "Italia"], "address": "Via Daniele Manin 7", "lat": 45.4740237004434, "lng": 9.195931350152279}, "verified": false, "id": "4c9a145580958cfa0ba63fd4", "categories": [{"pluralName": "Hotels", "primary": true, "name": "Hotel", "shortName": "Hotel", "id": "4bf58dd8d48988d1fa931735", "icon": {"prefix": "https://ss3.4sqi.net/img/categories_v2/travel/hotel_", "suffix": ".png"}}]}, {"stats": {"tipCount": 77, "checkinsCount": 5275, "usersCount": 2809}, "name": "Ostello Bello", "referralId": "v-1446967473", "venueChains": [], "hereNow": {"count": 0, "groups": [], "summary": "Nobody here"}, "specials": {"count": 0, "items": []}, "allowMenuUrlEdit": true, "location": {"city": "Milano", "cc": "IT", "country": "Italia", "postalCode": "20123", "state": "Lombardia", "formattedAddress": ["Via Medici 4", "20123 Milano Lombardia", "Italia"], "address": "Via Medici 4", "lat": 45.46085264926285, "lng": 9.181219047676874}, "verified": false, "id": "4e204c1ac65b2b5e353a326e", "categories": [{"pluralName": "Hostels", "primary": true, "name": "Hostel", "shortName": "Hostel", "id": "4bf58dd8d48988d1ee931735", "icon": {"prefix": "https://ss3.4sqi.net/img/categories_v2/travel/hostel_", "suffix": ".png"}}]}, {"stats": {"tipCount": 17, "checkinsCount": 2194, "usersCount": 1564}, "name": "Palazzo Stelline", "referralId": "v-1446967473", "venueChains": [{"id": "556e5389bd6a82902e28462c"}], "storeId": "", "hereNow": {"count": 0, "groups": [], "summary": "Nobody here"}, "specials": {"count": 0, "items": []}, "allowMenuUrlEdit": true, "location": {"city": "Milano", "cc": "IT", "country": "Italia", "postalCode": "20123", "state": "Lombardia", "formattedAddress": ["Corso Magenta 61", "20123 Milano Lombardia", "Italia"], "address": "Corso Magenta 61", "lat": 45.46532735455085, "lng": 9.17222360044773}, "verified": true, "id": "4c9850ab05a1b1f70caf8c53", "categories": [{"pluralName": "Convention Centers", "primary": true, "name": "Convention Center", "shortName": "Convention Center", "id": "4bf58dd8d48988d1ff931735", "icon": {"prefix": "https://ss3.4sqi.net/img/categories_v2/building/conventioncenter_", "suffix": ".png"}}]}, {"stats": {"tipCount": 30, "checkinsCount": 4582, "usersCount": 2305}, "name": "Milan Marriott Hotel", "referralId": "v-1446967473", "venueChains": [], "storeId": "MILIT", "hereNow": {"count": 0, "groups": [], "summary": "Nobody here"}, "specials": {"count": 0, "items": []}, "allowMenuUrlEdit": true, "location": {"city": "Milano", "cc": "IT", "country": "Italia", "state": "Lombardia", "formattedAddress": ["Via Washington 66", "Milano Lombardia", "Italia"], "address": "Via Washington 66", "lat": 45.46113277, "lng": 9.154493384}, "venuePage": {"id": "131922201"}, "verified": true, "id": "4b058877f964a52028c722e3", "categories": [{"pluralName": "Hotels", "primary": true, "name": "Hotel", "shortName": "Hotel", "id": "4bf58dd8d48988d1fa931735", "icon": {"prefix": "https://ss3.4sqi.net/img/categories_v2/travel/hotel_", "suffix": ".png"}}]}, {"stats": {"tipCount": 31, "checkinsCount": 3381, "usersCount": 1861}, "name": "Meli\u00e1 Milano", "referralId": "v-1446967473", "venueChains": [], "storeId": "", "hereNow": {"count": 0, "groups": [], "summary": "Nobody here"}, "specials": {"count": 1, "items": [{"redemption": "webview", "description": "", "unlocked": true, "title": "Special", "finePrint": "Try the cocktails suggested in our weekly selection prepared by our expert barman.", "state": "unlocked", "interaction": {"entryUrl": "https://foursquare.com/device/specials/4ed79441c2ee190c3f68ce39?venueId=4bb6c8eef562ef3b31c13097"}, "provider": "foursquare", "message": "Discover our \"Meli\u00e1 shakes your life\" at QLounge Bar and get 50% off.", "type": "frequency", "id": "4ed79441c2ee190c3f68ce39", "icon": "default"}]}, "allowMenuUrlEdit": true, "location": {"city": "Milano", "cc": "IT", "country": "Italia", "postalCode": "20149", "state": "Lombardia", "formattedAddress": ["Via Masaccio 19", "20149 Milano Lombardia", "Italia"], "address": "Via Masaccio 19", "lat": 45.47913624965353, "lng": 9.145699739456177}, "venuePage": {"id": "33080938"}, "verified": true, "id": "4bb6c8eef562ef3b31c13097", "categories": [{"pluralName": "Hotels", "primary": true, "name": "Hotel", "shortName": "Hotel", "id": "4bf58dd8d48988d1fa931735", "icon": {"prefix": "https://ss3.4sqi.net/img/categories_v2/travel/hotel_", "suffix": ".png"}}]}, {"stats": {"tipCount": 11, "checkinsCount": 657, "usersCount": 446}, "name": "Atahotel Quark, Milano", "referralId": "v-1446967473", "venueChains": [{"id": "556f3fd7bd6a007c77382ad2"}], "storeId": "", "hereNow": {"count": 0, "groups": [], "summary": "Nobody here"}, "specials": {"count": 0, "items": []}, "allowMenuUrlEdit": true, "location": {"city": "Milano", "cc": "IT", "country": "Italia", "postalCode": "20141", "state": "Lombardia", "formattedAddress": ["Zona Piazzale Abbiategrasso / Milano Sud", "20141 Milano Lombardia", "Italia"], "address": "Zona Piazzale Abbiategrasso / Milano Sud", "lat": 45.43393580138212, "lng": 9.18970262828814}, "verified": true, "id": "4b7c30caf964a52037832fe3", "categories": [{"pluralName": "Hotels", "primary": true, "name": "Hotel", "shortName": "Hotel", "id": "4bf58dd8d48988d1fa931735", "icon": {"prefix": "https://ss3.4sqi.net/img/categories_v2/travel/hotel_", "suffix": ".png"}}]}, {"stats": {"tipCount": 53, "checkinsCount": 4045, "usersCount": 2259}, "name": "Nhow Milano", "referralId": "v-1446967473", "venueChains": [{"id": "556ce426aceaff43eb04e8a4"}], "storeId": "703", "hereNow": {"count": 0, "groups": [], "summary": "Nobody here"}, "specials": {"count": 0, "items": []}, "allowMenuUrlEdit": true, "location": {"city": "Milano", "cc": "IT", "country": "Italia", "state": "Lombardia", "formattedAddress": ["Via Tortona, 35", "Milano Lombardia", "Italia"], "address": "Via Tortona, 35", "lat": 45.45065866, "lng": 9.160652778}, "verified": true, "id": "4b058877f964a52059c722e3", "categories": [{"pluralName": "Hotels", "primary": true, "name": "Hotel", "shortName": "Hotel", "id": "4bf58dd8d48988d1fa931735", "icon": {"prefix": "https://ss3.4sqi.net/img/categories_v2/travel/hotel_", "suffix": ".png"}}]}, {"stats": {"tipCount": 53, "checkinsCount": 4505, "usersCount": 2715}, "name": "Sheraton Diana Majestic", "referralId": "v-1446967473", "venueChains": [], "storeId": "53", "hereNow": {"count": 0, "groups": [], "summary": "Nobody here"}, "specials": {"count": 0, "items": []}, "allowMenuUrlEdit": true, "location": {"city": "Milano", "cc": "IT", "country": "Italia", "postalCode": "20129", "state": "Lombardia", "formattedAddress": ["Viale Piave, 42", "20129 Milano Lombardia", "Italia"], "address": "Viale Piave, 42", "lat": 45.473672747612, "lng": 9.206778}, "verified": true, "id": "4b058876f964a52019c722e3", "categories": [{"pluralName": "Hotels", "primary": true, "name": "Hotel", "shortName": "Hotel", "id": "4bf58dd8d48988d1fa931735", "icon": {"prefix": "https://ss3.4sqi.net/img/categories_v2/travel/hotel_", "suffix": ".png"}}]}, {"stats": {"tipCount": 9, "checkinsCount": 456, "usersCount": 286}, "name": "Excelsior Hotel Gallia", "referralId": "v-1446967473", "venueChains": [], "storeId": "", "hereNow": {"count": 0, "groups": [], "summary": "Nobody here"}, "specials": {"count": 0, "items": []}, "allowMenuUrlEdit": true, "location": {"city": "Milano", "cc": "IT", "country": "Italia", "postalCode": "20124", "state": "Lombardia", "formattedAddress": ["Piazza Duca d'Aosta 9", "20124 Milano Lombardia", "Italia"], "address": "Piazza Duca d'Aosta 9", "lat": 45.4856750930528, "lng": 9.202102407533161}, "venuePage": {"id": "105299528"}, "verified": true, "id": "53e389e6498eaab3359ce4ab", "categories": [{"pluralName": "Hotels", "primary": true, "name": "Hotel", "shortName": "Hotel", "id": "4bf58dd8d48988d1fa931735", "icon": {"prefix": "https://ss3.4sqi.net/img/categories_v2/travel/hotel_", "suffix": ".png"}}]}, {"stats": {"tipCount": 23, "checkinsCount": 855, "usersCount": 537}, "name": "Idea Hotel Plus Milano San Siro", "referralId": "v-1446967473", "venueChains": [], "hereNow": {"count": 0, "groups": [], "summary": "Nobody here"}, "specials": {"count": 0, "items": []}, "allowMenuUrlEdit": true, "location": {"city": "Milano", "cc": "IT", "country": "Italia", "postalCode": "20123", "state": "Lombardia", "formattedAddress": ["Via Gaetano Airaghi, 125 (Settimo Milanese)", "20123 Milano Lombardia", "Italia"], "crossStreet": "Settimo Milanese", "address": "Via Gaetano Airaghi, 125", "lat": 45.4716054971134, "lng": 9.077668190002441}, "verified": false, "id": "4ce426e3c36ba35d37d073f6", "categories": [{"pluralName": "Hotels", "primary": true, "name": "Hotel", "shortName": "Hotel", "id": "4bf58dd8d48988d1fa931735", "icon": {"prefix": "https://ss3.4sqi.net/img/categories_v2/travel/hotel_", "suffix": ".png"}}]}, {"stats": {"tipCount": 34, "checkinsCount": 1810, "usersCount": 940}, "name": "Ramada Plaza Hotel", "referralId": "v-1446967473", "venueChains": [], "hereNow": {"count": 0, "groups": [], "summary": "Nobody here"}, "specials": {"count": 0, "items": []}, "allowMenuUrlEdit": true, "location": {"city": "Milano", "cc": "IT", "country": "Italia", "postalCode": "20127", "state": "Lombardia", "formattedAddress": ["Via Stamira D'Ancona", "20127 Milano Lombardia", "Italia"], "address": "Via Stamira D'Ancona", "lat": 45.501669767274045, "lng": 9.227580601194274}, "verified": false, "id": "4c98eec4671db60cd0adbdf6", "categories": [{"pluralName": "Hotels", "primary": true, "name": "Hotel", "shortName": "Hotel", "id": "4bf58dd8d48988d1fa931735", "icon": {"prefix": "https://ss3.4sqi.net/img/categories_v2/travel/hotel_", "suffix": ".png"}}]}, {"stats": {"tipCount": 11, "checkinsCount": 664, "usersCount": 444}, "name": "Palazzo Parigi", "referralId": "v-1446967473", "venueChains": [], "hereNow": {"count": 0, "groups": [], "summary": "Nobody here"}, "specials": {"count": 0, "items": []}, "allowMenuUrlEdit": true, "location": {"city": "Milano", "cc": "IT", "country": "Italia", "postalCode": "20121", "state": "Lombardia", "formattedAddress": ["Corso di Porta Nuova, 1 (Via Fatebenefratelli)", "20121 Milano Lombardia", "Italia"], "crossStreet": "Via Fatebenefratelli", "address": "Corso di Porta Nuova, 1", "lat": 45.473395253020875, "lng": 9.191193190076461}, "verified": false, "id": "51101bcbe4b0873bd5e8824e", "categories": [{"pluralName": "Hotels", "primary": true, "name": "Hotel", "shortName": "Hotel", "id": "4bf58dd8d48988d1fa931735", "icon": {"prefix": "https://ss3.4sqi.net/img/categories_v2/travel/hotel_", "suffix": ".png"}}]}, {"stats": {"tipCount": 30, "checkinsCount": 1666, "usersCount": 941}, "name": "Atahotel Expo Fiera", "referralId": "v-1446967473", "venueChains": [{"id": "556f3fd7bd6a007c77382ad2"}], "hereNow": {"count": 0, "groups": [], "summary": "Nobody here"}, "specials": {"count": 0, "items": []}, "allowMenuUrlEdit": true, "location": {"city": "Pero", "cc": "IT", "country": "Italia", "postalCode": "20016", "state": "Lombardia", "formattedAddress": ["Via Giovanni Keplero 12", "20016 Pero Lombardia", "Italia"], "address": "Via Giovanni Keplero 12", "lat": 45.50235288226008, "lng": 9.086920899475103}, "verified": true, "id": "4bd859032ecdce729cbbd0f2", "categories": [{"pluralName": "Hotels", "primary": true, "name": "Hotel", "shortName": "Hotel", "id": "4bf58dd8d48988d1fa931735", "icon": {"prefix": "https://ss3.4sqi.net/img/categories_v2/travel/hotel_", "suffix": ".png"}}]}, {"stats": {"tipCount": 41, "checkinsCount": 4164, "usersCount": 1944}, "name": "Hilton Milan Hotel", "referralId": "v-1446967473", "venueChains": [{"id": "556e146fa7c82e6b725097d5"}], "storeId": "MILHITW", "hereNow": {"count": 0, "groups": [], "summary": "Nobody here"}, "specials": {"count": 0, "items": []}, "allowMenuUrlEdit": true, "location": {"city": "Milano", "cc": "IT", "country": "Italia", "postalCode": "20124", "state": "Lombardia", "formattedAddress": ["Via Luigi Galvani 12 (Copernico)", "20124 Milano Lombardia", "Italia"], "crossStreet": "Copernico", "address": "Via Luigi Galvani 12", "lat": 45.48625638099253, "lng": 9.20008296063388}, "verified": true, "id": "4b058876f964a5201ac722e3", "categories": [{"pluralName": "Hotels", "primary": true, "name": "Hotel", "shortName": "Hotel", "id": "4bf58dd8d48988d1fa931735", "icon": {"prefix": "https://ss3.4sqi.net/img/categories_v2/travel/hotel_", "suffix": ".png"}}]}, {"stats": {"tipCount": 5, "checkinsCount": 643, "usersCount": 291}, "name": "Le Robinie Golf & Resort Hotel Solbiate Olona", "referralId": "v-1446967473", "venueChains": [], "hereNow": {"count": 0, "groups": [], "summary": "Nobody here"}, "specials": {"count": 0, "items": []}, "allowMenuUrlEdit": true, "location": {"city": "Solbiate Olona", "cc": "IT", "country": "Italia", "state": "Lombardia", "formattedAddress": ["Via Per Busto Arsizio 9", "Solbiate Olona Lombardia", "Italia"], "address": "Via Per Busto Arsizio 9", "lat": 45.643974897599534, "lng": 8.8646316990079}, "verified": false, "id": "4bcf2c1b0ffdce72bd45b2c0", "categories": [{"pluralName": "Hotels", "primary": true, "name": "Hotel", "shortName": "Hotel", "id": "4bf58dd8d48988d1fa931735", "icon": {"prefix": "https://ss3.4sqi.net/img/categories_v2/travel/hotel_", "suffix": ".png"}}]}, {"stats": {"tipCount": 41, "checkinsCount": 1306, "usersCount": 828}, "name": "Crowne Plaza Milan Linate", "referralId": "v-1446967473", "venueChains": [{"id": "556ce747aceaff43eb056899"}], "storeId": "MILSD", "hereNow": {"count": 0, "groups": [], "summary": "Nobody here"}, "specials": {"count": 2, "items": [{"redemption": "webview", "description": "", "unlocked": true, "photo": {"suffix": "/29043111_8NLMV6eYP2xrJC3T0_PvBiPznpzISrw7tGe3J8ZlrUU.jpg", "height": 681, "width": 1024, "prefix": "https://irs1.4sqi.net/img/general/", "id": "53070af9498e9e42283f6956", "createdAt": 1392970489}, "title": "Special", "state": "unlocked", "interaction": {"entryUrl": "https://foursquare.com/device/specials/53070afa498e98bdb7c18710?venueId=4c86c87d9c808cfa67360f1e"}, "provider": "foursquare", "message": "Join IHG\u00ae Rewards Club free loyalty program and enjoy free Internet at Crowne Plaza Milan Linate! \nhttps://www.ihg.com/rewardsclub/gb/en/join/register", "type": "frequency", "id": "53070afa498e98bdb7c18710", "icon": "default"}, {"redemption": "webview", "description": "", "unlocked": true, "photo": {"suffix": "/29043111_aaafIIeysWQUOJYeKOeOFIUNUX5FAOdWxk1hEiDtXlI.jpg", "height": 1200, "width": 1200, "prefix": "https://irs3.4sqi.net/img/general/", "id": "5488750c498e822f0ea1ce33", "createdAt": 1418229004}, "title": "Special", "state": "unlocked", "interaction": {"entryUrl": "https://foursquare.com/device/specials/5488750c498ebaa21e18ffa4?venueId=4c86c87d9c808cfa67360f1e"}, "provider": "foursquare", "message": "Scarica l'app IHG dal seguente link http://bit.ly/1tHRL74 e guadagna 500 punti IHG Rewards\n\nDownload the IHG app from this link http://bit.ly/1tHRL74 and earn 500 IHG Reawards Points", "type": "frequency", "id": "5488750c498ebaa21e18ffa4", "icon": "default"}]}, "allowMenuUrlEdit": true, "location": {"city": "San Donato Milanese", "cc": "IT", "country": "Italia", "postalCode": "20097", "state": "Lombardia", "formattedAddress": ["Via K. Adenauer 3", "20097 San Donato Milanese Lombardia", "Italia"], "address": "Via K. Adenauer 3", "lat": 45.42116641897282, "lng": 9.25271987915039}, "verified": true, "id": "4c86c87d9c808cfa67360f1e", "categories": [{"pluralName": "Hotels", "primary": true, "name": "Hotel", "shortName": "Hotel", "id": "4bf58dd8d48988d1fa931735", "icon": {"prefix": "https://ss3.4sqi.net/img/categories_v2/travel/hotel_", "suffix": ".png"}}]}, {"stats": {"tipCount": 45, "checkinsCount": 4476, "usersCount": 2256}, "name": "Hotel Principe di Savoia", "referralId": "v-1446967473", "venueChains": [], "storeId": "", "hereNow": {"count": 0, "groups": [], "summary": "Nobody here"}, "specials": {"count": 0, "items": []}, "allowMenuUrlEdit": true, "location": {"city": "Milano", "cc": "IT", "country": "Italia", "postalCode": "20124", "state": "Lombardia", "formattedAddress": ["Piazza della Repubblica 17", "20124 Milano Lombardia", "Italia"], "address": "Piazza della Repubblica 17", "lat": 45.480189421538256, "lng": 9.197831153869629}, "venuePage": {"id": "33760526"}, "verified": true, "id": "4b058876f964a52014c722e3", "categories": [{"pluralName": "Hotels", "primary": true, "name": "Hotel", "shortName": "Hotel", "id": "4bf58dd8d48988d1fa931735", "icon": {"prefix": "https://ss3.4sqi.net/img/categories_v2/travel/hotel_", "suffix": ".png"}}]}, {"stats": {"tipCount": 13, "checkinsCount": 600, "usersCount": 353}, "name": "Hotel Da Vinci", "referralId": "v-1446967473", "venueChains": [], "hereNow": {"count": 0, "groups": [], "summary": "Nobody here"}, "specials": {"count": 0, "items": []}, "allowMenuUrlEdit": true, "location": {"city": "Milano", "cc": "IT", "country": "Italia", "postalCode": "20161", "state": "Lombardia", "formattedAddress": ["Via Senigallia, 6", "20161 Milano Lombardia", "Italia"], "address": "Via Senigallia, 6", "lat": 45.533049858430665, "lng": 9.171015282034439}, "verified": false, "id": "4b8c624ef964a52009ce32e3", "categories": [{"pluralName": "Hotels", "primary": true, "name": "Hotel", "shortName": "Hotel", "id": "4bf58dd8d48988d1fa931735", "icon": {"prefix": "https://ss3.4sqi.net/img/categories_v2/travel/hotel_", "suffix": ".png"}}]}, {"stats": {"tipCount": 13, "checkinsCount": 1025, "usersCount": 624}, "name": "Novotel Milano Linate Aeroporto", "referralId": "v-1446967473", "venueChains": [], "hereNow": {"count": 0, "groups": [], "summary": "Nobody here"}, "specials": {"count": 0, "items": []}, "allowMenuUrlEdit": true, "location": {"city": "Milano", "cc": "IT", "country": "Italia", "postalCode": "20138", "state": "Lombardia", "formattedAddress": ["Via Mecenate, 121", "20138 Milano Lombardia", "Italia"], "address": "Via Mecenate, 121", "lat": 45.44814153118113, "lng": 9.257443155140514}, "verified": false, "id": "4b058877f964a5202dc722e3", "categories": [{"pluralName": "Hotels", "primary": true, "name": "Hotel", "shortName": "Hotel", "id": "4bf58dd8d48988d1fa931735", "icon": {"prefix": "https://ss3.4sqi.net/img/categories_v2/travel/hotel_", "suffix": ".png"}}]}, {"stats": {"tipCount": 14, "checkinsCount": 415, "usersCount": 283}, "name": "Hotel Arcimboldi", "referralId": "v-1446967473", "venueChains": [], "hereNow": {"count": 0, "groups": [], "summary": "Nobody here"}, "specials": {"count": 0, "items": []}, "allowMenuUrlEdit": true, "location": {"city": "Milano", "cc": "IT", "country": "Italia", "postalCode": "20126", "state": "Lombardia", "formattedAddress": ["Viale Sarca 336", "20126 Milano Lombardia", "Italia"], "address": "Viale Sarca 336", "lat": 45.52547092376152, "lng": 9.215106615688095}, "verified": false, "id": "53f37b3e498e55bbf585cfe8", "categories": [{"pluralName": "Hotels", "primary": true, "name": "Hotel", "shortName": "Hotel", "id": "4bf58dd8d48988d1fa931735", "icon": {"prefix": "https://ss3.4sqi.net/img/categories_v2/travel/hotel_", "suffix": ".png"}}]}]}}