{"meta": {"code": 200, "requestId": "563ef8b0498ec4b6c9030e70"}, "response": {"confident": false, "geocode": {"parents": [], "what": "", "where": "munich", "feature": {"highlightedName": "<b>Munich</b>, Germany", "displayName": "Munich, Germany", "name": "Munich", "longId": "72057594040795650", "cc": "DE", "id": "geonameid:2867714", "geometry": {"center": {"lat": 48.13743, "lng": 11.57549}, "bounds": {"sw": {"lat": 48.056709032148035, "lng": 11.366852915131258}, "ne": {"lat": 48.25054098984264, "lng": 11.721548078800224}}}, "matchedName": "Munich, Germany", "woeType": 7, "slug": "munchen-germany"}}, "venues": [{"stats": {"tipCount": 4, "checkinsCount": 162, "usersCount": 65}, "name": "Aloft Munich", "referralId": "v-1446967472", "venueChains": [], "hereNow": {"count": 0, "groups": [], "summary": "Nobody here"}, "specials": {"count": 0, "items": []}, "allowMenuUrlEdit": true, "location": {"city": "M\u00fcnchen", "cc": "DE", "country": "Deutschland", "postalCode": "80335", "state": "Bayern", "formattedAddress": ["Bayerstra\u00dfe 35-37", "80335 M\u00fcnchen", "Deutschland"], "address": "Bayerstra\u00dfe 35-37", "lat": 48.139265279909104, "lng": 11.55890000980511}, "verified": false, "id": "5564a11e498e9707bfdabcd7", "categories": [{"pluralName": "Hotels", "primary": true, "name": "Hotel", "shortName": "Hotel", "id": "4bf58dd8d48988d1fa931735", "icon": {"prefix": "https://ss3.4sqi.net/img/categories_v2/travel/hotel_", "suffix": ".png"}}]}, {"stats": {"tipCount": 0, "checkinsCount": 46, "usersCount": 24}, "name": "ibis Muenchen City Arnulfpark", "referralId": "v-1446967472", "venueChains": [], "hereNow": {"count": 0, "groups": [], "summary": "Nobody here"}, "specials": {"count": 0, "items": []}, "allowMenuUrlEdit": true, "location": {"city": "M\u00fcnchen", "cc": "DE", "country": "Deutschland", "postalCode": "80636", "state": "Bayern", "formattedAddress": ["Arnulfstrasse 55", "80636 M\u00fcnchen", "Deutschland"], "address": "Arnulfstrasse 55", "lat": 48.14524334899598, "lng": 11.540000438690186}, "verified": false, "id": "5491bb6f498e99415c7799ad", "categories": [{"pluralName": "Hotels", "primary": true, "name": "Hotel", "shortName": "Hotel", "id": "4bf58dd8d48988d1fa931735", "icon": {"prefix": "https://ss3.4sqi.net/img/categories_v2/travel/hotel_", "suffix": ".png"}}]}, {"stats": {"tipCount": 50, "checkinsCount": 5267, "usersCount": 2495}, "name": "Le M\u00e9ridien M\u00fcnchen", "referralId": "v-1446967472", "venueChains": [], "storeId": "1860", "hereNow": {"count": 1, "groups": [{"count": 1, "items": [], "type": "others", "name": "Other people here"}], "summary": "One other person is here"}, "specials": {"count": 0, "items": []}, "allowMenuUrlEdit": true, "location": {"city": "M\u00fcnchen", "cc": "DE", "country": "Deutschland", "postalCode": "80335", "state": "Bayern", "formattedAddress": ["Bayerstr. 41", "80335 M\u00fcnchen", "Deutschland"], "address": "Bayerstr. 41", "lat": 48.139036330559286, "lng": 11.557939052581787}, "verified": true, "id": "4b5c32b5f964a5201c2729e3", "categories": [{"pluralName": "Hotels", "primary": true, "name": "Hotel", "shortName": "Hotel", "id": "4bf58dd8d48988d1fa931735", "icon": {"prefix": "https://ss3.4sqi.net/img/categories_v2/travel/hotel_", "suffix": ".png"}}]}, {"stats": {"tipCount": 27, "checkinsCount": 1618, "usersCount": 691}, "name": "Pullman Munich", "referralId": "v-1446967472", "venueChains": [{"id": "5569f417a7c8896abe7c7698"}], "storeId": "", "hereNow": {"count": 0, "groups": [], "summary": "Nobody here"}, "specials": {"count": 0, "items": []}, "allowMenuUrlEdit": true, "location": {"city": "M\u00fcnchen", "cc": "DE", "country": "Deutschland", "postalCode": "80805", "state": "Bayern", "formattedAddress": ["Theodor-Dombart-Str. 4", "80805 M\u00fcnchen", "Deutschland"], "address": "Theodor-Dombart-Str. 4", "lat": 48.17260998513478, "lng": 11.594434080338152}, "verified": true, "id": "4f21c5cfe4b0eec7fb6c96ad", "categories": [{"pluralName": "Hotels", "primary": true, "name": "Hotel", "shortName": "Hotel", "id": "4bf58dd8d48988d1fa931735", "icon": {"prefix": "https://ss3.4sqi.net/img/categories_v2/travel/hotel_", "suffix": ".png"}}]}, {"stats": {"tipCount": 71, "checkinsCount": 6159, "usersCount": 3056}, "name": "Sofitel Munich Bayerpost", "referralId": "v-1446967472", "venueChains": [{"id": "556ce2a7aceaff43eb04b490"}], "storeId": "", "hereNow": {"count": 0, "groups": [], "summary": "Nobody here"}, "specials": {"count": 0, "items": []}, "allowMenuUrlEdit": true, "location": {"city": "M\u00fcnchen", "cc": "DE", "country": "Deutschland", "postalCode": "80335", "state": "Bayern", "formattedAddress": ["Bayerstr. 12", "80335 M\u00fcnchen", "Deutschland"], "address": "Bayerstr. 12", "lat": 48.13944855613769, "lng": 11.557176975131222}, "verified": true, "id": "4b8ffa3ff964a520a16d33e3", "categories": [{"pluralName": "Hotels", "primary": true, "name": "Hotel", "shortName": "Hotel", "id": "4bf58dd8d48988d1fa931735", "icon": {"prefix": "https://ss3.4sqi.net/img/categories_v2/travel/hotel_", "suffix": ".png"}}]}, {"stats": {"tipCount": 57, "checkinsCount": 5055, "usersCount": 2225}, "name": "Hotel Vier Jahreszeiten Kempinski", "referralId": "v-1446967472", "venueChains": [], "storeId": "hotelvierjahreszeitenkempinski", "hereNow": {"count": 0, "groups": [], "summary": "Nobody here"}, "specials": {"count": 0, "items": []}, "allowMenuUrlEdit": true, "location": {"city": "M\u00fcnchen", "cc": "DE", "country": "Deutschland", "postalCode": "80539", "state": "Bayern", "formattedAddress": ["Maximilianstr. 17", "80539 M\u00fcnchen", "Deutschland"], "address": "Maximilianstr. 17", "lat": 48.13905041828785, "lng": 11.581876413242105}, "venuePage": {"id": "86494106"}, "verified": true, "id": "4ade0c8df964a520c76721e3", "categories": [{"pluralName": "Hotels", "primary": true, "name": "Hotel", "shortName": "Hotel", "id": "4bf58dd8d48988d1fa931735", "icon": {"prefix": "https://ss3.4sqi.net/img/categories_v2/travel/hotel_", "suffix": ".png"}}]}, {"stats": {"tipCount": 20, "checkinsCount": 1848, "usersCount": 729}, "name": "Motel One M\u00fcnchen-City-S\u00fcd", "referralId": "v-1446967472", "venueChains": [], "hereNow": {"count": 0, "groups": [], "summary": "Nobody here"}, "specials": {"count": 0, "items": []}, "allowMenuUrlEdit": true, "location": {"city": "M\u00fcnchen", "cc": "DE", "country": "Deutschland", "postalCode": "81539", "state": "Bayern", "formattedAddress": ["Tegernseer Landstr. 165", "81539 M\u00fcnchen", "Deutschland"], "address": "Tegernseer Landstr. 165", "lat": 48.108835319222614, "lng": 11.57984733581543}, "verified": false, "id": "4c8e29df58668cfa8678cfec", "categories": [{"pluralName": "Hotels", "primary": true, "name": "Hotel", "shortName": "Hotel", "id": "4bf58dd8d48988d1fa931735", "icon": {"prefix": "https://ss3.4sqi.net/img/categories_v2/travel/hotel_", "suffix": ".png"}}]}, {"stats": {"tipCount": 11, "checkinsCount": 833, "usersCount": 348}, "name": "Adagio M\u00fcnchen City Aparthotel", "referralId": "v-1446967472", "venueChains": [{"id": "556a2b1ea7c8957d73d3aff7"}], "hereNow": {"count": 0, "groups": [], "summary": "Nobody here"}, "specials": {"count": 0, "items": []}, "allowMenuUrlEdit": true, "location": {"city": "M\u00fcnchen", "cc": "DE", "country": "Deutschland", "postalCode": "80336", "state": "Bayern", "formattedAddress": ["Schwanthalerstr. 61", "80336 M\u00fcnchen", "Deutschland"], "address": "Schwanthalerstr. 61", "lat": 48.13724639344325, "lng": 11.556640863418579}, "verified": true, "id": "4e37e9d8fa7606f143ff64d2", "categories": [{"pluralName": "Hotels", "primary": true, "name": "Hotel", "shortName": "Hotel", "id": "4bf58dd8d48988d1fa931735", "icon": {"prefix": "https://ss3.4sqi.net/img/categories_v2/travel/hotel_", "suffix": ".png"}}]}, {"stats": {"tipCount": 21, "checkinsCount": 989, "usersCount": 501}, "name": "Ramada Hotel & Conference Center M\u00fcnchen Messe", "referralId": "v-1446967472", "venueChains": [{"id": "5569faf8a7c8896abe7d5325"}], "hereNow": {"count": 0, "groups": [], "summary": "Nobody here"}, "specials": {"count": 0, "items": []}, "allowMenuUrlEdit": true, "location": {"city": "M\u00fcnchen", "cc": "DE", "country": "Deutschland", "postalCode": "81929", "state": "Bayern", "formattedAddress": ["Konrad-Zuse-Platz 14", "81929 M\u00fcnchen", "Deutschland"], "address": "Konrad-Zuse-Platz 14", "lat": 48.13727198574464, "lng": 11.689613792904193}, "verified": true, "id": "5012aa86e4b0adaeb0474059", "categories": [{"pluralName": "Hotels", "primary": true, "name": "Hotel", "shortName": "Hotel", "id": "4bf58dd8d48988d1fa931735", "icon": {"prefix": "https://ss3.4sqi.net/img/categories_v2/travel/hotel_", "suffix": ".png"}}]}, {"stats": {"tipCount": 57, "checkinsCount": 5285, "usersCount": 2689}, "name": "Hotel Bayerischer Hof", "referralId": "v-1446967472", "venueChains": [], "hereNow": {"count": 0, "groups": [], "summary": "Nobody here"}, "specials": {"count": 0, "items": []}, "allowMenuUrlEdit": true, "location": {"city": "M\u00fcnchen", "cc": "DE", "country": "Deutschland", "postalCode": "80333", "state": "Bayern", "formattedAddress": ["Promenadeplatz 2-6", "80333 M\u00fcnchen", "Deutschland"], "address": "Promenadeplatz 2-6", "lat": 48.140351322272956, "lng": 11.573110565118172}, "verified": false, "id": "4ade0c89f964a520ad6721e3", "categories": [{"pluralName": "Hotels", "primary": true, "name": "Hotel", "shortName": "Hotel", "id": "4bf58dd8d48988d1fa931735", "icon": {"prefix": "https://ss3.4sqi.net/img/categories_v2/travel/hotel_", "suffix": ".png"}}]}, {"stats": {"tipCount": 5, "checkinsCount": 659, "usersCount": 288}, "name": "Citadines Apart Hotel", "referralId": "v-1446967472", "venueChains": [], "hereNow": {"count": 0, "groups": [], "summary": "Nobody here"}, "specials": {"count": 0, "items": []}, "allowMenuUrlEdit": true, "location": {"city": "M\u00fcnchen", "cc": "DE", "country": "Deutschland", "postalCode": "80636", "state": "Bayern", "formattedAddress": ["Arnulfstr. 51", "80636 M\u00fcnchen", "Deutschland"], "address": "Arnulfstr. 51", "lat": 48.14489685986552, "lng": 11.541852789706933}, "verified": false, "id": "4b641859f964a520c39e2ae3", "categories": [{"pluralName": "Hotels", "primary": true, "name": "Hotel", "shortName": "Hotel", "id": "4bf58dd8d48988d1fa931735", "icon": {"prefix": "https://ss3.4sqi.net/img/categories_v2/travel/hotel_", "suffix": ".png"}}]}, {"stats": {"tipCount": 34, "checkinsCount": 3138, "usersCount": 1537}, "name": "Motel One M\u00fcnchen-Deutsches Museum", "referralId": "v-1446967472", "venueChains": [], "hereNow": {"count": 0, "groups": [], "summary": "Nobody here"}, "specials": {"count": 0, "items": []}, "allowMenuUrlEdit": true, "location": {"city": "M\u00fcnchen", "cc": "DE", "country": "Deutschland", "postalCode": "81669", "state": "Bayern", "formattedAddress": ["Rablstr. 2", "81669 M\u00fcnchen", "Deutschland"], "address": "Rablstr. 2", "lat": 48.12790368826013, "lng": 11.588688767818395}, "verified": false, "id": "4d40810ecb84b60c6ccd86ab", "categories": [{"pluralName": "Hotels", "primary": true, "name": "Hotel", "shortName": "Hotel", "id": "4bf58dd8d48988d1fa931735", "icon": {"prefix": "https://ss3.4sqi.net/img/categories_v2/travel/hotel_", "suffix": ".png"}}]}, {"stats": {"tipCount": 20, "checkinsCount": 1103, "usersCount": 746}, "name": "Sheraton Munich Airport Hotel", "referralId": "v-1446967472", "venueChains": [], "storeId": "147", "hereNow": {"count": 0, "groups": [], "summary": "Nobody here"}, "specials": {"count": 0, "items": []}, "allowMenuUrlEdit": true, "location": {"city": "Schwaig", "cc": "DE", "country": "Deutschland", "postalCode": "85445", "state": "Bayern", "formattedAddress": ["Freisinger Str. 80", "85445 Schwaig-Oberding", "Deutschland"], "address": "Freisinger Str. 80", "lat": 48.3424653513318, "lng": 11.833043565569993}, "verified": true, "id": "4b464e61f964a5201c1d26e3", "categories": [{"pluralName": "Hotels", "primary": true, "name": "Hotel", "shortName": "Hotel", "id": "4bf58dd8d48988d1fa931735", "icon": {"prefix": "https://ss3.4sqi.net/img/categories_v2/travel/hotel_", "suffix": ".png"}}]}, {"stats": {"tipCount": 15, "checkinsCount": 1142, "usersCount": 676}, "name": "Munich Airport Marriott Hotel", "referralId": "v-1446967472", "venueChains": [], "storeId": "", "hereNow": {"count": 0, "groups": [], "summary": "Nobody here"}, "specials": {"count": 0, "items": []}, "allowMenuUrlEdit": true, "location": {"city": "Freising", "cc": "DE", "country": "Deutschland", "postalCode": "85354", "state": "Bayern", "formattedAddress": ["Alois Steinecker Strasse 20 (Flughafen M\u00fcnchen)", "85354 Freising", "Deutschland"], "crossStreet": "Flughafen M\u00fcnchen", "address": "Alois Steinecker Strasse 20", "lat": 48.404138826874515, "lng": 11.742850542068481}, "venuePage": {"id": "33151763"}, "verified": true, "id": "4bc5ee7042419521f541031d", "categories": [{"pluralName": "Hotels", "primary": true, "name": "Hotel", "shortName": "Hotel", "id": "4bf58dd8d48988d1fa931735", "icon": {"prefix": "https://ss3.4sqi.net/img/categories_v2/travel/hotel_", "suffix": ".png"}}]}, {"stats": {"tipCount": 10, "checkinsCount": 1182, "usersCount": 555}, "name": "Mercure Hotel M\u00fcnchen Neuperlach S\u00fcd", "referralId": "v-1446967472", "venueChains": [], "hereNow": {"count": 0, "groups": [], "summary": "Nobody here"}, "specials": {"count": 0, "items": []}, "allowMenuUrlEdit": true, "location": {"city": "M\u00fcnchen", "cc": "DE", "country": "Deutschland", "postalCode": "81739", "state": "Bayern", "formattedAddress": ["Rudolf-Vogel-Bogen 3", "81739 M\u00fcnchen", "Deutschland"], "address": "Rudolf-Vogel-Bogen 3", "lat": 48.09217256961021, "lng": 11.644303224191429}, "verified": false, "id": "4bc4b7b5920eb71312291f2c", "categories": [{"pluralName": "Hotels", "primary": true, "name": "Hotel", "shortName": "Hotel", "id": "4bf58dd8d48988d1fa931735", "icon": {"prefix": "https://ss3.4sqi.net/img/categories_v2/travel/hotel_", "suffix": ".png"}}]}, {"stats": {"tipCount": 18, "checkinsCount": 2126, "usersCount": 843}, "name": "Courtyard by Marriott City East", "referralId": "v-1446967472", "venueChains": [], "hereNow": {"count": 0, "groups": [], "summary": "Nobody here"}, "specials": {"count": 0, "items": []}, "allowMenuUrlEdit": true, "location": {"city": "M\u00fcnchen", "cc": "DE", "country": "Deutschland", "postalCode": "81667", "state": "Bayern", "formattedAddress": ["Orleansstr. 83", "81667 M\u00fcnchen", "Deutschland"], "address": "Orleansstr. 83", "lat": 48.131496693283765, "lng": 11.608171463012695}, "verified": false, "id": "4e2979bd315171a3be0f0723", "categories": [{"pluralName": "Hotels", "primary": true, "name": "Hotel", "shortName": "Hotel", "id": "4bf58dd8d48988d1fa931735", "icon": {"prefix": "https://ss3.4sqi.net/img/categories_v2/travel/hotel_", "suffix": ".png"}}]}, {"stats": {"tipCount": 16, "checkinsCount": 1134, "usersCount": 498}, "name": "Hotel Europa", "referralId": "v-1446967472", "venueChains": [], "hereNow": {"count": 0, "groups": [], "summary": "Nobody here"}, "specials": {"count": 0, "items": []}, "allowMenuUrlEdit": true, "location": {"city": "M\u00fcnchen", "cc": "DE", "country": "Deutschland", "postalCode": "80335", "state": "Bayern", "formattedAddress": ["Dachauer Str. 115", "80335 M\u00fcnchen", "Deutschland"], "address": "Dachauer Str. 115", "lat": 48.15198296583276, "lng": 11.556237630194735}, "verified": false, "id": "4ade0c8af964a520b26721e3", "categories": [{"pluralName": "Hotels", "primary": true, "name": "Hotel", "shortName": "Hotel", "id": "4bf58dd8d48988d1fa931735", "icon": {"prefix": "https://ss3.4sqi.net/img/categories_v2/travel/hotel_", "suffix": ".png"}}]}, {"stats": {"tipCount": 6, "checkinsCount": 366, "usersCount": 205}, "name": "Star Inn Hotel M\u00fcnchen Schwabing", "referralId": "v-1446967472", "venueChains": [], "storeId": "", "hereNow": {"count": 0, "groups": [], "summary": "Nobody here"}, "specials": {"count": 0, "items": []}, "allowMenuUrlEdit": true, "location": {"city": "M\u00fcnchen", "cc": "DE", "country": "Deutschland", "postalCode": "80807", "state": "Bayern", "formattedAddress": ["Domagkstr. 11", "80807 M\u00fcnchen", "Deutschland"], "address": "Domagkstr. 11", "lat": 48.18516584859184, "lng": 11.587902898440936}, "venuePage": {"id": "82170108"}, "verified": true, "id": "4bcf65c90ffdce721e6eb2c0", "categories": [{"pluralName": "Hotels", "primary": true, "name": "Hotel", "shortName": "Hotel", "id": "4bf58dd8d48988d1fa931735", "icon": {"prefix": "https://ss3.4sqi.net/img/categories_v2/travel/hotel_", "suffix": ".png"}}]}, {"stats": {"tipCount": 30, "checkinsCount": 2213, "usersCount": 1082}, "name": "Novotel Muenchen City", "referralId": "v-1446967472", "venueChains": [], "hereNow": {"count": 0, "groups": [], "summary": "Nobody here"}, "specials": {"count": 0, "items": []}, "allowMenuUrlEdit": true, "location": {"city": "M\u00fcnchen", "cc": "DE", "country": "Deutschland", "postalCode": "81669", "state": "Bayern", "formattedAddress": ["Hochstrasse 11", "81669 M\u00fcnchen", "Deutschland"], "address": "Hochstrasse 11", "lat": 48.12946306727391, "lng": 11.589195461104623}, "verified": false, "id": "4b3b7400f964a5200e7425e3", "categories": [{"pluralName": "Hotels", "primary": true, "name": "Hotel", "shortName": "Hotel", "id": "4bf58dd8d48988d1fa931735", "icon": {"prefix": "https://ss3.4sqi.net/img/categories_v2/travel/hotel_", "suffix": ".png"}}]}, {"stats": {"tipCount": 27, "checkinsCount": 3118, "usersCount": 1353}, "name": "Munich Marriott Hotel", "referralId": "v-1446967472", "venueChains": [], "storeId": "MUCNO", "hereNow": {"count": 0, "groups": [], "summary": "Nobody here"}, "specials": {"count": 0, "items": []}, "allowMenuUrlEdit": true, "location": {"city": "M\u00fcnchen", "cc": "DE", "country": "Deutschland", "postalCode": "80805", "state": "Bayern", "formattedAddress": ["Berliner Strasse 93", "80805 M\u00fcnchen", "Deutschland"], "address": "Berliner Strasse 93", "lat": 48.174552128796805, "lng": 11.592912151972996}, "venuePage": {"id": "33076467"}, "verified": true, "id": "4b73be29f964a52047ba2de3", "categories": [{"pluralName": "Hotels", "primary": true, "name": "Hotel", "shortName": "Hotel", "id": "4bf58dd8d48988d1fa931735", "icon": {"prefix": "https://ss3.4sqi.net/img/categories_v2/travel/hotel_", "suffix": ".png"}}]}, {"stats": {"tipCount": 17, "checkinsCount": 2662, "usersCount": 1812}, "name": "NH M\u00fcnchen Airport", "referralId": "v-1446967472", "venueChains": [{"id": "556ce426aceaff43eb04e8a4"}], "storeId": "270", "hereNow": {"count": 0, "groups": [], "summary": "Nobody here"}, "specials": {"count": 0, "items": []}, "allowMenuUrlEdit": true, "location": {"city": "Schwaig", "cc": "DE", "country": "Deutschland", "state": "Bayern", "formattedAddress": ["Lohstr. 21", "Schwaig", "Deutschland"], "address": "Lohstr. 21", "lat": 48.35215693, "lng": 11.8296561}, "verified": true, "id": "4b6974def964a52017a32be3", "categories": [{"pluralName": "Hotels", "primary": true, "name": "Hotel", "shortName": "Hotel", "id": "4bf58dd8d48988d1fa931735", "icon": {"prefix": "https://ss3.4sqi.net/img/categories_v2/travel/hotel_", "suffix": ".png"}}]}, {"stats": {"tipCount": 18, "checkinsCount": 2178, "usersCount": 1029}, "name": "Sheraton Munich Westpark Hotel", "referralId": "v-1446967472", "venueChains": [], "storeId": "146", "hereNow": {"count": 0, "groups": [], "summary": "Nobody here"}, "specials": {"count": 0, "items": []}, "allowMenuUrlEdit": true, "location": {"city": "M\u00fcnchen", "cc": "DE", "country": "Deutschland", "postalCode": "80339", "state": "Bayern", "formattedAddress": ["Garmischer Str. 2", "80339 M\u00fcnchen", "Deutschland"], "address": "Garmischer Str. 2", "lat": 48.133444359966056, "lng": 11.532490253448486}, "verified": true, "id": "4b8b9b77f964a52029a432e3", "categories": [{"pluralName": "Hotels", "primary": true, "name": "Hotel", "shortName": "Hotel", "id": "4bf58dd8d48988d1fa931735", "icon": {"prefix": "https://ss3.4sqi.net/img/categories_v2/travel/hotel_", "suffix": ".png"}}]}, {"stats": {"tipCount": 50, "checkinsCount": 4938, "usersCount": 2349}, "name": "Hilton Munich Park", "referralId": "v-1446967472", "venueChains": [{"id": "556e146fa7c82e6b725097d5"}], "storeId": "MUCHITW", "hereNow": {"count": 0, "groups": [], "summary": "Nobody here"}, "specials": {"count": 0, "items": []}, "allowMenuUrlEdit": true, "location": {"city": "M\u00fcnchen", "cc": "DE", "country": "Deutschland", "postalCode": "80538", "state": "Bayern", "formattedAddress": ["Am Tucherpark 7", "80538 M\u00fcnchen", "Deutschland"], "address": "Am Tucherpark 7", "lat": 48.15238876459059, "lng": 11.598418346329773}, "verified": true, "id": "4ade0c8df964a520c26721e3", "categories": [{"pluralName": "Hotels", "primary": true, "name": "Hotel", "shortName": "Hotel", "id": "4bf58dd8d48988d1fa931735", "icon": {"prefix": "https://ss3.4sqi.net/img/categories_v2/travel/hotel_", "suffix": ".png"}}]}, {"stats": {"tipCount": 37, "checkinsCount": 2831, "usersCount": 1394}, "name": "Leonardo Royal Hotel Munich", "referralId": "v-1446967472", "venueChains": [{"id": "5569ee50a7c8896abe7bc621"}], "storeId": "", "hereNow": {"count": 0, "groups": [], "summary": "Nobody here"}, "specials": {"count": 0, "items": []}, "allowMenuUrlEdit": true, "location": {"city": "M\u00fcnchen", "cc": "DE", "country": "Deutschland", "postalCode": "80809", "state": "Bayern", "formattedAddress": ["Moosacher Stra\u00dfe 90", "80809 M\u00fcnchen", "Deutschland"], "address": "Moosacher Stra\u00dfe 90", "lat": 48.18699325886463, "lng": 11.543240160602814}, "verified": true, "id": "4d2b8a66c406721e620c8db6", "categories": [{"pluralName": "Hotels", "primary": true, "name": "Hotel", "shortName": "Hotel", "id": "4bf58dd8d48988d1fa931735", "icon": {"prefix": "https://ss3.4sqi.net/img/categories_v2/travel/hotel_", "suffix": ".png"}}]}, {"stats": {"tipCount": 36, "checkinsCount": 4424, "usersCount": 1756}, "name": "Sheraton Munich Arabellapark Hotel", "referralId": "v-1446967472", "venueChains": [], "storeId": "145", "hereNow": {"count": 0, "groups": [], "summary": "Nobody here"}, "specials": {"count": 0, "items": []}, "allowMenuUrlEdit": true, "location": {"city": "M\u00fcnchen", "cc": "DE", "country": "Deutschland", "postalCode": "81925", "state": "Bayern", "formattedAddress": ["Arabellastr. 5", "81925 M\u00fcnchen", "Deutschland"], "address": "Arabellastr. 5", "lat": 48.15120365859546, "lng": 11.617852893928655}, "verified": true, "id": "4ade0c8cf964a520bf6721e3", "categories": [{"pluralName": "Hotels", "primary": true, "name": "Hotel", "shortName": "Hotel", "id": "4bf58dd8d48988d1fa931735", "icon": {"prefix": "https://ss3.4sqi.net/img/categories_v2/travel/hotel_", "suffix": ".png"}}]}, {"stats": {"tipCount": 31, "checkinsCount": 2642, "usersCount": 1278}, "name": "Eurostars Grand Central Hotel", "referralId": "v-1446967472", "venueChains": [{"id": "556a20eca7c8957d73d29b71"}], "hereNow": {"count": 0, "groups": [], "summary": "Nobody here"}, "specials": {"count": 0, "items": []}, "allowMenuUrlEdit": true, "location": {"city": "M\u00fcnchen", "cc": "DE", "country": "Deutschland", "postalCode": "80636", "state": "Bayern", "formattedAddress": ["Arnulfstr. 35", "80636 M\u00fcnchen", "Deutschland"], "address": "Arnulfstr. 35", "lat": 48.14385198985691, "lng": 11.546345663453417}, "verified": true, "id": "4bdeecedfe0e62b5910e0606", "categories": [{"pluralName": "Hotels", "primary": true, "name": "Hotel", "shortName": "Hotel", "id": "4bf58dd8d48988d1fa931735", "icon": {"prefix": "https://ss3.4sqi.net/img/categories_v2/travel/hotel_", "suffix": ".png"}}]}, {"stats": {"tipCount": 42, "checkinsCount": 4171, "usersCount": 1827}, "name": "Hilton Munich City", "referralId": "v-1446967472", "venueChains": [{"id": "556e146fa7c82e6b725097d5"}], "storeId": "MUCCHTW", "hereNow": {"count": 0, "groups": [], "summary": "Nobody here"}, "specials": {"count": 0, "items": []}, "allowMenuUrlEdit": true, "location": {"city": "M\u00fcnchen", "cc": "DE", "country": "Deutschland", "postalCode": "81667", "state": "Bayern", "formattedAddress": ["Rosenheimer Str. 15", "81667 M\u00fcnchen", "Deutschland"], "address": "Rosenheimer Str. 15", "lat": 48.12978526342392, "lng": 11.592721939086914}, "verified": true, "id": "4ade0c8cf964a520c16721e3", "categories": [{"pluralName": "Hotels", "primary": true, "name": "Hotel", "shortName": "Hotel", "id": "4bf58dd8d48988d1fa931735", "icon": {"prefix": "https://ss3.4sqi.net/img/categories_v2/travel/hotel_", "suffix": ".png"}}]}, {"stats": {"tipCount": 54, "checkinsCount": 5054, "usersCount": 2263}, "name": "Holiday Inn Munich - City Centre", "referralId": "v-1446967472", "venueChains": [{"id": "556e0690a7c82e6b724e70a3"}], "storeId": "MUCHB", "hereNow": {"count": 0, "groups": [], "summary": "Nobody here"}, "specials": {"count": 0, "items": []}, "allowMenuUrlEdit": true, "location": {"city": "M\u00fcnchen", "cc": "DE", "country": "Deutschland", "postalCode": "81669", "state": "Bayern", "formattedAddress": ["Hochstra\u00dfe 3 (Rosenheimer Str.)", "81669 M\u00fcnchen", "Deutschland"], "crossStreet": "Rosenheimer Str.", "address": "Hochstra\u00dfe 3", "lat": 48.130420759989356, "lng": 11.589807985837979}, "verified": true, "id": "4b5c9505f964a520e33729e3", "categories": [{"pluralName": "Hotels", "primary": true, "name": "Hotel", "shortName": "Hotel", "id": "4bf58dd8d48988d1fa931735", "icon": {"prefix": "https://ss3.4sqi.net/img/categories_v2/travel/hotel_", "suffix": ".png"}}]}, {"stats": {"tipCount": 12, "checkinsCount": 1172, "usersCount": 604}, "name": "Leonardo Hotel & Residenz M\u00fcnchen", "referralId": "v-1446967472", "venueChains": [{"id": "5569ee50a7c8896abe7bc621"}], "storeId": "", "hereNow": {"count": 0, "groups": [], "summary": "Nobody here"}, "specials": {"count": 0, "items": []}, "allowMenuUrlEdit": true, "location": {"city": "M\u00fcnchen", "cc": "DE", "country": "Deutschland", "postalCode": "81539", "state": "Bayern", "formattedAddress": ["Heimgartenstr. 14", "81539 M\u00fcnchen", "Deutschland"], "address": "Heimgartenstr. 14", "lat": 48.113614932386454, "lng": 11.58361128434288}, "verified": true, "id": "4bd76383304fce72247d33ab", "categories": [{"pluralName": "Hotels", "primary": true, "name": "Hotel", "shortName": "Hotel", "id": "4bf58dd8d48988d1fa931735", "icon": {"prefix": "https://ss3.4sqi.net/img/categories_v2/travel/hotel_", "suffix": ".png"}}]}, {"stats": {"tipCount": 58, "checkinsCount": 9150, "usersCount": 3348}, "name": "The Westin Grand M\u00fcnchen", "referralId": "v-1446967472", "venueChains": [], "storeId": "274", "hereNow": {"count": 0, "groups": [], "summary": "Nobody here"}, "specials": {"count": 0, "items": []}, "allowMenuUrlEdit": true, "location": {"city": "M\u00fcnchen", "cc": "DE", "country": "Deutschland", "postalCode": "81925", "state": "Bayern", "formattedAddress": ["Arabellastr. 6", "81925 M\u00fcnchen", "Deutschland"], "address": "Arabellastr. 6", "lat": 48.152058034143664, "lng": 11.616711616516113}, "verified": true, "id": "4b4b00fbf964a520d19026e3", "categories": [{"pluralName": "Hotels", "primary": true, "name": "Hotel", "shortName": "Hotel", "id": "4bf58dd8d48988d1fa931735", "icon": {"prefix": "https://ss3.4sqi.net/img/categories_v2/travel/hotel_", "suffix": ".png"}}]}]}}