{"meta": {"code": 200, "requestId": "563ef8af498ec4b6c9030942"}, "response": {"confident": false, "geocode": {"parents": [], "what": "", "where": "paris", "feature": {"highlightedName": "<b>Paris</b>, France", "displayName": "Paris, France", "name": "Paris", "longId": "72057594040916443", "cc": "FR", "id": "geonameid:2988507", "geometry": {"center": {"lat": 48.85341, "lng": 2.3488}, "bounds": {"sw": {"lat": 48.670322030624696, "lng": 2.1084049608796893}, "ne": {"lat": 49.03356694704047, "lng": 2.6042489194755207}}}, "matchedName": "Paris, France", "woeType": 7, "slug": "paris"}}, "venues": [{"stats": {"tipCount": 11, "checkinsCount": 526, "usersCount": 274}, "name": "Hilton Paris Op\u00e9ra", "referralId": "v-1446967471", "venueChains": [], "hereNow": {"count": 1, "groups": [{"count": 1, "items": [], "type": "others", "name": "Other people here"}], "summary": "One other person is here"}, "specials": {"count": 0, "items": []}, "allowMenuUrlEdit": true, "location": {"city": "Paris", "cc": "FR", "country": "France", "postalCode": "75008", "state": "\u00cele-de-France", "formattedAddress": ["108 rue Saint-Lazare", "75008 Paris", "France"], "address": "108 rue Saint-Lazare", "lat": 48.875586196984464, "lng": 2.3255395889282227}, "venuePage": {"id": "125913757"}, "verified": true, "id": "4c8c717c509e370491d63355", "categories": [{"pluralName": "Hotels", "primary": true, "name": "Hotel", "shortName": "Hotel", "id": "4bf58dd8d48988d1fa931735", "icon": {"prefix": "https://ss3.4sqi.net/img/categories_v2/travel/hotel_", "suffix": ".png"}}]}, {"stats": {"tipCount": 34, "checkinsCount": 3982, "usersCount": 1729}, "name": "Hyatt Regency Paris - Charles de Gaulle", "referralId": "v-1446967471", "venueChains": [{"id": "556a41d7a7c8957d73d5f17e"}], "storeId": "PARIS", "hereNow": {"count": 1, "groups": [{"count": 1, "items": [], "type": "others", "name": "Other people here"}], "summary": "One other person is here"}, "specials": {"count": 0, "items": []}, "allowMenuUrlEdit": true, "location": {"city": "Roissy CDG Cedex", "cc": "FR", "country": "France", "postalCode": "95912", "state": "I_le-de-France", "formattedAddress": ["351 Ave du Bois de la Pie, CS 42048 Paris Nord 2", "95912 Roissy CDG Cedex", "France"], "address": "351 Ave du Bois de la Pie, CS 42048 Paris Nord 2", "lat": 48.99089082, "lng": 2.514152527}, "verified": true, "id": "4bab3ed9f964a520799b3ae3", "categories": [{"pluralName": "Hotels", "primary": true, "name": "Hotel", "shortName": "Hotel", "id": "4bf58dd8d48988d1fa931735", "icon": {"prefix": "https://ss3.4sqi.net/img/categories_v2/travel/hotel_", "suffix": ".png"}}]}, {"stats": {"tipCount": 19, "checkinsCount": 3715, "usersCount": 2248}, "name": "Ibis Berthier Porte de Clichy", "referralId": "v-1446967471", "venueChains": [], "hereNow": {"count": 1, "groups": [{"count": 1, "items": [], "type": "others", "name": "Other people here"}], "summary": "One other person is here"}, "specials": {"count": 0, "items": []}, "allowMenuUrlEdit": true, "location": {"city": "Paris", "cc": "FR", "country": "France", "postalCode": "75017", "state": "\u00cele-de-France", "formattedAddress": ["163 bis avenue de Clichy", "75017 Paris", "France"], "address": "163 bis avenue de Clichy", "lat": 48.89220208832784, "lng": 2.3152834534671785}, "verified": false, "id": "4adcda04f964a5200a3221e3", "categories": [{"pluralName": "Hotels", "primary": true, "name": "Hotel", "shortName": "Hotel", "id": "4bf58dd8d48988d1fa931735", "icon": {"prefix": "https://ss3.4sqi.net/img/categories_v2/travel/hotel_", "suffix": ".png"}}]}, {"stats": {"tipCount": 34, "checkinsCount": 4737, "usersCount": 2789}, "name": "Disney's Newport Bay Club", "referralId": "v-1446967471", "venueChains": [{"id": "556a4162a7c8957d73d5e49b"}], "hereNow": {"count": 1, "groups": [{"count": 1, "items": [], "type": "others", "name": "Other people here"}], "summary": "One other person is here"}, "specials": {"count": 0, "items": []}, "allowMenuUrlEdit": true, "location": {"city": "Chessy", "cc": "FR", "country": "France", "postalCode": "77700", "state": "\u00cele-de-France", "formattedAddress": ["Disneyland\u00ae Paris", "77700 Chessy", "France"], "address": "Disneyland\u00ae Paris", "lat": 48.86540642621635, "lng": 2.78928279876709}, "verified": true, "id": "4b9f3377f964a520a41737e3", "categories": [{"pluralName": "Hotels", "primary": true, "name": "Hotel", "shortName": "Hotel", "id": "4bf58dd8d48988d1fa931735", "icon": {"prefix": "https://ss3.4sqi.net/img/categories_v2/travel/hotel_", "suffix": ".png"}}]}, {"stats": {"tipCount": 13, "checkinsCount": 582, "usersCount": 371}, "name": "Generator", "referralId": "v-1446967471", "venueChains": [], "hereNow": {"count": 0, "groups": [], "summary": "Nobody here"}, "specials": {"count": 0, "items": []}, "allowMenuUrlEdit": true, "location": {"city": "Paris", "cc": "FR", "country": "France", "postalCode": "75010", "state": "\u00cele-de-France", "formattedAddress": ["Place Colonel Fabien", "75010 Paris", "France"], "address": "Place Colonel Fabien", "lat": 48.87835409760005, "lng": 2.3692680017704726}, "verified": false, "id": "531820ca11d2d41051d19bb4", "categories": [{"pluralName": "Hostels", "primary": true, "name": "Hostel", "shortName": "Hostel", "id": "4bf58dd8d48988d1ee931735", "icon": {"prefix": "https://ss3.4sqi.net/img/categories_v2/travel/hostel_", "suffix": ".png"}}]}, {"stats": {"tipCount": 36, "checkinsCount": 3862, "usersCount": 2157}, "name": "Disney's Sequoia Lodge", "referralId": "v-1446967471", "venueChains": [{"id": "556a4162a7c8957d73d5e49b"}], "hereNow": {"count": 0, "groups": [], "summary": "Nobody here"}, "specials": {"count": 0, "items": []}, "allowMenuUrlEdit": true, "location": {"city": "Chessy", "cc": "FR", "country": "France", "postalCode": "77700", "state": "\u00cele-de-France", "formattedAddress": ["Disneyland\u00ae Paris", "77700 Chessy", "France"], "address": "Disneyland\u00ae Paris", "lat": 48.86861054275508, "lng": 2.7904844284057617}, "verified": true, "id": "4bcf24e90ffdce728440b2c0", "categories": [{"pluralName": "Hotels", "primary": true, "name": "Hotel", "shortName": "Hotel", "id": "4bf58dd8d48988d1fa931735", "icon": {"prefix": "https://ss3.4sqi.net/img/categories_v2/travel/hotel_", "suffix": ".png"}}]}, {"stats": {"tipCount": 64, "checkinsCount": 6518, "usersCount": 3025}, "name": "H\u00f4tel Pullman Paris Montparnasse", "referralId": "v-1446967471", "venueChains": [], "hereNow": {"count": 0, "groups": [], "summary": "Nobody here"}, "specials": {"count": 0, "items": []}, "allowMenuUrlEdit": true, "location": {"city": "Paris", "cc": "FR", "country": "France", "postalCode": "75014", "state": "\u00cele-de-France", "formattedAddress": ["19 rue du Commandant Ren\u00e9 Mouchotte", "75014 Paris", "France"], "address": "19 rue du Commandant Ren\u00e9 Mouchotte", "lat": 48.838276782140575, "lng": 2.3200729455090823}, "verified": false, "id": "4d36b410d8caa1cdebd06fd6", "categories": [{"pluralName": "Hotels", "primary": true, "name": "Hotel", "shortName": "Hotel", "id": "4bf58dd8d48988d1fa931735", "icon": {"prefix": "https://ss3.4sqi.net/img/categories_v2/travel/hotel_", "suffix": ".png"}}]}, {"stats": {"tipCount": 31, "checkinsCount": 3655, "usersCount": 1732}, "name": "Paris Marriott Opera Ambassador Hotel", "referralId": "v-1446967471", "venueChains": [], "storeId": "PAROA", "hereNow": {"count": 0, "groups": [], "summary": "Nobody here"}, "specials": {"count": 0, "items": []}, "allowMenuUrlEdit": true, "location": {"city": "Paris", "cc": "FR", "country": "France", "postalCode": "75009", "state": "\u00cele-de-France", "formattedAddress": ["16 Boulevard Haussmann", "75009 Paris", "France"], "address": "16 Boulevard Haussmann", "lat": 48.872721753155915, "lng": 2.3367218859493732}, "venuePage": {"id": "60153291"}, "verified": true, "id": "4b1cb9a7f964a520420924e3", "categories": [{"pluralName": "Hotels", "primary": true, "name": "Hotel", "shortName": "Hotel", "id": "4bf58dd8d48988d1fa931735", "icon": {"prefix": "https://ss3.4sqi.net/img/categories_v2/travel/hotel_", "suffix": ".png"}}]}, {"stats": {"tipCount": 11, "checkinsCount": 1252, "usersCount": 766}, "name": "Hotel Mercure Paris Roissy Charles de Gaulle", "referralId": "v-1446967471", "venueChains": [], "hereNow": {"count": 0, "groups": [], "summary": "Nobody here"}, "specials": {"count": 0, "items": []}, "allowMenuUrlEdit": true, "location": {"city": "Roissy-en-France", "cc": "FR", "country": "France", "postalCode": "95708", "state": "\u00cele-de-France", "formattedAddress": ["A\u00e9roport Roissy Charles de Gaulle (CDG)", "95708 Roissy-en-France", "France"], "address": "A\u00e9roport Roissy Charles de Gaulle (CDG)", "lat": 49.007328148359136, "lng": 2.548486369886744}, "verified": false, "id": "4c29c2deed0ac9b6c73662aa", "categories": [{"pluralName": "Hotels", "primary": true, "name": "Hotel", "shortName": "Hotel", "id": "4bf58dd8d48988d1fa931735", "icon": {"prefix": "https://ss3.4sqi.net/img/categories_v2/travel/hotel_", "suffix": ".png"}}]}, {"stats": {"tipCount": 28, "checkinsCount": 1780, "usersCount": 884}, "name": "The Peninsula Paris", "referralId": "v-1446967471", "venueChains": [], "hereNow": {"count": 0, "groups": [], "summary": "Nobody here"}, "specials": {"count": 0, "items": []}, "allowMenuUrlEdit": true, "location": {"city": "Paris", "cc": "FR", "country": "France", "postalCode": "75116", "state": "\u00cele-de-France", "formattedAddress": ["19 avenue Kl\u00e9ber", "75116 Paris", "France"], "address": "19 avenue Kl\u00e9ber", "lat": 48.870882941582316, "lng": 2.2932243347167964}, "venuePage": {"id": "83287868"}, "verified": true, "id": "4df4832f14954f21cf31ff92", "categories": [{"pluralName": "Hotels", "primary": true, "name": "Hotel", "shortName": "Hotel", "id": "4bf58dd8d48988d1fa931735", "icon": {"prefix": "https://ss3.4sqi.net/img/categories_v2/travel/hotel_", "suffix": ".png"}}]}, {"stats": {"tipCount": 52, "checkinsCount": 8135, "usersCount": 3398}, "name": "InterContinental Paris Le Grand H\u00f4tel", "referralId": "v-1446967471", "venueChains": [{"id": "556a48c3a7c8957d73d66814"}], "storeId": "PARHB", "hereNow": {"count": 0, "groups": [], "summary": "Nobody here"}, "specials": {"count": 0, "items": []}, "allowMenuUrlEdit": true, "location": {"city": "Paris", "cc": "FR", "country": "France", "postalCode": "75009", "state": "\u00cele-de-France", "formattedAddress": ["2 rue Scribe", "75009 Paris", "France"], "address": "2 rue Scribe", "lat": 48.87084765667506, "lng": 2.331022024154663}, "verified": true, "id": "4adcda03f964a520d13121e3", "categories": [{"pluralName": "Hotels", "primary": true, "name": "Hotel", "shortName": "Hotel", "id": "4bf58dd8d48988d1fa931735", "icon": {"prefix": "https://ss3.4sqi.net/img/categories_v2/travel/hotel_", "suffix": ".png"}}]}, {"stats": {"tipCount": 57, "checkinsCount": 4349, "usersCount": 2098}, "name": "Le Bristol", "referralId": "v-1446967471", "venueChains": [], "hereNow": {"count": 0, "groups": [], "summary": "Nobody here"}, "specials": {"count": 0, "items": []}, "allowMenuUrlEdit": true, "location": {"city": "Paris", "cc": "FR", "country": "France", "postalCode": "75008", "state": "\u00cele-de-France", "formattedAddress": ["112 rue du Faubourg Saint-Honor\u00e9", "75008 Paris", "France"], "address": "112 rue du Faubourg Saint-Honor\u00e9", "lat": 48.871717844946964, "lng": 2.314781794827757}, "verified": true, "id": "4adcda00f964a520e13021e3", "categories": [{"pluralName": "Hotels", "primary": true, "name": "Hotel", "shortName": "Hotel", "id": "4bf58dd8d48988d1fa931735", "icon": {"prefix": "https://ss3.4sqi.net/img/categories_v2/travel/hotel_", "suffix": ".png"}}]}, {"stats": {"tipCount": 23, "checkinsCount": 2309, "usersCount": 1452}, "name": "Disney's Hotel Santa Fe", "referralId": "v-1446967471", "venueChains": [{"id": "556a4162a7c8957d73d5e49b"}], "hereNow": {"count": 0, "groups": [], "summary": "Nobody here"}, "specials": {"count": 0, "items": []}, "allowMenuUrlEdit": true, "location": {"city": "Chessy", "cc": "FR", "country": "France", "postalCode": "77700", "state": "\u00cele-de-France", "formattedAddress": ["Disneyland\u00ae Paris", "77700 Chessy", "France"], "address": "Disneyland\u00ae Paris", "lat": 48.87301410383936, "lng": 2.7954840660095215}, "verified": true, "id": "4bc8d767762beee187953d38", "categories": [{"pluralName": "Hotels", "primary": true, "name": "Hotel", "shortName": "Hotel", "id": "4bf58dd8d48988d1fa931735", "icon": {"prefix": "https://ss3.4sqi.net/img/categories_v2/travel/hotel_", "suffix": ".png"}}]}, {"stats": {"tipCount": 11, "checkinsCount": 865, "usersCount": 431}, "name": "M\u00f6venpick H\u00f4tel Paris Neuilly", "referralId": "v-1446967471", "venueChains": [{"id": "556f4530bd6a007c7738e4e0"}], "storeId": "", "hereNow": {"count": 0, "groups": [], "summary": "Nobody here"}, "specials": {"count": 0, "items": []}, "allowMenuUrlEdit": true, "location": {"city": "Neuilly-sur-Seine", "cc": "FR", "country": "France", "postalCode": "92200", "state": "\u00cele-de-France", "formattedAddress": ["58 boulevard Victor Hugo", "92200 Neuilly-sur-Seine", "France"], "address": "58 boulevard Victor Hugo", "lat": 48.89032250726441, "lng": 2.277183851038504}, "verified": true, "id": "50d35270e4b04d6aecbb3a0c", "categories": [{"pluralName": "Hotels", "primary": true, "name": "Hotel", "shortName": "Hotel", "id": "4bf58dd8d48988d1fa931735", "icon": {"prefix": "https://ss3.4sqi.net/img/categories_v2/travel/hotel_", "suffix": ".png"}}]}, {"stats": {"tipCount": 51, "checkinsCount": 4909, "usersCount": 2620}, "name": "Paris Marriott Champs \u00c9lys\u00e9es H\u00f4tel", "referralId": "v-1446967471", "venueChains": [], "storeId": "PARDT", "hereNow": {"count": 0, "groups": [], "summary": "Nobody here"}, "specials": {"count": 0, "items": []}, "allowMenuUrlEdit": true, "location": {"city": "Paris", "cc": "FR", "country": "France", "postalCode": "75008", "state": "\u00cele-de-France", "formattedAddress": ["70 avenue des Champs-Elysees", "75008 Paris", "France"], "address": "70 avenue des Champs-Elysees", "lat": 48.870772, "lng": 2.30446}, "venuePage": {"id": "46530215"}, "verified": true, "id": "4bc4a3b8461576b09d338032", "categories": [{"pluralName": "Hotels", "primary": true, "name": "Hotel", "shortName": "Hotel", "id": "4bf58dd8d48988d1fa931735", "icon": {"prefix": "https://ss3.4sqi.net/img/categories_v2/travel/hotel_", "suffix": ".png"}}]}, {"stats": {"tipCount": 172, "checkinsCount": 11130, "usersCount": 6452}, "name": "H\u00f4tel Costes", "referralId": "v-1446967471", "venueChains": [], "storeId": "", "hereNow": {"count": 0, "groups": [], "summary": "Nobody here"}, "specials": {"count": 0, "items": []}, "allowMenuUrlEdit": true, "location": {"city": "Paris", "cc": "FR", "country": "France", "postalCode": "75001", "state": "\u00cele-de-France", "formattedAddress": ["239 rue Saint-Honor\u00e9", "75001 Paris", "France"], "address": "239 rue Saint-Honor\u00e9", "lat": 48.86668171107658, "lng": 2.3278867098780553}, "venuePage": {"id": "48048825"}, "verified": true, "id": "4adcda00f964a520f03021e3", "categories": [{"pluralName": "Hotels", "primary": true, "name": "Hotel", "shortName": "Hotel", "id": "4bf58dd8d48988d1fa931735", "icon": {"prefix": "https://ss3.4sqi.net/img/categories_v2/travel/hotel_", "suffix": ".png"}}]}, {"stats": {"tipCount": 61, "checkinsCount": 5263, "usersCount": 2661}, "name": "Novotel Paris Tour Eiffel", "referralId": "v-1446967471", "venueChains": [], "hereNow": {"count": 0, "groups": [], "summary": "Nobody here"}, "specials": {"count": 0, "items": []}, "allowMenuUrlEdit": true, "location": {"city": "Paris", "cc": "FR", "country": "France", "postalCode": "75015", "state": "\u00cele-de-France", "formattedAddress": ["61 Quai de Grenelle", "75015 Paris", "France"], "address": "61 Quai de Grenelle", "lat": 48.84978159202377, "lng": 2.2831949883357185}, "verified": false, "id": "4adcda03f964a520eb3121e3", "categories": [{"pluralName": "Hotels", "primary": true, "name": "Hotel", "shortName": "Hotel", "id": "4bf58dd8d48988d1fa931735", "icon": {"prefix": "https://ss3.4sqi.net/img/categories_v2/travel/hotel_", "suffix": ".png"}}]}, {"stats": {"tipCount": 101, "checkinsCount": 7681, "usersCount": 3893}, "name": "Four Seasons Hotel George V", "referralId": "v-1446967471", "venueChains": [{"id": "556ce9b1aceaff43eb05acb7"}], "storeId": "", "hereNow": {"count": 0, "groups": [], "summary": "Nobody here"}, "specials": {"count": 0, "items": []}, "allowMenuUrlEdit": true, "location": {"city": "Paris", "cc": "FR", "country": "France", "postalCode": "75008", "state": "\u00cele-de-France", "formattedAddress": ["31 avenue George V", "75008 Paris", "France"], "address": "31 avenue George V", "lat": 48.86855408432749, "lng": 2.301088571548462}, "verified": true, "id": "4adcda00f964a520ba3021e3", "categories": [{"pluralName": "Hotels", "primary": true, "name": "Hotel", "shortName": "Hotel", "id": "4bf58dd8d48988d1fa931735", "icon": {"prefix": "https://ss3.4sqi.net/img/categories_v2/travel/hotel_", "suffix": ".png"}}]}, {"stats": {"tipCount": 1, "checkinsCount": 5066, "usersCount": 1296}, "name": "Pigalle", "referralId": "v-1446967471", "venueChains": [], "hereNow": {"count": 0, "groups": [], "summary": "Nobody here"}, "specials": {"count": 0, "items": []}, "allowMenuUrlEdit": true, "location": {"city": "Paris", "cc": "FR", "country": "France", "postalCode": "75009", "state": "\u00cele-de-France", "formattedAddress": ["75009 Paris", "France"], "lat": 48.88256793397788, "lng": 2.3371052742004395}, "verified": true, "id": "4ba376b6f964a520443f38e3", "categories": [{"pluralName": "Neighborhoods", "primary": true, "name": "Neighborhood", "shortName": "Neighborhood", "id": "4f2a25ac4b909258e854f55f", "icon": {"prefix": "https://ss3.4sqi.net/img/categories_v2/parks_outdoors/neighborhood_", "suffix": ".png"}}]}, {"stats": {"tipCount": 87, "checkinsCount": 6645, "usersCount": 2839}, "name": "Park Hyatt Paris-Vendome", "referralId": "v-1446967471", "venueChains": [{"id": "5569f334a7c8896abe7c5867"}], "storeId": "PARPH", "hereNow": {"count": 0, "groups": [], "summary": "Nobody here"}, "specials": {"count": 0, "items": []}, "allowMenuUrlEdit": true, "location": {"city": "Paris", "cc": "FR", "country": "France", "postalCode": "75002", "state": "\u00cele-de-France", "formattedAddress": ["5 rue de la Paix", "75002 Paris", "France"], "address": "5 rue de la Paix", "lat": 48.86900136, "lng": 2.329782708}, "verified": true, "id": "4adcda03f964a520d83121e3", "categories": [{"pluralName": "Hotels", "primary": true, "name": "Hotel", "shortName": "Hotel", "id": "4bf58dd8d48988d1fa931735", "icon": {"prefix": "https://ss3.4sqi.net/img/categories_v2/travel/hotel_", "suffix": ".png"}}]}, {"stats": {"tipCount": 194, "checkinsCount": 10768, "usersCount": 5510}, "name": "Mama Shelter", "referralId": "v-1446967471", "venueChains": [{"id": "556e5a1fbd6a82902e292562"}], "storeId": "", "hereNow": {"count": 0, "groups": [], "summary": "Nobody here"}, "specials": {"count": 0, "items": []}, "allowMenuUrlEdit": true, "location": {"city": "Paris", "cc": "FR", "country": "France", "postalCode": "75020", "state": "\u00cele-de-France", "formattedAddress": ["109 rue de Bagnolet", "75020 Paris", "France"], "address": "109 rue de Bagnolet", "lat": 48.859759906601184, "lng": 2.402781844139099}, "verified": true, "id": "4afdc6cdf964a520c02a22e3", "categories": [{"pluralName": "Hotels", "primary": true, "name": "Hotel", "shortName": "Hotel", "id": "4bf58dd8d48988d1fa931735", "icon": {"prefix": "https://ss3.4sqi.net/img/categories_v2/travel/hotel_", "suffix": ".png"}}]}, {"stats": {"tipCount": 105, "checkinsCount": 11378, "usersCount": 4874}, "name": "Le M\u00e9ridien \u00c9toile", "referralId": "v-1446967471", "venueChains": [], "storeId": "1919", "hereNow": {"count": 0, "groups": [], "summary": "Nobody here"}, "specials": {"count": 1, "items": [{"redemption": "webview", "description": "", "unlocked": true, "photo": {"suffix": "/2829101_92QfPTM4jcDA1fe1Dz7vB8GodkxjdNtE1NDs9akpYdE.jpg", "height": 2362, "width": 3543, "prefix": "https://irs3.4sqi.net/img/general/", "id": "53bd0b0d11d24f5e779c3127", "createdAt": 1404898061}, "title": "Special", "finePrint": "This offer is valid only for members SPG program. To become a SPG member, you can subscribe directly for free at Ma Ch\u00e8re et Tendre restaurant and benefit from the discount.", "state": "unlocked", "interaction": {"entryUrl": "https://foursquare.com/device/specials/53bd0b0e498e46fd8a123c96?venueId=4bbadc72b35776b02563cb01"}, "provider": "foursquare", "message": "Savour the flavours of tomorrow today. Enjoy 20% off and get a Taste of the Future this summer with SPG at Ma Ch\u00e8re et Tendre restaurant.", "type": "frequency", "id": "53bd0b0e498e46fd8a123c96", "icon": "default"}]}, "allowMenuUrlEdit": true, "location": {"city": "Paris", "cc": "FR", "country": "France", "postalCode": "75017", "state": "\u00cele-de-France", "formattedAddress": ["81 boulevard Gouvion Saint-Cyr", "75017 Paris", "France"], "address": "81 boulevard Gouvion Saint-Cyr", "lat": 48.8790824791632, "lng": 2.284855842590332}, "verified": true, "id": "4bbadc72b35776b02563cb01", "categories": [{"pluralName": "Hotels", "primary": true, "name": "Hotel", "shortName": "Hotel", "id": "4bf58dd8d48988d1fa931735", "icon": {"prefix": "https://ss3.4sqi.net/img/categories_v2/travel/hotel_", "suffix": ".png"}}]}, {"stats": {"tipCount": 51, "checkinsCount": 3245, "usersCount": 1793}, "name": "Pullman Paris Tour Eiffel", "referralId": "v-1446967471", "venueChains": [], "hereNow": {"count": 0, "groups": [], "summary": "Nobody here"}, "specials": {"count": 0, "items": []}, "allowMenuUrlEdit": true, "location": {"city": "Paris", "cc": "FR", "country": "France", "postalCode": "75015", "state": "\u00cele-de-France", "formattedAddress": ["18 avenue de Suffren", "75015 Paris", "France"], "address": "18 avenue de Suffren", "lat": 48.85572225448923, "lng": 2.2929346561431885}, "venuePage": {"id": "102810005"}, "verified": true, "id": "4c0f74e2d64c0f479fbc295d", "categories": [{"pluralName": "Hotels", "primary": true, "name": "Hotel", "shortName": "Hotel", "id": "4bf58dd8d48988d1fa931735", "icon": {"prefix": "https://ss3.4sqi.net/img/categories_v2/travel/hotel_", "suffix": ".png"}}]}, {"stats": {"tipCount": 46, "checkinsCount": 6530, "usersCount": 3004}, "name": "Paris Marriott Rive Gauche Hotel & Conference Center", "referralId": "v-1446967471", "venueChains": [], "storeId": "PARST", "hereNow": {"count": 0, "groups": [], "summary": "Nobody here"}, "specials": {"count": 0, "items": []}, "allowMenuUrlEdit": true, "location": {"city": "Paris", "cc": "FR", "country": "France", "postalCode": "75014", "state": "\u00cele-de-France", "formattedAddress": ["17 Boulevard Saint Jacques", "75014 Paris", "France"], "address": "17 Boulevard Saint Jacques", "lat": 48.831466, "lng": 2.339899}, "venuePage": {"id": "46530226"}, "verified": true, "id": "4adcda03f964a520e53121e3", "categories": [{"pluralName": "Hotels", "primary": true, "name": "Hotel", "shortName": "Hotel", "id": "4bf58dd8d48988d1fa931735", "icon": {"prefix": "https://ss3.4sqi.net/img/categories_v2/travel/hotel_", "suffix": ".png"}}]}, {"stats": {"tipCount": 172, "checkinsCount": 11013, "usersCount": 5435}, "name": "Hyatt Regency Paris \u00c9toile", "referralId": "v-1446967471", "venueChains": [{"id": "556a41d7a7c8957d73d5f17e"}], "storeId": "PARHR", "hereNow": {"count": 0, "groups": [], "summary": "Nobody here"}, "specials": {"count": 0, "items": []}, "allowMenuUrlEdit": true, "location": {"city": "Paris", "cc": "FR", "country": "France", "postalCode": "75017", "state": "\u00cele-de-France", "formattedAddress": ["3 place du G\u00e9n\u00e9ral Koenig", "75017 Paris", "France"], "address": "3 place du G\u00e9n\u00e9ral Koenig", "lat": 48.8801993, "lng": 2.284398164}, "verified": true, "id": "4adcda04f964a520033221e3", "categories": [{"pluralName": "Hotels", "primary": true, "name": "Hotel", "shortName": "Hotel", "id": "4bf58dd8d48988d1fa931735", "icon": {"prefix": "https://ss3.4sqi.net/img/categories_v2/travel/hotel_", "suffix": ".png"}}]}, {"stats": {"tipCount": 24, "checkinsCount": 2521, "usersCount": 907}, "name": "Marriott's Village d'\u00eele-de-France", "referralId": "v-1446967471", "venueChains": [], "storeId": "PARDP", "hereNow": {"count": 0, "groups": [], "summary": "Nobody here"}, "specials": {"count": 0, "items": []}, "allowMenuUrlEdit": true, "location": {"city": "Bailly-Romainvilliers", "cc": "FR", "country": "France", "postalCode": "77700", "state": "\u00cele-de-France", "formattedAddress": ["All\u00e9e de l'Orme Rond", "77700 Bailly-Romainvilliers", "France"], "address": "All\u00e9e de l'Orme Rond", "lat": 48.85257732, "lng": 2.809721231}, "venuePage": {"id": "131922180"}, "verified": true, "id": "4ef8ff3d93ad7cf2ebc41cc8", "categories": [{"pluralName": "Hotels", "primary": true, "name": "Hotel", "shortName": "Hotel", "id": "4bf58dd8d48988d1fa931735", "icon": {"prefix": "https://ss3.4sqi.net/img/categories_v2/travel/hotel_", "suffix": ".png"}}]}, {"stats": {"tipCount": 46, "checkinsCount": 5094, "usersCount": 2649}, "name": "Disneyland Hotel", "referralId": "v-1446967471", "venueChains": [{"id": "556a4162a7c8957d73d5e49b"}], "hereNow": {"count": 0, "groups": [], "summary": "Nobody here"}, "specials": {"count": 0, "items": []}, "allowMenuUrlEdit": true, "location": {"city": "Chessy", "cc": "FR", "country": "France", "postalCode": "77700", "state": "\u00cele-de-France", "formattedAddress": ["Disneyland\u00ae Paris", "77700 Chessy", "France"], "address": "Disneyland\u00ae Paris", "lat": 48.870311, "lng": 2.779718}, "verified": true, "id": "4bfb9c22bbb7c928f74d0843", "categories": [{"pluralName": "Hotels", "primary": true, "name": "Hotel", "shortName": "Hotel", "id": "4bf58dd8d48988d1fa931735", "icon": {"prefix": "https://ss3.4sqi.net/img/categories_v2/travel/hotel_", "suffix": ".png"}}]}, {"stats": {"tipCount": 50, "checkinsCount": 4345, "usersCount": 2128}, "name": "H\u00f4tel du Collectionneur", "referralId": "v-1446967471", "venueChains": [], "storeId": "", "hereNow": {"count": 0, "groups": [], "summary": "Nobody here"}, "specials": {"count": 0, "items": []}, "allowMenuUrlEdit": true, "location": {"city": "Paris", "cc": "FR", "country": "France", "postalCode": "75008", "state": "\u00cele-de-France", "formattedAddress": ["57 rue de Courcelles", "75008 Paris", "France"], "address": "57 rue de Courcelles", "lat": 48.87691942130874, "lng": 2.306847000091056}, "venuePage": {"id": "38604854"}, "verified": true, "id": "4adcda04f964a520173221e3", "categories": [{"pluralName": "Hotels", "primary": true, "name": "Hotel", "shortName": "Hotel", "id": "4bf58dd8d48988d1fa931735", "icon": {"prefix": "https://ss3.4sqi.net/img/categories_v2/travel/hotel_", "suffix": ".png"}}]}, {"stats": {"tipCount": 54, "checkinsCount": 7580, "usersCount": 3516}, "name": "The Westin Paris \u2013 Vend\u00f4me", "referralId": "v-1446967471", "venueChains": [], "storeId": "1729", "hereNow": {"count": 0, "groups": [], "summary": "Nobody here"}, "specials": {"count": 0, "items": []}, "allowMenuUrlEdit": true, "location": {"city": "Paris", "cc": "FR", "country": "France", "postalCode": "75001", "state": "\u00cele-de-France", "formattedAddress": ["3 rue de Castiglione", "75001 Paris", "France"], "address": "3 rue de Castiglione", "lat": 48.86594428414329, "lng": 2.3271980238230916}, "verified": true, "id": "4b240781f964a520745f24e3", "categories": [{"pluralName": "Hotels", "primary": true, "name": "Hotel", "shortName": "Hotel", "id": "4bf58dd8d48988d1fa931735", "icon": {"prefix": "https://ss3.4sqi.net/img/categories_v2/travel/hotel_", "suffix": ".png"}}]}, {"stats": {"tipCount": 52, "checkinsCount": 3254, "usersCount": 2125}, "name": "St Christopher's Gare du Nord", "referralId": "v-1446967471", "venueChains": [{"id": "5568f3eea7c8a9cf8ec47d6a"}], "storeId": "", "hereNow": {"count": 0, "groups": [], "summary": "Nobody here"}, "specials": {"count": 0, "items": []}, "allowMenuUrlEdit": true, "location": {"city": "Paris", "cc": "FR", "country": "France", "postalCode": "75010", "state": "\u00cele-de-France", "formattedAddress": ["5 rue de Dunkerque", "75010 Paris", "France"], "address": "5 rue de Dunkerque", "lat": 48.879237707014916, "lng": 2.3580479621887207}, "verified": true, "id": "51c1919babd80d25535fc335", "categories": [{"pluralName": "Hostels", "primary": true, "name": "Hostel", "shortName": "Hostel", "id": "4bf58dd8d48988d1ee931735", "icon": {"prefix": "https://ss3.4sqi.net/img/categories_v2/travel/hostel_", "suffix": ".png"}}]}]}}