{"meta": {"code": 200, "requestId": "563ef8b2498e7a100b4f07fe"}, "response": {"confident": false, "geocode": {"parents": [], "what": "", "where": "stockholm", "feature": {"highlightedName": "<b>Stockholm</b>, Sweden", "displayName": "Stockholm, Sweden", "name": "Stockholm", "longId": "72057594040601666", "cc": "SE", "id": "geonameid:2673730", "geometry": {"center": {"lat": 59.33258, "lng": 18.0649}, "bounds": {"sw": {"lat": 59.22983620344969, "lng": 17.76955621683312}, "ne": {"lat": 59.440507933824655, "lng": 18.199873888099386}}}, "matchedName": "Stockholm, Sweden", "woeType": 7, "slug": "stockholm-sweden"}}, "venues": [{"stats": {"tipCount": 52, "checkinsCount": 7724, "usersCount": 3045}, "name": "Sheraton Stockholm Hotel", "referralId": "v-1446967474", "venueChains": [], "storeId": "298", "hereNow": {"count": 1, "groups": [{"count": 1, "items": [], "type": "others", "name": "Other people here"}], "summary": "One other person is here"}, "specials": {"count": 0, "items": []}, "allowMenuUrlEdit": true, "location": {"city": "Stockholm", "cc": "SE", "country": "Sverige", "postalCode": "101 23", "state": "Storstockholm", "formattedAddress": ["Tegelbacken 6", "101 23 Stockholm", "Sverige"], "address": "Tegelbacken 6", "lat": 59.32878403086703, "lng": 18.061845302581787}, "verified": true, "id": "4adcdae8f964a5203a5921e3", "categories": [{"pluralName": "Hotels", "primary": true, "name": "Hotel", "shortName": "Hotel", "id": "4bf58dd8d48988d1fa931735", "icon": {"prefix": "https://ss3.4sqi.net/img/categories_v2/travel/hotel_", "suffix": ".png"}}]}, {"stats": {"tipCount": 52, "checkinsCount": 5068, "usersCount": 2823}, "name": "Grand H\u00f4tel Stockholm", "referralId": "v-1446967474", "venueChains": [], "storeId": "", "hereNow": {"count": 0, "groups": [], "summary": "Nobody here"}, "specials": {"count": 0, "items": []}, "allowMenuUrlEdit": true, "location": {"city": "Stockholm", "cc": "SE", "country": "Sverige", "postalCode": "SE 103 27", "state": "Storstockholm", "formattedAddress": ["S\u00f6dra Blasieholmshamnen 8 (Stallgatan)", "SE 103 27 Stockholm", "Sverige"], "crossStreet": "Stallgatan", "address": "S\u00f6dra Blasieholmshamnen 8", "lat": 59.32950097268622, "lng": 18.075664043426514}, "venuePage": {"id": "83202795"}, "verified": true, "id": "4adcdae8f964a520395921e3", "categories": [{"pluralName": "Hotels", "primary": true, "name": "Hotel", "shortName": "Hotel", "id": "4bf58dd8d48988d1fa931735", "icon": {"prefix": "https://ss3.4sqi.net/img/categories_v2/travel/hotel_", "suffix": ".png"}}]}, {"stats": {"tipCount": 8, "checkinsCount": 575, "usersCount": 319}, "name": "Quality Hotel Friends", "referralId": "v-1446967474", "venueChains": [], "hereNow": {"count": 0, "groups": [], "summary": "Nobody here"}, "specials": {"count": 0, "items": []}, "allowMenuUrlEdit": true, "location": {"city": "Solna", "cc": "SE", "country": "Sverige", "postalCode": "169 56", "state": "Storstockholm", "formattedAddress": ["R\u00e5sta Strandv\u00e4g 1", "169 56 Solna", "Sverige"], "address": "R\u00e5sta Strandv\u00e4g 1", "lat": 59.37201651545335, "lng": 18.00260966373991}, "verified": false, "id": "510a8736e4b04b9dad72e870", "categories": [{"pluralName": "Hotels", "primary": true, "name": "Hotel", "shortName": "Hotel", "id": "4bf58dd8d48988d1fa931735", "icon": {"prefix": "https://ss3.4sqi.net/img/categories_v2/travel/hotel_", "suffix": ".png"}}]}, {"stats": {"tipCount": 40, "checkinsCount": 4968, "usersCount": 2313}, "name": "Clarion Hotel Stockholm", "referralId": "v-1446967474", "venueChains": [], "hereNow": {"count": 0, "groups": [], "summary": "Nobody here"}, "specials": {"count": 0, "items": []}, "allowMenuUrlEdit": true, "location": {"city": "Stockholm", "cc": "SE", "country": "Sverige", "postalCode": "111 20", "state": "Storstockholm", "formattedAddress": ["Ringv\u00e4gen 98", "111 20 Stockholm", "Sverige"], "address": "Ringv\u00e4gen 98", "lat": 59.30694715240992, "lng": 18.07474952354832}, "verified": true, "id": "4bcdd773511f9521a741b5c7", "categories": [{"pluralName": "Hotels", "primary": true, "name": "Hotel", "shortName": "Hotel", "id": "4bf58dd8d48988d1fa931735", "icon": {"prefix": "https://ss3.4sqi.net/img/categories_v2/travel/hotel_", "suffix": ".png"}}]}, {"stats": {"tipCount": 26, "checkinsCount": 3372, "usersCount": 1558}, "name": "Nordic Light Hotel", "referralId": "v-1446967474", "venueChains": [], "hereNow": {"count": 0, "groups": [], "summary": "Nobody here"}, "specials": {"count": 0, "items": []}, "allowMenuUrlEdit": true, "location": {"city": "Stockholm", "cc": "SE", "country": "Sverige", "postalCode": "111 20", "state": "Storstockholm", "formattedAddress": ["Vasaplan 7", "111 20 Stockholm", "Sverige"], "address": "Vasaplan 7", "lat": 59.33251634098452, "lng": 18.05707097053528}, "verified": false, "id": "4adcdaeaf964a520945921e3", "categories": [{"pluralName": "Hotels", "primary": true, "name": "Hotel", "shortName": "Hotel", "id": "4bf58dd8d48988d1fa931735", "icon": {"prefix": "https://ss3.4sqi.net/img/categories_v2/travel/hotel_", "suffix": ".png"}}]}, {"stats": {"tipCount": 34, "checkinsCount": 2588, "usersCount": 1318}, "name": "Nordic C Hotel", "referralId": "v-1446967474", "venueChains": [], "hereNow": {"count": 0, "groups": [], "summary": "Nobody here"}, "specials": {"count": 0, "items": []}, "allowMenuUrlEdit": true, "location": {"city": "Stockholm", "cc": "SE", "country": "Sverige", "postalCode": "101 37", "state": "Storstockholm", "formattedAddress": ["Vasaplan 4", "101 37 Stockholm", "Sverige"], "address": "Vasaplan 4", "lat": 59.33197099596771, "lng": 18.056835292822544}, "verified": false, "id": "4adcdaeaf964a520955921e3", "categories": [{"pluralName": "Hotels", "primary": true, "name": "Hotel", "shortName": "Hotel", "id": "4bf58dd8d48988d1fa931735", "icon": {"prefix": "https://ss3.4sqi.net/img/categories_v2/travel/hotel_", "suffix": ".png"}}]}, {"stats": {"tipCount": 22, "checkinsCount": 1672, "usersCount": 609}, "name": "Park Inn By Radisson Stockholm Hammarby Sj\u00f6stad", "referralId": "v-1446967474", "venueChains": [{"id": "556a3122a7c8957d73d46bae"}], "storeId": "HAMM", "hereNow": {"count": 0, "groups": [], "summary": "Nobody here"}, "specials": {"count": 0, "items": []}, "allowMenuUrlEdit": true, "location": {"city": "Stockholm", "cc": "SE", "country": "Sverige", "state": "Storstockholm", "formattedAddress": ["Midskeppsgatan 6 (Hammarby Sj\u00f6stad)", "Stockholm", "Sverige"], "crossStreet": "Hammarby Sj\u00f6stad", "address": "Midskeppsgatan 6", "lat": 59.30155641740602, "lng": 18.10544729232788}, "verified": true, "id": "4baf6f26f964a52080ff3be3", "categories": [{"pluralName": "Hotels", "primary": true, "name": "Hotel", "shortName": "Hotel", "id": "4bf58dd8d48988d1fa931735", "icon": {"prefix": "https://ss3.4sqi.net/img/categories_v2/travel/hotel_", "suffix": ".png"}}]}, {"stats": {"tipCount": 70, "checkinsCount": 5647, "usersCount": 2641}, "name": "Radisson Blu Royal Viking Hotel", "referralId": "v-1446967474", "venueChains": [{"id": "556c9c7ca7c87f637869f5c1"}], "storeId": "SVIK", "hereNow": {"count": 0, "groups": [], "summary": "Nobody here"}, "specials": {"count": 0, "items": []}, "allowMenuUrlEdit": true, "location": {"city": "Stockholm", "cc": "SE", "country": "Sverige", "postalCode": "101 24", "state": "Storstockholm", "formattedAddress": ["Vasagatan 1 (Central Station)", "101 24 Stockholm", "Sverige"], "crossStreet": "Central Station", "address": "Vasagatan 1", "lat": 59.3313987774497, "lng": 18.0580168126201}, "verified": true, "id": "4b673d68f964a52042432be3", "categories": [{"pluralName": "Hotels", "primary": true, "name": "Hotel", "shortName": "Hotel", "id": "4bf58dd8d48988d1fa931735", "icon": {"prefix": "https://ss3.4sqi.net/img/categories_v2/travel/hotel_", "suffix": ".png"}}]}, {"stats": {"tipCount": 17, "checkinsCount": 1274, "usersCount": 734}, "name": "Scandic Sj\u00f6fartshotellet", "referralId": "v-1446967474", "venueChains": [], "hereNow": {"count": 0, "groups": [], "summary": "Nobody here"}, "specials": {"count": 0, "items": []}, "allowMenuUrlEdit": true, "location": {"city": "Stockholm", "cc": "SE", "country": "Sverige", "postalCode": "104 65", "state": "Storstockholm", "formattedAddress": ["Katarinav\u00e4gen 26", "104 65 Stockholm", "Sverige"], "address": "Katarinav\u00e4gen 26", "lat": 59.31880019393783, "lng": 18.076383286273536}, "verified": false, "id": "4adcdae8f964a520545921e3", "categories": [{"pluralName": "Hotels", "primary": true, "name": "Hotel", "shortName": "Hotel", "id": "4bf58dd8d48988d1fa931735", "icon": {"prefix": "https://ss3.4sqi.net/img/categories_v2/travel/hotel_", "suffix": ".png"}}]}, {"stats": {"tipCount": 15, "checkinsCount": 1040, "usersCount": 489}, "name": "Scandic Alvik", "referralId": "v-1446967474", "venueChains": [], "hereNow": {"count": 0, "groups": [], "summary": "Nobody here"}, "specials": {"count": 0, "items": []}, "allowMenuUrlEdit": true, "location": {"city": "Stockholm", "cc": "SE", "country": "Sverige", "postalCode": "167 51", "state": "Storstockholm", "formattedAddress": ["Gustavslundsv\u00e4gen 153", "167 51 Bromma", "Sverige"], "address": "Gustavslundsv\u00e4gen 153", "lat": 59.3317019988777, "lng": 17.982362910550258}, "verified": false, "id": "4bd8642a2ecdce72c1c7d0f2", "categories": [{"pluralName": "Hotels", "primary": true, "name": "Hotel", "shortName": "Hotel", "id": "4bf58dd8d48988d1fa931735", "icon": {"prefix": "https://ss3.4sqi.net/img/categories_v2/travel/hotel_", "suffix": ".png"}}]}, {"stats": {"tipCount": 27, "checkinsCount": 4392, "usersCount": 2245}, "name": "Scandic Malmen", "referralId": "v-1446967474", "venueChains": [], "hereNow": {"count": 0, "groups": [], "summary": "Nobody here"}, "specials": {"count": 0, "items": []}, "allowMenuUrlEdit": true, "location": {"city": "Stockholm", "cc": "SE", "country": "Sverige", "postalCode": "116 21", "state": "Storstockholm", "formattedAddress": ["G\u00f6tgatan 49-51 (at Folkungagatan)", "116 21 Stockholm", "Sverige"], "crossStreet": "at Folkungagatan", "address": "G\u00f6tgatan 49-51", "lat": 59.31459383230295, "lng": 18.073570200755615}, "verified": false, "id": "4adcdae8f964a520525921e3", "categories": [{"pluralName": "Hotels", "primary": true, "name": "Hotel", "shortName": "Hotel", "id": "4bf58dd8d48988d1fa931735", "icon": {"prefix": "https://ss3.4sqi.net/img/categories_v2/travel/hotel_", "suffix": ".png"}}]}, {"stats": {"tipCount": 31, "checkinsCount": 1140, "usersCount": 670}, "name": "HTL Kungsgatan", "referralId": "v-1446967474", "venueChains": [], "hereNow": {"count": 0, "groups": [], "summary": "Nobody here"}, "specials": {"count": 0, "items": []}, "allowMenuUrlEdit": true, "location": {"city": "Stockholm", "cc": "SE", "country": "Sverige", "postalCode": "111 22", "state": "Storstockholm", "formattedAddress": ["Kungsgatan 53", "111 22 Stockholm", "Sverige"], "address": "Kungsgatan 53", "lat": 59.33415867324025, "lng": 18.059265193224753}, "verified": false, "id": "536019e3498e12cbc4544e81", "categories": [{"pluralName": "Hotels", "primary": true, "name": "Hotel", "shortName": "Hotel", "id": "4bf58dd8d48988d1fa931735", "icon": {"prefix": "https://ss3.4sqi.net/img/categories_v2/travel/hotel_", "suffix": ".png"}}]}, {"stats": {"tipCount": 5, "checkinsCount": 624, "usersCount": 268}, "name": "Memory Hotel", "referralId": "v-1446967474", "venueChains": [], "hereNow": {"count": 0, "groups": [], "summary": "Nobody here"}, "specials": {"count": 0, "items": []}, "allowMenuUrlEdit": true, "location": {"city": "Kista", "cc": "SE", "country": "Sverige", "postalCode": "164 25", "state": "n/a", "formattedAddress": ["Borgarfjordsgatan 3", "164 25 Kista", "Sverige"], "address": "Borgarfjordsgatan 3", "lat": 59.40694559250562, "lng": 17.947807944873507}, "verified": false, "id": "4b142552f964a520f79d23e3", "categories": [{"pluralName": "Hotels", "primary": true, "name": "Hotel", "shortName": "Hotel", "id": "4bf58dd8d48988d1fa931735", "icon": {"prefix": "https://ss3.4sqi.net/img/categories_v2/travel/hotel_", "suffix": ".png"}}]}, {"stats": {"tipCount": 67, "checkinsCount": 3383, "usersCount": 1759}, "name": "Nobis Hotel", "referralId": "v-1446967474", "venueChains": [], "hereNow": {"count": 0, "groups": [], "summary": "Nobody here"}, "specials": {"count": 0, "items": []}, "allowMenuUrlEdit": true, "location": {"city": "Stockholm", "cc": "SE", "country": "Sverige", "postalCode": "111 86", "state": "Storstockholm", "formattedAddress": ["Norrmalmstorg 2-4", "111 86 Stockholm", "Sverige"], "address": "Norrmalmstorg 2-4", "lat": 59.33349478320319, "lng": 18.073785604910174}, "venuePage": {"id": "75109077"}, "verified": true, "id": "4ceff7d528abb60caca0c509", "categories": [{"pluralName": "Hotels", "primary": true, "name": "Hotel", "shortName": "Hotel", "id": "4bf58dd8d48988d1fa931735", "icon": {"prefix": "https://ss3.4sqi.net/img/categories_v2/travel/hotel_", "suffix": ".png"}}]}, {"stats": {"tipCount": 15, "checkinsCount": 813, "usersCount": 565}, "name": "Stallm\u00e4stareg\u00e5rden", "referralId": "v-1446967474", "venueChains": [], "hereNow": {"count": 0, "groups": [], "summary": "Nobody here"}, "specials": {"count": 0, "items": []}, "allowMenuUrlEdit": true, "location": {"city": "Stockholm", "cc": "SE", "country": "Sverige", "state": "Storstockholm", "formattedAddress": ["Norrtull", "Stockholm", "Sverige"], "address": "Norrtull", "lat": 59.35187151697427, "lng": 18.04338463259133}, "verified": false, "id": "4b6ed379f964a5203bcc2ce3", "categories": [{"pluralName": "Hotels", "primary": true, "name": "Hotel", "shortName": "Hotel", "id": "4bf58dd8d48988d1fa931735", "icon": {"prefix": "https://ss3.4sqi.net/img/categories_v2/travel/hotel_", "suffix": ".png"}}]}, {"stats": {"tipCount": 47, "checkinsCount": 5894, "usersCount": 2678}, "name": "Scandic Grand Central", "referralId": "v-1446967474", "venueChains": [], "hereNow": {"count": 0, "groups": [], "summary": "Nobody here"}, "specials": {"count": 0, "items": []}, "allowMenuUrlEdit": true, "location": {"city": "Stockholm", "cc": "SE", "country": "Sverige", "postalCode": "111 22", "state": "Storstockholm", "formattedAddress": ["Kungsgatan 70 (Vasagatan)", "111 22 Stockholm", "Sverige"], "crossStreet": "Vasagatan", "address": "Kungsgatan 70", "lat": 59.33368739191502, "lng": 18.056180477142334}, "verified": false, "id": "4e680621196b01a6e9198a48", "categories": [{"pluralName": "Hotels", "primary": true, "name": "Hotel", "shortName": "Hotel", "id": "4bf58dd8d48988d1fa931735", "icon": {"prefix": "https://ss3.4sqi.net/img/categories_v2/travel/hotel_", "suffix": ".png"}}]}, {"stats": {"tipCount": 38, "checkinsCount": 6087, "usersCount": 2559}, "name": "Hilton Stockholm Slussen Hotel", "referralId": "v-1446967474", "venueChains": [{"id": "556e146fa7c82e6b725097d5"}], "storeId": "STOSLHI", "hereNow": {"count": 0, "groups": [], "summary": "Nobody here"}, "specials": {"count": 0, "items": []}, "allowMenuUrlEdit": true, "location": {"city": "Stockholm", "cc": "SE", "country": "Sverige", "postalCode": "104 65", "state": "Storstockholm", "formattedAddress": ["Guldgr\u00e4nd 8 (Slussen)", "104 65 Stockholm", "Sverige"], "crossStreet": "Slussen", "address": "Guldgr\u00e4nd 8", "lat": 59.32051607652869, "lng": 18.069112848822375}, "verified": true, "id": "4adcdaeaf964a520985921e3", "categories": [{"pluralName": "Hotels", "primary": true, "name": "Hotel", "shortName": "Hotel", "id": "4bf58dd8d48988d1fa931735", "icon": {"prefix": "https://ss3.4sqi.net/img/categories_v2/travel/hotel_", "suffix": ".png"}}]}, {"stats": {"tipCount": 18, "checkinsCount": 575, "usersCount": 305}, "name": "Motel L", "referralId": "v-1446967474", "venueChains": [], "hereNow": {"count": 0, "groups": [], "summary": "Nobody here"}, "specials": {"count": 0, "items": []}, "allowMenuUrlEdit": true, "location": {"city": "Stockholm", "cc": "SE", "country": "Sverige", "postalCode": "120 61", "state": "Storstockholm", "formattedAddress": ["Hammarby All\u00e9 41", "120 61 Stockholm", "Sverige"], "address": "Hammarby All\u00e9 41", "lat": 59.30280863622042, "lng": 18.08776418303272}, "verified": false, "id": "5364e8a7498e241e281a4333", "categories": [{"pluralName": "Hotels", "primary": true, "name": "Hotel", "shortName": "Hotel", "id": "4bf58dd8d48988d1fa931735", "icon": {"prefix": "https://ss3.4sqi.net/img/categories_v2/travel/hotel_", "suffix": ".png"}}]}, {"stats": {"tipCount": 19, "checkinsCount": 1231, "usersCount": 719}, "name": "Elite Hotel Marina Tower", "referralId": "v-1446967474", "venueChains": [{"id": "5569f125a7c8896abe7c14e1"}], "hereNow": {"count": 0, "groups": [], "summary": "Nobody here"}, "specials": {"count": 0, "items": []}, "allowMenuUrlEdit": true, "location": {"city": "Nacka", "cc": "SE", "country": "Sverige", "postalCode": "131 71", "state": "Storstockholm", "formattedAddress": ["Saltsj\u00f6qvarns Kaj 25", "131 71 Nacka", "Sverige"], "address": "Saltsj\u00f6qvarns Kaj 25", "lat": 59.31477496076515, "lng": 18.10957778809788}, "verified": true, "id": "4bc366b4f8219c744d09b610", "categories": [{"pluralName": "Hotels", "primary": true, "name": "Hotel", "shortName": "Hotel", "id": "4bf58dd8d48988d1fa931735", "icon": {"prefix": "https://ss3.4sqi.net/img/categories_v2/travel/hotel_", "suffix": ".png"}}]}, {"stats": {"tipCount": 16, "checkinsCount": 1949, "usersCount": 1046}, "name": "Scandic Hotel Ariadne", "referralId": "v-1446967474", "venueChains": [], "hereNow": {"count": 0, "groups": [], "summary": "Nobody here"}, "specials": {"count": 0, "items": []}, "allowMenuUrlEdit": true, "location": {"city": "Stockholm", "cc": "SE", "country": "Sverige", "postalCode": "115 41", "state": "Storstockholm", "formattedAddress": ["S\u00f6dra Kajen 37", "115 41 Stockholm", "Sverige"], "address": "S\u00f6dra Kajen 37", "lat": 59.34885506470664, "lng": 18.11341947806676}, "verified": false, "id": "4adcdae8f964a520415921e3", "categories": [{"pluralName": "Hotels", "primary": true, "name": "Hotel", "shortName": "Hotel", "id": "4bf58dd8d48988d1fa931735", "icon": {"prefix": "https://ss3.4sqi.net/img/categories_v2/travel/hotel_", "suffix": ".png"}}]}, {"stats": {"tipCount": 33, "checkinsCount": 3081, "usersCount": 1603}, "name": "Hotel Rival", "referralId": "v-1446967474", "venueChains": [], "hereNow": {"count": 0, "groups": [], "summary": "Nobody here"}, "specials": {"count": 0, "items": []}, "allowMenuUrlEdit": true, "location": {"city": "Stockholm", "cc": "SE", "country": "Sverige", "postalCode": "118 48", "state": "Storstockholm", "formattedAddress": ["Mariatorget 3", "118 48 Stockholm", "Sverige"], "address": "Mariatorget 3", "lat": 59.318183, "lng": 18.063667}, "verified": false, "id": "4adcdae8f964a520555921e3", "categories": [{"pluralName": "Hotels", "primary": true, "name": "Hotel", "shortName": "Hotel", "id": "4bf58dd8d48988d1fa931735", "icon": {"prefix": "https://ss3.4sqi.net/img/categories_v2/travel/hotel_", "suffix": ".png"}}]}, {"stats": {"tipCount": 7, "checkinsCount": 700, "usersCount": 368}, "name": "Miss Clara by Nobis", "referralId": "v-1446967474", "venueChains": [], "hereNow": {"count": 0, "groups": [], "summary": "Nobody here"}, "specials": {"count": 0, "items": []}, "allowMenuUrlEdit": true, "location": {"city": "Stockholm", "cc": "SE", "country": "Sverige", "postalCode": "111 34", "state": "Storstockholm", "formattedAddress": ["Sveav\u00e4gen 48 (Adolf Fredriks Kyrkogata)", "111 34 Stockholm", "Sverige"], "crossStreet": "Adolf Fredriks Kyrkogata", "address": "Sveav\u00e4gen 48", "lat": 59.337649, "lng": 18.061885}, "verified": false, "id": "533bb9ce11d23b1e68364831", "categories": [{"pluralName": "Hotels", "primary": true, "name": "Hotel", "shortName": "Hotel", "id": "4bf58dd8d48988d1fa931735", "icon": {"prefix": "https://ss3.4sqi.net/img/categories_v2/travel/hotel_", "suffix": ".png"}}]}, {"stats": {"tipCount": 36, "checkinsCount": 5341, "usersCount": 2416}, "name": "Clarion Hotel Sign", "referralId": "v-1446967474", "venueChains": [], "hereNow": {"count": 0, "groups": [], "summary": "Nobody here"}, "specials": {"count": 0, "items": []}, "allowMenuUrlEdit": true, "location": {"city": "Stockholm", "cc": "SE", "country": "Sverige", "postalCode": "111 20", "state": "Storstockholm", "formattedAddress": ["\u00d6stra J\u00e4rnv\u00e4gsgatan 35", "111 20 Stockholm", "Sverige"], "address": "\u00d6stra J\u00e4rnv\u00e4gsgatan 35", "lat": 59.334625796773274, "lng": 18.05374340119644}, "verified": false, "id": "4addce61f964a520e26521e3", "categories": [{"pluralName": "Hotels", "primary": true, "name": "Hotel", "shortName": "Hotel", "id": "4bf58dd8d48988d1fa931735", "icon": {"prefix": "https://ss3.4sqi.net/img/categories_v2/travel/hotel_", "suffix": ".png"}}]}, {"stats": {"tipCount": 33, "checkinsCount": 3063, "usersCount": 1325}, "name": "Hotel Birger Jarl", "referralId": "v-1446967474", "venueChains": [], "storeId": "", "hereNow": {"count": 0, "groups": [], "summary": "Nobody here"}, "specials": {"count": 0, "items": []}, "allowMenuUrlEdit": true, "location": {"city": "Stockholm", "cc": "SE", "country": "Sverige", "postalCode": "104 32", "state": "Storstockholm", "formattedAddress": ["Tulegatan 8", "104 32 Stockholm", "Sverige"], "address": "Tulegatan 8", "lat": 59.3423025120969, "lng": 18.062460338726616}, "venuePage": {"id": "45873442"}, "verified": true, "id": "4adcdae9f964a520795921e3", "categories": [{"pluralName": "Hotels", "primary": true, "name": "Hotel", "shortName": "Hotel", "id": "4bf58dd8d48988d1fa931735", "icon": {"prefix": "https://ss3.4sqi.net/img/categories_v2/travel/hotel_", "suffix": ".png"}}]}, {"stats": {"tipCount": 52, "checkinsCount": 3784, "usersCount": 1745}, "name": "Story Hotel", "referralId": "v-1446967474", "venueChains": [], "hereNow": {"count": 0, "groups": [], "summary": "Nobody here"}, "specials": {"count": 0, "items": []}, "allowMenuUrlEdit": true, "location": {"city": "Stockholm", "cc": "SE", "country": "Sverige", "postalCode": "114 35", "state": "Storstockholm", "formattedAddress": ["Riddargatan 6", "114 35 Stockholm", "Sverige"], "address": "Riddargatan 6", "lat": 59.33469321647075, "lng": 18.075131445315538}, "verified": false, "id": "4addd0baf964a520f26521e3", "categories": [{"pluralName": "Hotels", "primary": true, "name": "Hotel", "shortName": "Hotel", "id": "4bf58dd8d48988d1fa931735", "icon": {"prefix": "https://ss3.4sqi.net/img/categories_v2/travel/hotel_", "suffix": ".png"}}]}, {"stats": {"tipCount": 68, "checkinsCount": 5175, "usersCount": 2370}, "name": "Radisson Blu Waterfront Hotel", "referralId": "v-1446967474", "venueChains": [{"id": "556c9c7ca7c87f637869f5c1"}], "storeId": "STOW", "hereNow": {"count": 0, "groups": [], "summary": "Nobody here"}, "specials": {"count": 0, "items": []}, "allowMenuUrlEdit": true, "location": {"city": "Stockholm", "cc": "SE", "country": "Sverige", "postalCode": "111 64", "state": "Storstockholm", "formattedAddress": ["Nils Ericsons Plan 4 (Stockholm Central)", "111 64 Stockholm", "Sverige"], "crossStreet": "Stockholm Central", "address": "Nils Ericsons Plan 4", "lat": 59.3297308286931, "lng": 18.0560302734375}, "verified": true, "id": "4d3db01efb4c5481eb50df14", "categories": [{"pluralName": "Hotels", "primary": true, "name": "Hotel", "shortName": "Hotel", "id": "4bf58dd8d48988d1fa931735", "icon": {"prefix": "https://ss3.4sqi.net/img/categories_v2/travel/hotel_", "suffix": ".png"}}]}, {"stats": {"tipCount": 15, "checkinsCount": 2303, "usersCount": 1000}, "name": "Scandic Victoria Tower", "referralId": "v-1446967474", "venueChains": [], "hereNow": {"count": 0, "groups": [], "summary": "Nobody here"}, "specials": {"count": 0, "items": []}, "allowMenuUrlEdit": true, "location": {"city": "Kista", "cc": "SE", "country": "Sverige", "postalCode": "164 40", "state": "Storstockholm", "formattedAddress": ["Arne Beurlings Torg 3A", "164 40 Kista", "Sverige"], "address": "Arne Beurlings Torg 3A", "lat": 59.40674341242465, "lng": 17.957968711853027}, "verified": false, "id": "4e69ea9fe4cdb3755153d511", "categories": [{"pluralName": "Hotels", "primary": true, "name": "Hotel", "shortName": "Hotel", "id": "4bf58dd8d48988d1fa931735", "icon": {"prefix": "https://ss3.4sqi.net/img/categories_v2/travel/hotel_", "suffix": ".png"}}]}, {"stats": {"tipCount": 35, "checkinsCount": 5089, "usersCount": 2227}, "name": "Scandic Anglais", "referralId": "v-1446967474", "venueChains": [], "hereNow": {"count": 0, "groups": [], "summary": "Nobody here"}, "specials": {"count": 0, "items": []}, "allowMenuUrlEdit": true, "location": {"city": "Stockholm", "cc": "SE", "country": "Sverige", "postalCode": "114 46", "state": "Storstockholm", "formattedAddress": ["Humleg\u00e5rdsgatan 23", "114 46 Stockholm", "Sverige"], "address": "Humleg\u00e5rdsgatan 23", "lat": 59.33704886005526, "lng": 18.073159033704215}, "verified": false, "id": "4adcdae8f964a520385921e3", "categories": [{"pluralName": "Hotels", "primary": true, "name": "Hotel", "shortName": "Hotel", "id": "4bf58dd8d48988d1fa931735", "icon": {"prefix": "https://ss3.4sqi.net/img/categories_v2/travel/hotel_", "suffix": ".png"}}]}, {"stats": {"tipCount": 9, "checkinsCount": 1327, "usersCount": 686}, "name": "Quality Hotel Globe", "referralId": "v-1446967474", "venueChains": [], "hereNow": {"count": 0, "groups": [], "summary": "Nobody here"}, "specials": {"count": 0, "items": []}, "allowMenuUrlEdit": true, "location": {"city": "Stockholm", "cc": "SE", "country": "Sverige", "postalCode": "121 26", "state": "Storstockholm", "formattedAddress": ["Arenaslingan 7", "121 26 Stockholm", "Sverige"], "address": "Arenaslingan 7", "lat": 59.29269445727793, "lng": 18.08353882272823}, "verified": false, "id": "4adcdae9f964a520755921e3", "categories": [{"pluralName": "Hotels", "primary": true, "name": "Hotel", "shortName": "Hotel", "id": "4bf58dd8d48988d1fa931735", "icon": {"prefix": "https://ss3.4sqi.net/img/categories_v2/travel/hotel_", "suffix": ".png"}}]}, {"stats": {"tipCount": 20, "checkinsCount": 3634, "usersCount": 1388}, "name": "Courtyard by Marriott Stockholm", "referralId": "v-1446967474", "venueChains": [], "storeId": "", "hereNow": {"count": 0, "groups": [], "summary": "Nobody here"}, "specials": {"count": 0, "items": []}, "allowMenuUrlEdit": true, "location": {"city": "Stockholm", "cc": "SE", "country": "Sverige", "postalCode": "112 19", "state": "Storstockholm", "formattedAddress": ["R\u00e5lambshovsleden 50", "112 19 Stockholm", "Sverige"], "address": "R\u00e5lambshovsleden 50", "lat": 59.331088041989965, "lng": 18.021955490112305}, "verified": true, "id": "4b9144aff964a52098ae33e3", "categories": [{"pluralName": "Hotels", "primary": true, "name": "Hotel", "shortName": "Hotel", "id": "4bf58dd8d48988d1fa931735", "icon": {"prefix": "https://ss3.4sqi.net/img/categories_v2/travel/hotel_", "suffix": ".png"}}]}]}}