{"meta": {"code": 200, "requestId": "563ef8b2498ef6602694dbae"}, "response": {"confident": false, "geocode": {"parents": [], "what": "", "where": "vienna", "feature": {"highlightedName": "<b>Vienna</b>, Austria", "displayName": "Vienna, Austria", "name": "Vienna", "longId": "72057594040689305", "cc": "AT", "id": "geonameid:2761369", "geometry": {"center": {"lat": 48.20849, "lng": 16.37208}, "bounds": {"sw": {"lat": 48.12015900020249, "lng": 16.160952025013152}, "ne": {"lat": 48.326004961050515, "lng": 16.61571399473434}}}, "matchedName": "Vienna, Austria", "woeType": 7, "slug": "vienna-austria"}}, "venues": [{"stats": {"tipCount": 5, "checkinsCount": 131, "usersCount": 67}, "name": "Hotel Schani Wien", "referralId": "v-1446967474", "venueChains": [], "storeId": "", "hereNow": {"count": 0, "groups": [], "summary": "Nobody here"}, "specials": {"count": 0, "items": []}, "allowMenuUrlEdit": true, "location": {"city": "Wien", "cc": "AT", "country": "\u00d6sterreich", "postalCode": "1010", "state": "Wien", "formattedAddress": ["Karl-Popper-Strasse 22 (Gerhard-Bronner-Strasse)", "1010 Wien", "\u00d6sterreich"], "crossStreet": "Gerhard-Bronner-Strasse", "address": "Karl-Popper-Strasse 22", "lat": 48.18357133619074, "lng": 16.380529403686523}, "venuePage": {"id": "137739044"}, "verified": true, "id": "552c226f498e6e675f53ac00", "categories": [{"pluralName": "Hotels", "primary": true, "name": "Hotel", "shortName": "Hotel", "id": "4bf58dd8d48988d1fa931735", "icon": {"prefix": "https://ss3.4sqi.net/img/categories_v2/travel/hotel_", "suffix": ".png"}}]}, {"stats": {"tipCount": 31, "checkinsCount": 2601, "usersCount": 1224}, "name": "Imperial Riding School Renaissance Vienna Hotel", "referralId": "v-1446967474", "venueChains": [{"id": "556a2d9ea7c8957d73d4052a"}], "hereNow": {"count": 1, "groups": [{"count": 1, "items": [], "type": "others", "name": "Other people here"}], "summary": "One other person is here"}, "specials": {"count": 0, "items": []}, "allowMenuUrlEdit": true, "location": {"city": "Wien", "cc": "AT", "country": "\u00d6sterreich", "postalCode": "1030", "state": "Wien", "formattedAddress": ["Ungargasse 60", "1030 Wien", "\u00d6sterreich"], "address": "Ungargasse 60", "lat": 48.19679628597103, "lng": 16.386516094207764}, "verified": true, "id": "4b058890f964a520a2cd22e3", "categories": [{"pluralName": "Hotels", "primary": true, "name": "Hotel", "shortName": "Hotel", "id": "4bf58dd8d48988d1fa931735", "icon": {"prefix": "https://ss3.4sqi.net/img/categories_v2/travel/hotel_", "suffix": ".png"}}]}, {"stats": {"tipCount": 66, "checkinsCount": 4456, "usersCount": 2651}, "name": "Wombat\u00b4s City Hostel", "referralId": "v-1446967474", "venueChains": [{"id": "556e5ababd6a82902e293cae"}], "storeId": "", "hereNow": {"count": 0, "groups": [], "summary": "Nobody here"}, "specials": {"count": 1, "items": [{"redemption": "webview", "description": "", "unlocked": true, "photo": {"suffix": "/31142206_AMECSvawDZSMcEzv2uw8T676Gb2IZQBlUnwiZj5w4QI.jpg", "height": 1250, "width": 1250, "prefix": "https://irs1.4sqi.net/img/general/", "id": "538f31d6498e43f3aacf2806", "createdAt": 1401893334}, "title": "Special", "page": {"bio": "", "firstName": "Wombats Hostels", "gender": "none", "lists": {"groups": [{"count": 6, "items": [], "type": "created"}]}, "homeCity": "Vienna, Austria", "contact": {"twitter": "wombatshostels", "facebook": "71484414245"}, "photo": {"prefix": "https://irs3.4sqi.net/img/user/", "suffix": "/ZN05IXLBTOPUYB4G.jpg"}, "tips": {"count": 9}, "type": "chain", "id": "31142206"}, "state": "unlocked", "interaction": {"entryUrl": "https://foursquare.com/device/specials/538f31d6498ed7431f135943?venueId=4d53a85fbdbea1cdd942de92"}, "provider": "foursquare", "message": "Collect wombat\u00b4s stamps in Berlin, Budapest, Munich or Vienna for a free breakfast or flip flops or a free night in a dorm. Just ask for a card and a stamp at reception!!", "type": "frequency", "id": "538f31d6498ed7431f135943", "icon": "default"}]}, "allowMenuUrlEdit": true, "location": {"city": "Wien", "cc": "AT", "country": "\u00d6sterreich", "postalCode": "1040", "state": "Wien", "formattedAddress": ["Rechte Wienzeile 35 (Naschmarkt)", "1040 Wien", "\u00d6sterreich"], "crossStreet": "Naschmarkt", "address": "Rechte Wienzeile 35", "lat": 48.19686658558867, "lng": 16.360843158404386}, "verified": true, "id": "4d53a85fbdbea1cdd942de92", "categories": [{"pluralName": "Hostels", "primary": true, "name": "Hostel", "shortName": "Hostel", "id": "4bf58dd8d48988d1ee931735", "icon": {"prefix": "https://ss3.4sqi.net/img/categories_v2/travel/hostel_", "suffix": ".png"}}]}, {"stats": {"tipCount": 27, "checkinsCount": 1221, "usersCount": 646}, "name": "pentahotel Vienna", "referralId": "v-1446967474", "venueChains": [], "hereNow": {"count": 0, "groups": [], "summary": "Nobody here"}, "specials": {"count": 0, "items": []}, "allowMenuUrlEdit": true, "location": {"city": "Wien", "cc": "AT", "country": "\u00d6sterreich", "postalCode": "1050", "state": "Wien", "formattedAddress": ["Margaretenstra\u00dfe 92", "1050 Wien", "\u00d6sterreich"], "address": "Margaretenstra\u00dfe 92", "lat": 48.18993470682706, "lng": 16.356880513415447}, "verified": false, "id": "4e1b67c41495517ce51b163a", "categories": [{"pluralName": "Hotels", "primary": true, "name": "Hotel", "shortName": "Hotel", "id": "4bf58dd8d48988d1fa931735", "icon": {"prefix": "https://ss3.4sqi.net/img/categories_v2/travel/hotel_", "suffix": ".png"}}]}, {"stats": {"tipCount": 33, "checkinsCount": 2003, "usersCount": 1006}, "name": "Hotel Imperial", "referralId": "v-1446967474", "venueChains": [], "storeId": "97", "hereNow": {"count": 0, "groups": [], "summary": "Nobody here"}, "specials": {"count": 0, "items": []}, "allowMenuUrlEdit": true, "location": {"city": "Wien", "cc": "AT", "country": "\u00d6sterreich", "postalCode": "1010", "state": "Wien", "formattedAddress": ["K\u00e4rntner Ring 16", "1010 Wien", "\u00d6sterreich"], "address": "K\u00e4rntner Ring 16", "lat": 48.201309012303774, "lng": 16.373149424599205}, "verified": true, "id": "4b05888ff964a52060cd22e3", "categories": [{"pluralName": "Hotels", "primary": true, "name": "Hotel", "shortName": "Hotel", "id": "4bf58dd8d48988d1fa931735", "icon": {"prefix": "https://ss3.4sqi.net/img/categories_v2/travel/hotel_", "suffix": ".png"}}]}, {"stats": {"tipCount": 42, "checkinsCount": 4142, "usersCount": 2130}, "name": "Vienna Marriott Hotel", "referralId": "v-1446967474", "venueChains": [], "hereNow": {"count": 0, "groups": [], "summary": "Nobody here"}, "specials": {"count": 0, "items": []}, "allowMenuUrlEdit": true, "location": {"city": "Wien", "cc": "AT", "country": "\u00d6sterreich", "postalCode": "1010", "state": "Wien", "formattedAddress": ["Parkring 12a", "1010 Wien", "\u00d6sterreich"], "address": "Parkring 12a", "lat": 48.20508529708249, "lng": 16.37712810170342}, "venuePage": {"id": "137221740"}, "verified": true, "id": "4b05888ef964a52050cd22e3", "categories": [{"pluralName": "Hotels", "primary": true, "name": "Hotel", "shortName": "Hotel", "id": "4bf58dd8d48988d1fa931735", "icon": {"prefix": "https://ss3.4sqi.net/img/categories_v2/travel/hotel_", "suffix": ".png"}}]}, {"stats": {"tipCount": 29, "checkinsCount": 1650, "usersCount": 920}, "name": "MEININGER Hotel Vienna Downtown Sissi", "referralId": "v-1446967474", "venueChains": [{"id": "5568f4b6a7c8a9cf8ec49938"}], "storeId": "", "hereNow": {"count": 0, "groups": [], "summary": "Nobody here"}, "specials": {"count": 0, "items": []}, "allowMenuUrlEdit": true, "location": {"city": "Wien", "cc": "AT", "country": "\u00d6sterreich", "postalCode": "1020", "state": "Wien", "formattedAddress": ["Schiffamtsgasse 15", "1020 Wien", "\u00d6sterreich"], "address": "Schiffamtsgasse 15", "lat": 48.219109543282705, "lng": 16.3759110179972}, "verified": true, "id": "4eaeb449775bad292fef83f3", "categories": [{"pluralName": "Hotels", "primary": true, "name": "Hotel", "shortName": "Hotel", "id": "4bf58dd8d48988d1fa931735", "icon": {"prefix": "https://ss3.4sqi.net/img/categories_v2/travel/hotel_", "suffix": ".png"}}]}, {"stats": {"tipCount": 21, "checkinsCount": 483, "usersCount": 295}, "name": "Motel One Wien-Staatsoper", "referralId": "v-1446967474", "venueChains": [], "hereNow": {"count": 0, "groups": [], "summary": "Nobody here"}, "specials": {"count": 0, "items": []}, "allowMenuUrlEdit": true, "location": {"cc": "AT", "country": "\u00d6sterreich", "postalCode": "1010", "formattedAddress": ["Elisabethstra\u00dfe 5", "1010", "\u00d6sterreich"], "address": "Elisabethstra\u00dfe 5", "lat": 48.20187833496928, "lng": 16.36804659106012}, "verified": false, "id": "529c8f9d11d26f34c2553696", "categories": [{"pluralName": "Hotels", "primary": true, "name": "Hotel", "shortName": "Hotel", "id": "4bf58dd8d48988d1fa931735", "icon": {"prefix": "https://ss3.4sqi.net/img/categories_v2/travel/hotel_", "suffix": ".png"}}]}, {"stats": {"tipCount": 47, "checkinsCount": 2917, "usersCount": 1780}, "name": "Austria Trend Hotel Ananas", "referralId": "v-1446967474", "venueChains": [], "hereNow": {"count": 0, "groups": [], "summary": "Nobody here"}, "specials": {"count": 0, "items": []}, "allowMenuUrlEdit": true, "location": {"city": "Wien", "cc": "AT", "country": "\u00d6sterreich", "postalCode": "1050", "state": "Wien", "formattedAddress": ["Sonnenhofgasse 8", "1050 Wien", "\u00d6sterreich"], "address": "Sonnenhofgasse 8", "lat": 48.191770694466896, "lng": 16.354718744718554}, "verified": false, "id": "4bc3929db492d13a10f2a860", "categories": [{"pluralName": "Hotels", "primary": true, "name": "Hotel", "shortName": "Hotel", "id": "4bf58dd8d48988d1fa931735", "icon": {"prefix": "https://ss3.4sqi.net/img/categories_v2/travel/hotel_", "suffix": ".png"}}]}, {"stats": {"tipCount": 55, "checkinsCount": 5842, "usersCount": 3007}, "name": "Hilton Vienna", "referralId": "v-1446967474", "venueChains": [{"id": "556e146fa7c82e6b725097d5"}], "storeId": "VIEHITW", "hereNow": {"count": 0, "groups": [], "summary": "Nobody here"}, "specials": {"count": 0, "items": []}, "allowMenuUrlEdit": true, "location": {"city": "Wien", "cc": "AT", "country": "\u00d6sterreich", "postalCode": "1030", "state": "Wien", "formattedAddress": ["Am Stadtpark 1", "1030 Wien", "\u00d6sterreich"], "address": "Am Stadtpark 1", "lat": 48.206304676456185, "lng": 16.383190480777873}, "verified": true, "id": "4b05888ff964a52066cd22e3", "categories": [{"pluralName": "Hotels", "primary": true, "name": "Hotel", "shortName": "Hotel", "id": "4bf58dd8d48988d1fa931735", "icon": {"prefix": "https://ss3.4sqi.net/img/categories_v2/travel/hotel_", "suffix": ".png"}}]}, {"stats": {"tipCount": 32, "checkinsCount": 2657, "usersCount": 1247}, "name": "The Ritz-Carlton, Vienna", "referralId": "v-1446967474", "venueChains": [{"id": "556f4350bd6a007c773894a9"}], "storeId": "", "hereNow": {"count": 0, "groups": [], "summary": "Nobody here"}, "specials": {"count": 0, "items": []}, "allowMenuUrlEdit": true, "location": {"city": "Wien", "cc": "AT", "country": "\u00d6sterreich", "postalCode": "1010", "state": "Wien", "formattedAddress": ["Schubertring 5", "1010 Wien", "\u00d6sterreich"], "address": "Schubertring 5", "lat": 48.20235982142171, "lng": 16.376060061025637}, "verified": true, "id": "4f1ffeabe4b0bf85e31131c2", "categories": [{"pluralName": "Hotels", "primary": true, "name": "Hotel", "shortName": "Hotel", "id": "4bf58dd8d48988d1fa931735", "icon": {"prefix": "https://ss3.4sqi.net/img/categories_v2/travel/hotel_", "suffix": ".png"}}]}, {"stats": {"tipCount": 21, "checkinsCount": 1667, "usersCount": 929}, "name": "Hotel Park Royal Palace Vienna", "referralId": "v-1446967474", "venueChains": [], "hereNow": {"count": 0, "groups": [], "summary": "Nobody here"}, "specials": {"count": 0, "items": []}, "allowMenuUrlEdit": true, "location": {"city": "Wien", "cc": "AT", "country": "\u00d6sterreich", "postalCode": "1140", "state": "Wien", "formattedAddress": ["Schlossallee 8", "1140 Wien", "\u00d6sterreich"], "address": "Schlossallee 8", "lat": 48.19121276142364, "lng": 16.316500028875538}, "verified": false, "id": "4e9c28025503cfce74e2cf90", "categories": [{"pluralName": "Hotels", "primary": true, "name": "Hotel", "shortName": "Hotel", "id": "4bf58dd8d48988d1fa931735", "icon": {"prefix": "https://ss3.4sqi.net/img/categories_v2/travel/hotel_", "suffix": ".png"}}]}, {"stats": {"tipCount": 44, "checkinsCount": 3579, "usersCount": 1701}, "name": "InterContinental", "referralId": "v-1446967474", "venueChains": [{"id": "556a48c3a7c8957d73d66814"}], "storeId": "VIEHA", "hereNow": {"count": 0, "groups": [], "summary": "Nobody here"}, "specials": {"count": 0, "items": []}, "allowMenuUrlEdit": true, "location": {"city": "Wien", "cc": "AT", "country": "\u00d6sterreich", "postalCode": "1037", "state": "Wien", "formattedAddress": ["Johannesgasse 28", "1037 Wien", "\u00d6sterreich"], "address": "Johannesgasse 28", "lat": 48.201859267039104, "lng": 16.379097103112144}, "verified": true, "id": "4b209470f964a520453324e3", "categories": [{"pluralName": "Hotels", "primary": true, "name": "Hotel", "shortName": "Hotel", "id": "4bf58dd8d48988d1fa931735", "icon": {"prefix": "https://ss3.4sqi.net/img/categories_v2/travel/hotel_", "suffix": ".png"}}]}, {"stats": {"tipCount": 69, "checkinsCount": 4556, "usersCount": 2726}, "name": "25hours Hotel Wien beim MuseumsQuartier", "referralId": "v-1446967474", "venueChains": [{"id": "556f3dd6bd6a007c7737ff19"}], "hereNow": {"count": 0, "groups": [], "summary": "Nobody here"}, "specials": {"count": 0, "items": []}, "allowMenuUrlEdit": true, "location": {"city": "Wien", "neighborhood": "Neubau, Wien", "cc": "AT", "country": "\u00d6sterreich", "postalCode": "1070", "state": "Wien", "formattedAddress": ["Lerchenfelder Strasse 1-3 (Mechitaristengasse)", "1070 Wien", "\u00d6sterreich"], "crossStreet": "Mechitaristengasse", "address": "Lerchenfelder Strasse 1-3", "lat": 48.20643423022543, "lng": 16.35459528399906}, "verified": true, "id": "4d7ab1dcc7fca143778121a2", "categories": [{"pluralName": "Hotels", "primary": true, "name": "Hotel", "shortName": "Hotel", "id": "4bf58dd8d48988d1fa931735", "icon": {"prefix": "https://ss3.4sqi.net/img/categories_v2/travel/hotel_", "suffix": ".png"}}]}, {"stats": {"tipCount": 18, "checkinsCount": 1559, "usersCount": 865}, "name": "Hotel De France", "referralId": "v-1446967474", "venueChains": [], "hereNow": {"count": 0, "groups": [], "summary": "Nobody here"}, "specials": {"count": 0, "items": []}, "allowMenuUrlEdit": true, "location": {"city": "Wien", "cc": "AT", "country": "\u00d6sterreich", "state": "Wien", "formattedAddress": ["Schottenring 3", "Wien", "\u00d6sterreich"], "address": "Schottenring 3", "lat": 48.214502558853134, "lng": 16.363127314784297}, "verified": false, "id": "4bdb2e1f63c5c9b63eb72668", "categories": [{"pluralName": "Hotels", "primary": true, "name": "Hotel", "shortName": "Hotel", "id": "4bf58dd8d48988d1fa931735", "icon": {"prefix": "https://ss3.4sqi.net/img/categories_v2/travel/hotel_", "suffix": ".png"}}]}, {"stats": {"tipCount": 11, "checkinsCount": 1666, "usersCount": 355}, "name": "Hotel Zeitgeist Vienna", "referralId": "v-1446967474", "venueChains": [], "storeId": "", "hereNow": {"count": 0, "groups": [], "summary": "Nobody here"}, "specials": {"count": 0, "items": []}, "allowMenuUrlEdit": true, "location": {"city": "Wien", "cc": "AT", "country": "\u00d6sterreich", "postalCode": "1100", "state": "Wien", "formattedAddress": ["Sonnwendgasse 15", "1100 Wien", "\u00d6sterreich"], "address": "Sonnwendgasse 15", "lat": 48.182255091734646, "lng": 16.378276348114014}, "venuePage": {"id": "51894064"}, "verified": true, "id": "5118d2cbe4b073159690695b", "categories": [{"pluralName": "Hotels", "primary": true, "name": "Hotel", "shortName": "Hotel", "id": "4bf58dd8d48988d1fa931735", "icon": {"prefix": "https://ss3.4sqi.net/img/categories_v2/travel/hotel_", "suffix": ".png"}}]}, {"stats": {"tipCount": 33, "checkinsCount": 3610, "usersCount": 2374}, "name": "Eventhotel Pyramide Austria Trend Hotel Vienna", "referralId": "v-1446967474", "venueChains": [], "hereNow": {"count": 0, "groups": [], "summary": "Nobody here"}, "specials": {"count": 0, "items": []}, "allowMenuUrlEdit": true, "location": {"city": "Wien", "cc": "AT", "country": "\u00d6sterreich", "postalCode": "2334", "state": "Wien", "formattedAddress": ["Parkallee 2 2334 V\u00c3\u00b6sendorf Austria", "2334 Wien", "\u00d6sterreich"], "address": "Parkallee 2 2334 V\u00c3\u00b6sendorf Austria", "lat": 48.11307450882792, "lng": 16.312511195350442}, "verified": false, "id": "4bcf1b5d0ffdce72713eb2c0", "categories": [{"pluralName": "Hotels", "primary": true, "name": "Hotel", "shortName": "Hotel", "id": "4bf58dd8d48988d1fa931735", "icon": {"prefix": "https://ss3.4sqi.net/img/categories_v2/travel/hotel_", "suffix": ".png"}}]}, {"stats": {"tipCount": 57, "checkinsCount": 6282, "usersCount": 2673}, "name": "Le M\u00e9ridien Vienna", "referralId": "v-1446967474", "venueChains": [], "storeId": "1852", "hereNow": {"count": 0, "groups": [], "summary": "Nobody here"}, "specials": {"count": 0, "items": []}, "allowMenuUrlEdit": true, "location": {"city": "Wien", "cc": "AT", "country": "\u00d6sterreich", "postalCode": "1010", "state": "Wien", "formattedAddress": ["Opernring 13", "1010 Wien", "\u00d6sterreich"], "address": "Opernring 13", "lat": 48.20275190050242, "lng": 16.366369190367013}, "verified": true, "id": "4b15053bf964a520dfa723e3", "categories": [{"pluralName": "Hotels", "primary": true, "name": "Hotel", "shortName": "Hotel", "id": "4bf58dd8d48988d1fa931735", "icon": {"prefix": "https://ss3.4sqi.net/img/categories_v2/travel/hotel_", "suffix": ".png"}}]}, {"stats": {"tipCount": 8, "checkinsCount": 1077, "usersCount": 772}, "name": "Hotel Kavalier****", "referralId": "v-1446967474", "venueChains": [], "hereNow": {"count": 0, "groups": [], "summary": "Nobody here"}, "specials": {"count": 0, "items": []}, "allowMenuUrlEdit": true, "location": {"city": "Wien", "cc": "AT", "country": "\u00d6sterreich", "postalCode": "1140", "state": "Wien", "formattedAddress": ["Linzerstrasse 165", "1140 Wien", "\u00d6sterreich"], "address": "Linzerstrasse 165", "lat": 48.194156, "lng": 16.297211}, "verified": false, "id": "4bc894e46501c9b626664029", "categories": [{"pluralName": "Hotels", "primary": true, "name": "Hotel", "shortName": "Hotel", "id": "4bf58dd8d48988d1fa931735", "icon": {"prefix": "https://ss3.4sqi.net/img/categories_v2/travel/hotel_", "suffix": ".png"}}]}, {"stats": {"tipCount": 46, "checkinsCount": 4979, "usersCount": 2888}, "name": "NH Wien Airport", "referralId": "v-1446967474", "venueChains": [{"id": "556ce426aceaff43eb04e8a4"}], "storeId": "414", "hereNow": {"count": 0, "groups": [], "summary": "Nobody here"}, "specials": {"count": 0, "items": []}, "allowMenuUrlEdit": true, "location": {"city": "Wien", "cc": "AT", "country": "\u00d6sterreich", "postalCode": "1300", "state": "Wien", "formattedAddress": ["Einfahrtstr. 1- 3 (VIE Airport)", "1300 Wien", "\u00d6sterreich"], "crossStreet": "VIE Airport", "address": "Einfahrtstr. 1- 3", "lat": 48.121843, "lng": 16.562812}, "verified": true, "id": "4ba296cff964a520000738e3", "categories": [{"pluralName": "Hotels", "primary": true, "name": "Hotel", "shortName": "Hotel", "id": "4bf58dd8d48988d1fa931735", "icon": {"prefix": "https://ss3.4sqi.net/img/categories_v2/travel/hotel_", "suffix": ".png"}}]}, {"stats": {"tipCount": 34, "checkinsCount": 2345, "usersCount": 1286}, "name": "Austria Trend Hotel Savoyen", "referralId": "v-1446967474", "venueChains": [], "hereNow": {"count": 0, "groups": [], "summary": "Nobody here"}, "specials": {"count": 0, "items": []}, "allowMenuUrlEdit": true, "location": {"city": "Wien", "cc": "AT", "country": "\u00d6sterreich", "postalCode": "1030", "state": "Wien", "formattedAddress": ["Rennweg 16", "1030 Wien", "\u00d6sterreich"], "address": "Rennweg 16", "lat": 48.19504336400286, "lng": 16.384507204099215}, "verified": false, "id": "4b95532df964a520789c34e3", "categories": [{"pluralName": "Hotels", "primary": true, "name": "Hotel", "shortName": "Hotel", "id": "4bf58dd8d48988d1fa931735", "icon": {"prefix": "https://ss3.4sqi.net/img/categories_v2/travel/hotel_", "suffix": ".png"}}]}, {"stats": {"tipCount": 20, "checkinsCount": 1340, "usersCount": 710}, "name": "ARCOTEL Kaiserwasser Wien", "referralId": "v-1446967474", "venueChains": [{"id": "5569f012a7c8896abe7bf9e4"}], "storeId": "", "hereNow": {"count": 0, "groups": [], "summary": "Nobody here"}, "specials": {"count": 0, "items": []}, "allowMenuUrlEdit": true, "location": {"city": "Wien", "cc": "AT", "country": "\u00d6sterreich", "postalCode": "1220", "state": "Wien", "formattedAddress": ["Wagramer Str 8", "1220 Wien", "\u00d6sterreich"], "address": "Wagramer Str 8", "lat": 48.23191346760524, "lng": 16.416985227178873}, "verified": true, "id": "4b71bc14f964a5204a592de3", "categories": [{"pluralName": "Hotels", "primary": true, "name": "Hotel", "shortName": "Hotel", "id": "4bf58dd8d48988d1fa931735", "icon": {"prefix": "https://ss3.4sqi.net/img/categories_v2/travel/hotel_", "suffix": ".png"}}]}, {"stats": {"tipCount": 23, "checkinsCount": 2370, "usersCount": 1265}, "name": "Hotel Ibis Wien Mariahilf", "referralId": "v-1446967474", "venueChains": [], "hereNow": {"count": 0, "groups": [], "summary": "Nobody here"}, "specials": {"count": 0, "items": []}, "allowMenuUrlEdit": true, "location": {"city": "Wien", "cc": "AT", "country": "\u00d6sterreich", "postalCode": "1060", "state": "Wien", "formattedAddress": ["Mariahilfer G\u00fcrtel 22-24", "1060 Wien", "\u00d6sterreich"], "address": "Mariahilfer G\u00fcrtel 22-24", "lat": 48.19322306213128, "lng": 16.339255142231227}, "verified": false, "id": "4b9f27f0f964a520e61537e3", "categories": [{"pluralName": "Hotels", "primary": true, "name": "Hotel", "shortName": "Hotel", "id": "4bf58dd8d48988d1fa931735", "icon": {"prefix": "https://ss3.4sqi.net/img/categories_v2/travel/hotel_", "suffix": ".png"}}]}, {"stats": {"tipCount": 30, "checkinsCount": 1533, "usersCount": 1139}, "name": "Arion Cityhotel Vienna", "referralId": "v-1446967474", "venueChains": [], "hereNow": {"count": 0, "groups": [], "summary": "Nobody here"}, "specials": {"count": 0, "items": []}, "allowMenuUrlEdit": true, "location": {"city": "Wien", "cc": "AT", "country": "\u00d6sterreich", "postalCode": "1100", "state": "Wien", "formattedAddress": ["Hintschiggasse 1", "1100 Wien", "\u00d6sterreich"], "address": "Hintschiggasse 1", "lat": 48.1585539716184, "lng": 16.345180869452015}, "verified": false, "id": "50917cefe4b0d49482d175ae", "categories": [{"pluralName": "Hotels", "primary": true, "name": "Hotel", "shortName": "Hotel", "id": "4bf58dd8d48988d1fa931735", "icon": {"prefix": "https://ss3.4sqi.net/img/categories_v2/travel/hotel_", "suffix": ".png"}}]}, {"stats": {"tipCount": 22, "checkinsCount": 695, "usersCount": 392}, "name": "Park Hyatt Vienna", "referralId": "v-1446967474", "venueChains": [{"id": "5569f334a7c8896abe7c5867"}], "storeId": "VIEPH", "hereNow": {"count": 0, "groups": [], "summary": "Nobody here"}, "specials": {"count": 0, "items": []}, "allowMenuUrlEdit": true, "location": {"city": "Wien", "cc": "AT", "country": "\u00d6sterreich", "postalCode": "1010", "state": "Wien", "formattedAddress": ["Am Hof 2", "1010 Wien", "\u00d6sterreich"], "address": "Am Hof 2", "lat": 48.210671, "lng": 16.368108}, "verified": true, "id": "513f0da8e4b0be38aa6bfe03", "categories": [{"pluralName": "Hotels", "primary": true, "name": "Hotel", "shortName": "Hotel", "id": "4bf58dd8d48988d1fa931735", "icon": {"prefix": "https://ss3.4sqi.net/img/categories_v2/travel/hotel_", "suffix": ".png"}}]}, {"stats": {"tipCount": 6, "checkinsCount": 603, "usersCount": 337}, "name": "Motel One Wien-Prater", "referralId": "v-1446967474", "venueChains": [], "hereNow": {"count": 0, "groups": [], "summary": "Nobody here"}, "specials": {"count": 0, "items": []}, "allowMenuUrlEdit": true, "location": {"cc": "AT", "country": "\u00d6sterreich", "postalCode": "1020", "formattedAddress": ["Ausstellungsstra\u00dfe 40", "1020", "\u00d6sterreich"], "address": "Ausstellungsstra\u00dfe 40", "lat": 48.217662467469474, "lng": 16.40196982658997}, "verified": false, "id": "52c29dce498eaecbf256696b", "categories": [{"pluralName": "Motels", "primary": true, "name": "Motel", "shortName": "Motel", "id": "4bf58dd8d48988d1fb931735", "icon": {"prefix": "https://ss3.4sqi.net/img/categories_v2/travel/hotel_", "suffix": ".png"}}]}, {"stats": {"tipCount": 54, "checkinsCount": 3510, "usersCount": 2472}, "name": "Hotel Sacher", "referralId": "v-1446967474", "venueChains": [], "hereNow": {"count": 0, "groups": [], "summary": "Nobody here"}, "specials": {"count": 0, "items": []}, "allowMenuUrlEdit": true, "location": {"city": "Wien", "cc": "AT", "country": "\u00d6sterreich", "postalCode": "1010", "state": "Wien", "formattedAddress": ["Philharmonikerstr. 4", "1010 Wien", "\u00d6sterreich"], "address": "Philharmonikerstr. 4", "lat": 48.20395963876185, "lng": 16.369891721397263}, "verified": false, "id": "4b058890f964a520aacd22e3", "categories": [{"pluralName": "Hotels", "primary": true, "name": "Hotel", "shortName": "Hotel", "id": "4bf58dd8d48988d1fa931735", "icon": {"prefix": "https://ss3.4sqi.net/img/categories_v2/travel/hotel_", "suffix": ".png"}}]}, {"stats": {"tipCount": 61, "checkinsCount": 2716, "usersCount": 1707}, "name": "MEININGER Hotel Vienna Downtown Franz", "referralId": "v-1446967474", "venueChains": [{"id": "5568f4b6a7c8a9cf8ec49938"}], "storeId": "", "hereNow": {"count": 0, "groups": [], "summary": "Nobody here"}, "specials": {"count": 0, "items": []}, "allowMenuUrlEdit": true, "location": {"city": "Wien", "cc": "AT", "country": "\u00d6sterreich", "postalCode": "1020", "state": "Wien", "formattedAddress": ["Rembrandtstrasse 21", "1020 Wien", "\u00d6sterreich"], "address": "Rembrandtstrasse 21", "lat": 48.221822, "lng": 16.371905}, "verified": true, "id": "4e985f6a82310543d2647467", "categories": [{"pluralName": "Hotels", "primary": true, "name": "Hotel", "shortName": "Hotel", "id": "4bf58dd8d48988d1fa931735", "icon": {"prefix": "https://ss3.4sqi.net/img/categories_v2/travel/hotel_", "suffix": ".png"}}]}, {"stats": {"tipCount": 15, "checkinsCount": 2396, "usersCount": 1236}, "name": "Grand Hotel Wien", "referralId": "v-1446967475", "venueChains": [], "hereNow": {"count": 0, "groups": [], "summary": "Nobody here"}, "specials": {"count": 0, "items": []}, "allowMenuUrlEdit": true, "location": {"city": "Wien", "cc": "AT", "country": "\u00d6sterreich", "postalCode": "1010", "state": "Wien", "formattedAddress": ["K\u00e4rntner Ring 9", "1010 Wien", "\u00d6sterreich"], "address": "K\u00e4rntner Ring 9", "lat": 48.2021024722568, "lng": 16.37213945388794}, "verified": false, "id": "4b05888ff964a52085cd22e3", "categories": [{"pluralName": "Hotels", "primary": true, "name": "Hotel", "shortName": "Hotel", "id": "4bf58dd8d48988d1fa931735", "icon": {"prefix": "https://ss3.4sqi.net/img/categories_v2/travel/hotel_", "suffix": ".png"}}]}, {"stats": {"tipCount": 12, "checkinsCount": 1090, "usersCount": 620}, "name": "Best Western Plus Hotel Amedia", "referralId": "v-1446967475", "venueChains": [], "hereNow": {"count": 0, "groups": [], "summary": "Nobody here"}, "specials": {"count": 0, "items": []}, "allowMenuUrlEdit": true, "location": {"city": "Wien", "cc": "AT", "country": "\u00d6sterreich", "postalCode": "1030", "state": "Wien", "formattedAddress": ["Landstrasser Hauptstrasse 155", "1030 Wien", "\u00d6sterreich"], "address": "Landstrasser Hauptstrasse 155", "lat": 48.19238039172457, "lng": 16.399560356144256}, "verified": false, "id": "4f6b0c7ee4b0b949c49835b0", "categories": [{"pluralName": "Hotels", "primary": true, "name": "Hotel", "shortName": "Hotel", "id": "4bf58dd8d48988d1fa931735", "icon": {"prefix": "https://ss3.4sqi.net/img/categories_v2/travel/hotel_", "suffix": ".png"}}]}]}}